timestamp(unix),attitude_roll(radians),attitude_pitch(radians),attitude_yaw(radians),rotation_rate_x(radians/s),rotation_rate_y(radians/s),rotation_rate_z(radians/s),gravity_x(G),gravity_y(G),gravity_z(G),user_acc_x(G),user_acc_y(G),user_acc_z(G),magnetic_field_x(microteslas),magnetic_field_y(microteslas),magnetic_field_z(microteslas),latitude(degree),longitude(degree),altitude(meter),speed(m/s),course(degree),timestamp(unix),User Mark
1504282284.990641,-0.073545,0.382009,-1.489960,-0.012303,0.206297,-0.077040,-0.068182,-0.372786,-0.925409,0.007879,-0.064638,0.019632,-21.008936,-21.576788,-37.559235,,,,,,,
1504282285.000651,-0.071787,0.382515,-1.490936,0.062827,0.115124,-0.098097,-0.066542,-0.373254,-0.925340,0.010512,-0.060217,0.026551,-20.858789,-21.501562,-37.334412,,,,,,,
1504282285.010661,-0.070431,0.385762,-1.492176,0.116612,0.027305,-0.107457,-0.065202,-0.376265,-0.924215,0.011277,-0.056306,0.029012,-20.858789,-21.501562,-37.334412,,,,,,,
1504282285.020671,-0.070296,0.387150,-1.493216,0.134192,-0.041040,-0.105172,-0.065039,-0.377551,-0.923702,0.009024,-0.060635,0.027309,-20.485178,-21.124273,-37.636292,,,,,,,
1504282285.030680,-0.070701,0.388490,-1.494229,0.123124,-0.088904,-0.101904,-0.065378,-0.378792,-0.923170,0.005685,-0.063347,0.021162,-20.485178,-21.124273,-37.636292,,,,,,,
1504282285.040690,-0.071335,0.389629,-1.495224,0.101641,-0.103651,-0.096578,-0.065932,-0.379846,-0.922697,0.009398,-0.066367,0.020430,-20.709467,-21.275732,-37.410706,,,,,,,
1504282285.050700,-0.071734,0.392920,-1.496202,0.084503,-0.105664,-0.080595,-0.066211,-0.382888,-0.921419,0.008700,-0.068269,0.020754,-20.709467,-21.275732,-37.410706,,,,,,,
1504282285.060710,-0.072415,0.393753,-1.496851,0.079204,-0.088592,-0.060353,-0.066815,-0.383657,-0.921056,0.006481,-0.062770,0.020146,-21.008570,-21.502539,-37.184784,,,,,,,
1504282285.070719,-0.072830,0.394642,-1.497274,0.089059,-0.045003,-0.041200,-0.067172,-0.384477,-0.920687,0.006931,-0.055205,0.023425,-21.008570,-21.502539,-37.184784,,,,,,,
1504282285.080729,-0.072758,0.395660,-1.497497,0.103315,0.014534,-0.023134,-0.067078,-0.385418,-0.920301,0.006485,-0.052052,0.026136,-20.558008,-21.725515,-37.182007,,,,,,,
1504282285.090739,-0.072096,0.398511,-1.497666,0.103753,0.067805,-0.021093,-0.066389,-0.388046,-0.919246,0.002454,-0.045014,0.029018,-20.558008,-21.725515,-37.182007,,,,,,,
1504282285.100749,-0.071031,0.399407,-1.497874,0.078495,0.107447,-0.027611,-0.065385,-0.388872,-0.918968,0.004228,-0.043958,0.026222,-20.783228,-21.726233,-37.332550,,,,,,,
1504282285.110759,-0.069402,0.401519,-1.498363,0.039066,0.105645,-0.036217,-0.063831,-0.390817,-0.918253,0.010028,-0.044577,0.018396,-20.783228,-21.726233,-37.332550,,,,,,,
1504282285.120768,-0.067666,0.403257,-1.499084,0.002667,0.082506,-0.044780,-0.062191,-0.392417,-0.917683,0.016201,-0.047525,0.014805,-20.932505,-21.877356,-37.106781,,,,,,,
1504282285.130778,-0.066183,0.404794,-1.499868,-0.011369,0.055982,-0.050097,-0.060790,-0.393830,-0.917171,0.016189,-0.047454,0.017360,-20.932505,-21.877356,-37.106781,,,,,,,
1504282285.140788,-0.064981,0.406273,-1.500661,-0.011378,0.048526,-0.056490,-0.059649,-0.395188,-0.916661,0.012454,-0.044478,0.024556,-20.782587,-22.026083,-37.405273,,,,,,,
1504282285.150767,-0.063664,0.407822,-1.501515,0.004688,0.052654,-0.058606,-0.058403,-0.396611,-0.916127,0.015145,-0.042003,0.027562,-20.782587,-22.026083,-37.405273,,,,,,,
1504282285.160777,-0.062472,0.409450,-1.502217,0.028028,0.043917,-0.042541,-0.057271,-0.398105,-0.915550,0.015294,-0.037503,0.028404,-20.707850,-21.875891,-37.331238,,,,,,,
1504282285.170787,-0.061789,0.411066,-1.502544,0.049186,0.034125,-0.019005,-0.056606,-0.399587,-0.914946,0.006969,-0.031428,0.027373,-20.707850,-21.875891,-37.331238,,,,,,,
1504282285.180796,-0.061374,0.412719,-1.502645,0.067239,0.028636,-0.008290,-0.056186,-0.401101,-0.914309,0.004077,-0.027091,0.025546,-20.558344,-21.725073,-37.406982,,,,,,,
1504282285.190806,-0.060860,0.414435,-1.502756,0.082230,0.033839,-0.008274,-0.055674,-0.402673,-0.913649,0.006250,-0.024299,0.024581,-20.558344,-21.725073,-37.406982,,,,,,,
1504282285.200816,-0.060168,0.416227,-1.502955,0.082249,0.032774,-0.011475,-0.054998,-0.404312,-0.912966,0.010717,-0.025604,0.025835,-20.332468,-22.024206,-37.329193,,,,,,,
1504282285.210826,-0.059621,0.417932,-1.503123,0.072652,0.030722,-0.013624,-0.054457,-0.405871,-0.912306,0.006453,-0.027539,0.022368,-20.332468,-22.024206,-37.329193,,,,,,,
1504282285.220835,-0.059059,0.419503,-1.503323,0.058728,0.024438,-0.010435,-0.053906,-0.407307,-0.911699,0.008710,-0.030392,0.017763,-20.332773,-21.949057,-37.404724,,,,,,,
1504282285.230845,-0.058585,0.421108,-1.503474,0.060650,0.003097,0.000278,-0.053437,-0.408772,-0.911071,0.012726,-0.032787,0.019225,-20.332773,-21.949057,-37.404724,,,,,,,
1504282285.240855,-0.058556,0.422842,-1.503401,0.075292,-0.024749,0.017430,-0.053368,-0.410354,-0.910363,0.009850,-0.031678,0.024789,-20.482019,-22.249731,-37.402832,,,,,,,
1504282285.250865,-0.058958,0.424770,-1.503145,0.093114,-0.057944,0.030328,-0.053687,-0.412111,-0.909551,0.009360,-0.031462,0.028935,-20.482019,-22.249731,-37.402832,,,,,,,
1504282285.260874,-0.059591,0.426833,-1.502863,0.102524,-0.083598,0.030388,-0.054212,-0.413990,-0.908666,0.011869,-0.032681,0.029546,-20.556864,-22.175512,-37.178619,,,,,,,
1504282285.270884,-0.060442,0.428917,-1.502659,0.100380,-0.095289,0.016528,-0.054933,-0.415886,-0.907756,0.008714,-0.034294,0.027172,-20.556864,-22.175512,-37.178619,,,,,,,
1504282285.280894,-0.061236,0.430811,-1.502674,0.089821,-0.096247,-0.004838,-0.055606,-0.417608,-0.906924,0.008288,-0.031626,0.023685,-20.333033,-21.799200,-37.330872,,,,,,,
1504282285.290904,-0.062050,0.432577,-1.502777,0.081325,-0.096173,-0.010190,-0.056298,-0.419212,-0.906141,0.005975,-0.031396,0.021803,-20.333033,-21.799200,-37.330872,,,,,,,
1504282285.300914,-0.063029,0.434272,-1.502798,0.073844,-0.097181,-0.006999,-0.057140,-0.420750,-0.905375,0.000530,-0.032863,0.022288,-20.407816,-21.799841,-37.181061,,,,,,,
1504282285.310923,-0.064204,0.435906,-1.502695,0.076932,-0.106807,0.002630,-0.058160,-0.422232,-0.904620,-0.002173,-0.029871,0.023547,-20.407816,-21.799841,-37.181061,,,,,,,
1504282285.320933,-0.065558,0.437491,-1.502376,0.087436,-0.115441,0.024012,-0.059341,-0.423668,-0.903872,-0.001236,-0.023857,0.024004,-20.632242,-22.025854,-37.179932,,,,,,,
1504282285.330943,-0.067128,0.439174,-1.501824,0.091625,-0.116558,0.040032,-0.060712,-0.425192,-0.903064,-0.004519,-0.024377,0.027286,-20.632242,-22.025854,-37.179932,,,,,,,
1504282285.340953,-0.068650,0.440728,-1.501240,0.084232,-0.109036,0.038939,-0.062041,-0.426598,-0.902311,-0.004777,-0.023338,0.023603,-20.706263,-22.326498,-37.027832,,,,,,,
1504282285.350962,-0.069951,0.442048,-1.500760,0.066344,-0.085435,0.028193,-0.063176,-0.427792,-0.901667,-0.005397,-0.022358,0.017451,-20.706263,-22.326498,-37.027832,,,,,,,
1504282285.360972,-0.070904,0.443177,-1.500399,0.042351,-0.030870,0.007776,-0.064000,-0.428812,-0.901124,-0.013713,-0.024207,0.017304,-20.631723,-22.101309,-36.954346,,,,,,,
1504282285.370951,-0.071408,0.444114,-1.500185,0.017180,0.013043,-0.007287,-0.064426,-0.429658,-0.900690,-0.018414,-0.026626,0.018000,-20.631723,-22.101309,-36.954346,,,,,,,
1504282285.380961,-0.071648,0.444659,-1.500059,-0.009227,0.039911,-0.015918,-0.064625,-0.430150,-0.900441,-0.023662,-0.023860,0.012700,-20.781412,-22.401388,-37.252472,,,,,,,
1504282285.390971,-0.071853,0.444924,-1.499980,-0.014467,0.046357,-0.023408,-0.064802,-0.430389,-0.900314,-0.028597,-0.018768,0.005920,-20.781412,-22.401388,-37.252472,,,,,,,
1504282285.400981,-0.072007,0.445226,-1.499987,0.003686,0.043019,-0.030840,-0.064931,-0.430662,-0.900175,-0.027873,-0.013079,0.006284,-20.705896,-22.476492,-37.026703,,,,,,,
1504282285.410990,-0.072344,0.445824,-1.499964,0.035533,0.023575,-0.028613,-0.065216,-0.431201,-0.899896,-0.027817,-0.009030,0.014306,-20.705896,-22.476492,-37.026703,,,,,,,
1504282285.421000,-0.072960,0.446575,-1.499925,0.048120,-0.005297,-0.030673,-0.065746,-0.431879,-0.899532,-0.028660,-0.008932,0.012508,-20.781687,-22.027273,-36.805298,,,,,,,
1504282285.431010,-0.073793,0.447336,-1.500004,0.052122,-0.043683,-0.038068,-0.066472,-0.432565,-0.899149,-0.024349,-0.010367,0.003473,-20.781687,-22.027273,-36.805298,,,,,,,
1504282285.441020,-0.074722,0.448055,-1.500333,0.050968,-0.068159,-0.059373,-0.067284,-0.433213,-0.898776,-0.021477,-0.010543,-0.001843,-20.780817,-22.327429,-36.728027,,,,,,,
1504282285.451030,-0.075687,0.448848,-1.500917,0.055228,-0.084153,-0.082819,-0.068125,-0.433928,-0.898368,-0.020712,-0.012041,-0.000985,-20.780817,-22.327429,-36.728027,,,,,,,
1504282285.461039,-0.076670,0.449735,-1.501741,0.056338,-0.092665,-0.104148,-0.068979,-0.434727,-0.897917,-0.021109,-0.012936,0.002882,-20.705973,-22.401648,-36.952301,,,,,,,
1504282285.471049,-0.077482,0.450703,-1.502734,0.056484,-0.080934,-0.113774,-0.069675,-0.435599,-0.897440,-0.018994,-0.014856,0.005457,-20.705973,-22.401648,-36.952301,,,,,,,
1504282285.481059,-0.078114,0.451677,-1.503665,0.041797,-0.047784,-0.109586,-0.070209,-0.436475,-0.896973,-0.023068,-0.020221,0.008210,-20.630472,-22.551458,-36.875977,,,,,,,
1504282285.491069,-0.078495,0.452526,-1.504520,0.018686,-0.002840,-0.108636,-0.070522,-0.437238,-0.896577,-0.030843,-0.024813,0.009888,-20.630472,-22.551458,-36.875977,,,,,,,
1504282285.501078,-0.078262,0.453128,-1.505494,-0.006465,0.048524,-0.116240,-0.070293,-0.437780,-0.896330,-0.028325,-0.027781,0.005705,-20.704874,-22.702093,-36.725037,,,,,,,
1504282285.511088,-0.077419,0.453578,-1.506622,-0.025196,0.098774,-0.129168,-0.069521,-0.438185,-0.896193,-0.028074,-0.031130,0.003859,-20.704874,-22.702093,-36.725037,,,,,,,
1504282285.521098,-0.076448,0.454520,-1.507849,0.039931,0.095054,-0.141855,-0.068620,-0.439031,-0.895847,-0.028396,-0.030039,0.019032,-20.704767,-22.702246,-36.650024,,,,,,,
1504282285.531108,-0.075184,0.454820,-1.509783,0.001179,0.022961,-0.188761,-0.067477,-0.439301,-0.895802,-0.031446,-0.049209,0.099461,-20.704767,-22.702246,-36.650024,,,,,,,
1504282285.541117,-0.074602,0.454635,-1.512241,-0.047388,-0.070372,-0.227107,-0.066962,-0.439134,-0.895923,-0.012643,-0.033568,0.018802,-20.554529,-22.926123,-36.872955,,,,,,,
1504282285.551127,-0.074501,0.454224,-1.514996,-0.062618,-0.120308,-0.248393,-0.066885,-0.438765,-0.896109,-0.014948,-0.033510,0.020529,-20.554529,-22.926123,-36.872955,,,,,,,
1504282285.561137,-0.074784,0.454598,-1.517776,-0.061642,-0.136296,-0.253700,-0.067126,-0.439101,-0.895926,-0.006254,-0.028596,0.031394,-20.479654,-22.925634,-36.947784,,,,,,,
1504282285.571135,-0.074901,0.454247,-1.520484,-0.050967,-0.123616,-0.234490,-0.067243,-0.438786,-0.896072,-0.006137,-0.028911,0.031540,-20.479654,-22.925634,-36.947784,,,,,,,
1504282285.581114,-0.074760,0.453975,-1.522971,-0.041127,-0.083222,-0.217466,-0.067125,-0.438541,-0.896201,-0.001021,-0.012967,0.005606,-20.704874,-22.926352,-37.098358,,,,,,,
1504282285.591124,-0.074333,0.453835,-1.525262,-0.024993,-0.050329,-0.199399,-0.066747,-0.438415,-0.896291,-0.017252,-0.015976,-0.005351,-20.704874,-22.926352,-37.098358,,,,,,,
1504282285.601132,-0.073600,0.453833,-1.527442,-0.014009,-0.008864,-0.196251,-0.066090,-0.438414,-0.896340,-0.019222,-0.003115,-0.011176,-20.554239,-23.001272,-36.797424,,,,,,,
1504282285.611142,-0.072904,0.453880,-1.529578,-0.000741,0.032613,-0.222984,-0.065464,-0.438456,-0.896365,-0.032116,-0.005850,-0.015790,-20.554239,-23.001272,-36.797424,,,,,,,
1504282285.621152,-0.071161,0.454159,-1.532469,0.012476,0.051739,-0.275298,-0.063893,-0.438707,-0.896356,-0.033687,-0.005598,-0.015799,-20.629877,-22.701757,-36.724854,,,,,,,
1504282285.631162,-0.069128,0.454626,-1.535983,0.030835,0.044188,-0.331825,-0.062057,-0.439126,-0.896280,-0.030732,-0.001136,-0.015952,-20.629877,-22.701757,-36.724854,,,,,,,
1504282285.641172,-0.067204,0.455429,-1.540026,0.063813,0.003471,-0.377594,-0.060308,-0.439847,-0.896045,-0.021418,-0.003832,-0.018689,-20.104456,-22.998953,-36.946320,,,,,,,
1504282285.651181,-0.066142,0.456594,-1.544216,0.104946,-0.071434,-0.401940,-0.059323,-0.440893,-0.895597,-0.016772,-0.005869,-0.017443,-20.104456,-22.998953,-36.946320,,,,,,,
1504282285.661191,-0.065512,0.458117,-1.548727,0.133141,-0.157964,-0.417750,-0.058715,-0.442260,-0.894963,-0.014497,-0.003678,-0.012843,-20.104090,-23.148947,-36.945190,,,,,,,
1504282285.671201,-0.065549,0.459826,-1.553501,0.144438,-0.231552,-0.447488,-0.058698,-0.443792,-0.894205,-0.010348,-0.007319,-0.011312,-20.104090,-23.148947,-36.945190,,,,,,,
1504282285.681211,-0.065822,0.461580,-1.558878,0.141200,-0.274086,-0.508260,-0.058891,-0.445363,-0.893411,-0.002968,-0.014979,-0.014075,-20.027399,-23.823614,-36.939941,,,,,,,
1504282285.691221,-0.065905,0.463472,-1.565046,0.131967,-0.273934,-0.581927,-0.058910,-0.447056,-0.892564,-0.005910,-0.018810,-0.016051,-20.027399,-23.823614,-36.939941,,,,,,,
1504282285.701231,-0.065389,0.465057,-1.571889,0.113200,-0.249221,-0.630036,-0.058403,-0.448474,-0.891886,-0.006798,-0.020856,-0.019338,-20.101938,-23.824545,-36.640106,,,,,,,
1504282285.711241,-0.064428,0.466479,-1.579080,0.097549,-0.220295,-0.654664,-0.057505,-0.449744,-0.891304,-0.008947,-0.024240,-0.016426,-20.101938,-23.824545,-36.640106,,,,,,,
1504282285.721251,-0.062988,0.467827,-1.586463,0.092622,-0.178680,-0.669690,-0.056182,-0.450948,-0.890780,-0.024964,-0.023539,-0.022504,-20.175699,-24.275030,-36.561920,,,,,,,
1504282285.731260,-0.061246,0.469223,-1.594046,0.094116,-0.144561,-0.700702,-0.054592,-0.452193,-0.890248,-0.039722,-0.018571,-0.028835,-20.175699,-24.275030,-36.561920,,,,,,,
1504282285.741270,-0.058891,0.470713,-1.602313,0.105397,-0.112612,-0.772254,-0.052456,-0.453522,-0.889700,-0.050038,-0.015976,-0.027429,-19.875025,-24.498846,-36.484467,,,,,,,
1504282285.751280,-0.055572,0.472307,-1.611605,0.113664,-0.069961,-0.864111,-0.049463,-0.454942,-0.889146,-0.057883,-0.014174,-0.032698,-19.875025,-24.498846,-36.484467,,,,,,,
1504282285.761290,-0.051554,0.474033,-1.621938,0.125829,-0.068908,-0.948416,-0.045849,-0.456479,-0.888552,-0.050831,-0.013813,-0.032834,-19.573374,-25.022940,-36.254761,,,,,,,
1504282285.771300,-0.047496,0.475818,-1.633037,0.130065,-0.109375,-1.007044,-0.042204,-0.458066,-0.887916,-0.047090,-0.014895,-0.023980,-19.573374,-25.022940,-36.254761,,,,,,,
1504282285.781308,-0.043687,0.477564,-1.644610,0.125561,-0.161514,-1.043252,-0.038787,-0.459617,-0.887270,-0.042939,-0.018288,-0.029204,-19.348673,-24.946783,-36.329773,,,,,,,
1504282285.791318,-0.040286,0.479280,-1.656523,0.128440,-0.219052,-1.070898,-0.035737,-0.461140,-0.886607,-0.027037,-0.017894,-0.035054,-19.348673,-24.946783,-36.329773,,,,,,,
1504282285.801297,-0.036929,0.481028,-1.668771,0.134948,-0.224402,-1.100764,-0.032731,-0.462691,-0.885915,-0.021300,-0.013261,-0.035517,-18.972162,-25.545095,-36.324341,,,,,,,
1504282285.811307,-0.033061,0.482921,-1.681406,0.155673,-0.188308,-1.133881,-0.029275,-0.464368,-0.885158,-0.013297,-0.008502,-0.040501,-18.972162,-25.545095,-36.324341,,,,,,,
1504282285.821317,-0.028444,0.485043,-1.694488,0.184055,-0.132025,-1.172358,-0.025160,-0.466246,-0.884297,-0.014528,-0.001115,-0.030269,-18.970926,-25.995245,-36.245972,,,,,,,
1504282285.831327,-0.023054,0.487380,-1.707907,0.210264,-0.072541,-1.198035,-0.020368,-0.468313,-0.883328,-0.031604,0.002447,-0.020755,-18.970926,-25.995245,-36.245972,,,,,,,
1504282285.841336,-0.017308,0.489910,-1.721480,0.235998,-0.059960,-1.203349,-0.015271,-0.470546,-0.882243,-0.023852,0.007152,-0.014073,-18.368662,-26.668295,-35.864410,,,,,,,
1504282285.851346,-0.011627,0.492555,-1.734957,0.248641,-0.068608,-1.185166,-0.010245,-0.472879,-0.881068,-0.005075,0.000451,-0.003713,-18.368662,-26.668295,-35.864410,,,,,,,
1504282285.861356,-0.006532,0.495232,-1.747842,0.261779,-0.115677,-1.113545,-0.005747,-0.475235,-0.879840,0.014796,-0.010864,0.003512,-17.917459,-27.191122,-35.934387,,,,,,,
1504282285.871367,-0.002454,0.498009,-1.759707,0.274730,-0.173421,-1.021624,-0.002156,-0.477677,-0.878533,0.044118,0.010560,0.009636,-17.917459,-27.191122,-35.934387,,,,,,,
1504282285.881376,0.000551,0.500865,-1.770883,0.287661,-0.258829,-0.970215,0.000483,-0.480185,-0.877167,0.025701,0.012137,0.033387,-17.765162,-28.015753,-35.777832,,,,,,,
1504282285.891386,0.002501,0.503792,-1.782075,0.296444,-0.373965,-0.990278,0.002190,-0.482750,-0.875756,0.029243,0.015983,0.043114,-17.765162,-28.015753,-35.777832,,,,,,,
1504282285.901396,0.003666,0.506812,-1.794130,0.309770,-0.496528,-1.077566,0.003205,-0.485392,-0.874291,0.034774,0.023799,0.045113,-17.313562,-28.613882,-35.697205,,,,,,,
1504282285.911406,0.004371,0.510210,-1.807267,0.359618,-0.589553,-1.166977,0.003814,-0.488361,-0.872633,0.060517,0.032352,0.036513,-17.313562,-28.613882,-35.697205,,,,,,,
1504282285.921414,0.004697,0.514403,-1.821188,0.449926,-0.671226,-1.221114,0.004089,-0.492015,-0.870577,0.067749,0.037334,0.040926,-17.086725,-28.989065,-35.093811,,,,,,,
1504282285.931424,0.004403,0.519651,-1.835492,0.556079,-0.751998,-1.242136,0.003821,-0.496577,-0.867984,0.065316,0.032420,0.063632,-17.086725,-28.989065,-35.093811,,,,,,,
1504282285.941434,0.002978,0.525867,-1.849265,0.643438,-0.855093,-1.167084,0.002576,-0.501963,-0.864885,0.054370,0.025965,0.092867,-17.309534,-29.590979,-34.639862,,,,,,,
1504282285.951444,0.000186,0.532242,-1.861767,0.611407,-0.913567,-1.042151,0.000160,-0.507467,-0.861671,0.053108,0.023427,0.123817,-17.309534,-29.590979,-34.639862,,,,,,,
1504282285.961454,-0.001964,0.534608,-1.872519,0.111061,-0.690072,-0.907852,-0.001690,-0.509504,-0.860467,0.018917,0.001325,0.126870,-17.080927,-30.716024,-34.105865,,,,,,,
1504282285.971463,-0.000659,0.531999,-1.883307,-0.393498,-0.290556,-0.930779,-0.000568,-0.507257,-0.861795,-0.033764,0.005594,0.007318,-17.080927,-30.716024,-34.105865,,,,,,,
1504282285.981473,0.005496,0.525784,-1.893864,-0.657673,0.182583,-0.900049,0.004753,-0.501892,-0.864917,-0.022850,-0.054474,-0.084729,-16.930140,-30.940649,-33.953796,,,,,,,
1504282285.991483,0.014265,0.519175,-1.903856,-0.633533,0.422107,-0.864137,0.012385,-0.496164,-0.868141,-0.030482,-0.060202,-0.081505,-16.930140,-30.940649,-33.953796,,,,,,,
1504282286.001493,0.023144,0.513696,-1.913376,-0.495189,0.400682,-0.826501,0.020155,-0.491400,-0.870701,-0.038527,-0.099177,0.070439,-16.781382,-30.714071,-34.405121,,,,,,,
1504282286.011503,0.030492,0.509477,-1.922252,-0.376027,0.260049,-0.770541,0.026615,-0.487720,-0.872594,-0.017887,-0.037685,0.125722,-16.781382,-30.714071,-34.405121,,,,,,,
1504282286.021482,0.035507,0.506293,-1.930418,-0.251134,0.041570,-0.704828,0.031046,-0.484939,-0.873997,-0.031656,0.020614,0.114155,-16.032068,-30.485556,-34.479980,,,,,,,
1504282286.031492,0.037568,0.505316,-1.937535,-0.023085,-0.193785,-0.598345,0.032865,-0.484084,-0.874404,-0.026975,0.026625,0.087463,-16.032068,-30.485556,-34.479980,,,,,,,
1504282286.041502,0.037411,0.505785,-1.944106,0.084186,-0.373714,-0.574359,0.032720,-0.484495,-0.874182,-0.028188,0.018155,0.128546,-15.507105,-30.557898,-34.628113,,,,,,,
1504282286.051512,0.036551,0.505986,-1.951350,0.021026,-0.451962,-0.657588,0.031964,-0.484670,-0.874113,-0.024549,0.003667,0.176664,-15.507105,-30.557898,-34.628113,,,,,,,
1504282286.061522,0.036289,0.504751,-1.960007,-0.141365,-0.433428,-0.798799,0.031757,-0.483590,-0.874718,0.035305,-0.012489,0.087212,-15.507517,-30.482595,-34.778687,,,,,,,
1504282286.071531,0.037435,0.501660,-1.970178,-0.316137,-0.356194,-0.930529,0.032815,-0.480882,-0.876171,0.089332,-0.050978,-0.005146,-15.507517,-30.482595,-34.778687,,,,,,,
1504282286.081541,0.039259,0.497546,-1.981115,-0.384125,-0.349190,-0.978692,0.034490,-0.477270,-0.878079,0.099818,-0.054590,-0.055942,-15.357141,-30.631918,-34.777191,,,,,,,
1504282286.091551,0.040163,0.493651,-1.991739,-0.331749,-0.441312,-0.931473,0.035358,-0.473844,-0.879899,0.073742,-0.046130,-0.039977,-15.357141,-30.631918,-34.777191,,,,,,,
1504282286.101561,0.039709,0.491059,-2.001689,-0.179203,-0.540666,-0.871259,0.035007,-0.471560,-0.881139,0.070538,-0.051847,0.021154,-15.131723,-30.706213,-34.626038,,,,,,,
1504282286.111571,0.038079,0.490478,-2.011067,0.028961,-0.623428,-0.812045,0.033582,-0.471048,-0.881468,0.085665,-0.051474,0.068312,-15.131723,-30.706213,-34.626038,,,,,,,
1504282286.121579,0.035470,0.491957,-2.019472,0.215901,-0.661310,-0.703847,0.031257,-0.472352,-0.880856,0.087609,-0.000854,0.097515,-15.056726,-30.705877,-34.625854,,,,,,,
1504282286.131589,0.033100,0.494943,-2.026413,0.347597,-0.517616,-0.566177,0.029122,-0.474981,-0.879514,0.021476,0.059591,0.102460,-15.056726,-30.705877,-34.625854,,,,,,,
1504282286.141599,0.032467,0.498822,-2.031872,0.416238,-0.255119,-0.430961,0.028506,-0.478392,-0.877684,-0.088168,0.068067,0.078093,-14.905268,-31.155645,-34.397125,,,,,,,
1504282286.151609,0.034097,0.503002,-2.035966,0.426562,0.035593,-0.323648,0.029868,-0.482058,-0.875630,-0.142264,0.052111,0.058720,-14.905268,-31.155645,-34.397125,,,,,,,
1504282286.161618,0.037838,0.506571,-2.039857,0.340590,0.215339,-0.340125,0.033078,-0.485182,-0.873788,-0.192181,0.012205,0.040780,-14.903757,-31.531393,-34.019287,,,,,,,
1504282286.171628,0.042217,0.508946,-2.044655,0.230886,0.181174,-0.433119,0.036855,-0.487257,-0.872481,-0.160314,-0.008410,0.011549,-14.903757,-31.531393,-34.019287,,,,,,,
1504282286.181638,0.045270,0.510630,-2.050345,0.178337,-0.030373,-0.504353,0.039482,-0.488727,-0.871543,-0.036201,-0.008099,-0.070764,-14.903116,-31.831244,-34.092072,,,,,,,
1504282286.191648,0.046250,0.511805,-2.056504,0.126528,-0.259016,-0.537129,0.040309,-0.489751,-0.870930,0.041936,-0.021677,-0.086391,-14.903116,-31.831244,-34.092072,,,,,,,
1504282286.201658,0.045396,0.512076,-2.062697,0.024885,-0.426546,-0.534875,0.039560,-0.489988,-0.870831,0.044287,-0.018755,-0.060840,-14.602182,-32.204899,-34.088501,,,,,,,
1504282286.211668,0.042932,0.510914,-2.068409,-0.150363,-0.562617,-0.484771,0.037438,-0.488975,-0.871494,0.043007,-0.009347,-0.053265,-14.602182,-32.204899,-34.088501,,,,,,,
1504282286.221678,0.038516,0.507168,-2.072892,-0.398306,-0.685354,-0.384648,0.033659,-0.485704,-0.873475,0.048708,-0.047575,-0.054946,-14.600672,-32.580647,-33.710693,,,,,,,
1504282286.231688,0.031834,0.503219,-2.076105,-0.368450,-0.878600,-0.262572,0.027883,-0.482248,-0.875591,0.018809,-0.081869,-0.123951,-14.600672,-32.580647,-33.710693,,,,,,,
1504282286.241667,0.022474,0.500459,-2.078846,-0.230628,-1.120563,-0.259772,0.019716,-0.479828,-0.877141,0.019438,-0.066482,-0.075389,-14.826914,-32.131504,-33.789612,,,,,,,
1504282286.251677,0.011499,0.499110,-2.082245,-0.099446,-1.294215,-0.313676,0.010096,-0.478645,-0.877951,0.089940,-0.070183,0.076315,-14.826914,-32.131504,-33.789612,,,,,,,
1504282286.261685,0.000603,0.498571,-2.086806,-0.041351,-1.312678,-0.439496,0.000530,-0.478171,-0.878267,0.160420,-0.096368,0.093538,-15.201273,-32.208790,-33.489990,,,,,,,
1504282286.271695,-0.009968,0.498069,-2.093153,-0.061297,-1.370956,-0.598471,-0.008756,-0.477730,-0.878463,0.142271,-0.051384,0.081619,-15.201273,-32.208790,-33.489990,,,,,,,
1504282286.281705,-0.019699,0.496785,-2.101307,-0.173390,-1.342166,-0.753489,-0.017316,-0.476602,-0.878949,0.107770,-0.033530,0.077954,-16.025843,-32.287800,-33.341461,,,,,,,
1504282286.291715,-0.027252,0.494083,-2.111138,-0.329299,-1.175575,-0.887478,-0.023990,-0.474225,-0.880077,0.086261,0.012448,0.049633,-16.025843,-32.287800,-33.341461,,,,,,,
1504282286.301725,-0.032659,0.490073,-2.121629,-0.457749,-0.976289,-0.912602,-0.028810,-0.470690,-0.881828,0.044450,0.052783,0.038597,-16.400248,-32.664036,-33.564545,,,,,,,
1504282286.311734,-0.035856,0.485250,-2.131804,-0.525426,-0.737087,-0.865108,-0.031710,-0.466430,-0.883990,-0.013777,0.029082,0.043963,-16.400248,-32.664036,-33.564545,,,,,,,
1504282286.321744,-0.037385,0.480190,-2.141183,-0.535990,-0.545267,-0.792882,-0.033150,-0.461948,-0.886287,-0.037575,-0.019253,0.066128,-16.550882,-32.140614,-33.118866,,,,,,,
1504282286.331754,-0.037692,0.475303,-2.149780,-0.504081,-0.385754,-0.731198,-0.033506,-0.457608,-0.888522,-0.018847,0.002637,0.082385,-16.550882,-32.140614,-33.118866,,,,,,,
1504282286.341764,-0.036616,0.470917,-2.158024,-0.451660,-0.225296,-0.716447,-0.032623,-0.453703,-0.890555,0.014221,0.046248,0.072379,-16.326105,-32.139301,-33.268311,,,,,,,
1504282286.351774,-0.033605,0.467092,-2.166580,-0.396596,-0.039222,-0.762578,-0.029999,-0.450292,-0.892377,0.040620,0.044469,0.070859,-16.326105,-32.139301,-33.268311,,,,,,,
1504282286.361784,-0.028749,0.463535,-2.175830,-0.374865,0.101329,-0.830034,-0.025712,-0.447113,-0.894108,0.060472,0.009994,0.067967,-15.875544,-32.362278,-33.265503,,,,,,,
1504282286.371794,-0.022578,0.460303,-2.185565,-0.328949,0.212883,-0.872847,-0.020226,-0.444220,-0.895690,0.068536,-0.003840,0.046370,-15.875544,-32.362278,-33.265503,,,,,,,
1504282286.381804,-0.016069,0.457689,-2.195158,-0.256437,0.223981,-0.847124,-0.014414,-0.441876,-0.896960,0.060572,0.011899,0.009738,-15.651682,-32.135517,-33.641632,,,,,,,
1504282286.391813,-0.010035,0.455920,-2.204400,-0.153599,0.163425,-0.812683,-0.009010,-0.440289,-0.897811,0.046363,0.034817,0.001144,-15.651682,-32.135517,-33.641632,,,,,,,
1504282286.401823,-0.004818,0.455207,-2.213247,-0.051615,0.124197,-0.786819,-0.004327,-0.439648,-0.898160,0.023492,0.041440,-0.021289,-15.126413,-32.283009,-33.714233,,,,,,,
1504282286.411833,0.000047,0.455449,-2.221911,0.046318,0.102068,-0.777004,0.000042,-0.439866,-0.898064,0.040271,0.070100,-0.045387,-15.126413,-32.283009,-33.714233,,,,,,,
1504282286.421843,0.005010,0.456380,-2.230812,0.107309,0.104795,-0.807857,0.004497,-0.440701,-0.897643,0.042774,0.093350,-0.045518,-14.676416,-32.280994,-33.713135,,,,,,,
1504282286.431851,0.011093,0.455484,-2.240758,0.098788,0.074029,-0.863331,0.009962,-0.439897,-0.897993,0.040972,0.085816,-0.038881,-14.676416,-32.280994,-33.713135,,,,,,,
1504282286.441861,0.015449,0.455798,-2.250730,0.019123,-0.038229,-0.900630,0.013871,-0.440179,-0.897803,0.048537,0.070291,-0.041009,-13.850306,-32.727283,-33.707703,,,,,,,
1504282286.451871,0.017973,0.454924,-2.260702,-0.104158,-0.238622,-0.890883,0.016144,-0.439394,-0.898149,0.060242,0.045855,-0.070540,-13.850306,-32.727283,-33.707703,,,,,,,
1504282286.461850,0.018209,0.452638,-2.270232,-0.250081,-0.447389,-0.847005,0.016375,-0.437339,-0.899147,0.060026,0.025078,-0.099296,-13.475641,-32.725147,-33.931763,,,,,,,
1504282286.471860,0.016371,0.448930,-2.279216,-0.387121,-0.612539,-0.803187,0.014748,-0.434002,-0.900791,0.048607,0.027706,-0.108563,-13.475641,-32.725147,-33.931763,,,,,,,
1504282286.481870,0.013445,0.444064,-2.287842,-0.498672,-0.672382,-0.780860,0.012140,-0.429613,-0.902932,0.039099,0.038744,-0.102958,-13.474894,-33.025150,-33.929504,,,,,,,
1504282286.491880,0.010659,0.438538,-2.296490,-0.553758,-0.630358,-0.792771,0.009650,-0.424616,-0.905322,0.032312,0.039729,-0.076245,-13.474894,-33.025150,-33.929504,,,,,,,
1504282286.501889,0.009124,0.432888,-2.305490,-0.552459,-0.491801,-0.831439,0.008282,-0.419494,-0.907720,0.014194,0.030746,-0.026316,-13.401087,-32.499958,-33.858276,,,,,,,
1504282286.511899,0.009732,0.427520,-2.315007,-0.517421,-0.278915,-0.884057,0.008856,-0.414616,-0.909954,-0.009725,0.021732,0.034206,-13.401087,-32.499958,-33.858276,,,,,,,
1504282286.521909,0.012965,0.422570,-2.325201,-0.473528,-0.034120,-0.949524,0.011824,-0.410105,-0.911961,-0.041991,0.014994,0.090794,-13.325785,-32.799030,-34.155823,,,,,,,
1504282286.531919,0.018891,0.418064,-2.336086,-0.421115,0.207409,-1.017105,0.017263,-0.405992,-0.913714,-0.068960,0.012498,0.121386,-13.325785,-32.799030,-34.155823,,,,,,,
1504282286.541929,0.027430,0.414179,-2.347789,-0.342062,0.434883,-1.100627,0.025108,-0.402439,-0.915103,-0.096977,0.010578,0.120913,-12.801325,-32.721210,-34.380096,,,,,,,
1504282286.551939,0.038030,0.411170,-2.360536,-0.234780,0.580090,-1.199965,0.034852,-0.399682,-0.915991,-0.128113,0.012613,0.115637,-12.801325,-32.721210,-34.380096,,,,,,,
1504282286.561949,0.049814,0.409117,-2.374251,-0.120786,0.639978,-1.284198,0.045684,-0.397800,-0.916334,-0.140868,0.014056,0.103346,-12.052942,-32.341938,-34.831116,,,,,,,
1504282286.571939,0.061788,0.407976,-2.388650,-0.015110,0.613587,-1.336271,0.056681,-0.396752,-0.916174,-0.150446,-0.006873,0.083441,-12.052942,-32.341938,-34.831116,,,,,,,
1504282286.581948,0.073313,0.407390,-2.403596,0.044286,0.539621,-1.384071,0.067252,-0.396215,-0.915692,-0.171226,-0.024363,0.073162,-10.627588,-32.709797,-35.199799,,,,,,,
1504282286.591958,0.084216,0.406524,-2.419200,0.004579,0.464368,-1.458725,0.077261,-0.395419,-0.915245,-0.192968,-0.023816,0.063378,-10.627588,-32.709797,-35.199799,,,,,,,
1504282286.601968,0.094857,0.404129,-2.435710,-0.145966,0.396453,-1.554974,0.087086,-0.393218,-0.915312,-0.205646,-0.024507,0.045195,-9.802774,-32.631092,-35.198303,,,,,,,
1504282286.611978,0.105018,0.399520,-2.453031,-0.349904,0.314056,-1.656585,0.096570,-0.388976,-0.916172,-0.207379,-0.041245,-0.004802,-9.802774,-32.631092,-35.198303,,,,,,,
1504282286.621988,0.114092,0.392828,-2.470965,-0.523465,0.177037,-1.732430,0.105173,-0.382802,-0.917824,-0.207636,-0.061213,-0.069358,-8.527033,-32.925358,-35.192932,,,,,,,
1504282286.631997,0.121483,0.384809,-2.489142,-0.616416,0.003085,-1.771778,0.112322,-0.375382,-0.920039,-0.194262,-0.064880,-0.107716,-8.527033,-32.925358,-35.192932,,,,,,,
1504282286.642007,0.126812,0.376159,-2.507466,-0.652015,-0.199053,-1.803505,0.117630,-0.367351,-0.922614,-0.182968,-0.056492,-0.107644,-7.478052,-32.695042,-35.492004,,,,,,,
1504282286.652017,0.130092,0.367243,-2.526147,-0.661916,-0.400319,-1.852268,0.121075,-0.359044,-0.925434,-0.175396,-0.040462,-0.087048,-7.478052,-32.695042,-35.492004,,,,,,,
1504282286.662027,0.131530,0.358194,-2.545399,-0.664110,-0.582450,-1.918130,0.122827,-0.350583,-0.928442,-0.155176,-0.032718,-0.072748,-6.654306,-32.689686,-36.315002,,,,,,,
1504282286.672006,0.131547,0.348728,-2.565420,-0.703200,-0.722695,-2.006545,0.123272,-0.341703,-0.931688,-0.134152,-0.044177,-0.052900,-6.654306,-32.689686,-36.315002,,,,,,,
1504282286.682016,0.130922,0.338589,-2.586104,-0.768117,-0.749786,-2.083462,0.123137,-0.332156,-0.935152,-0.116209,-0.043729,-0.037840,-5.830133,-32.311115,-36.240753,,,,,,,
1504282286.692025,0.130933,0.327799,-2.607275,-0.817321,-0.661952,-2.131735,0.123608,-0.321960,-0.938649,-0.095394,-0.037308,-0.035777,-5.830133,-32.311115,-36.240753,,,,,,,
1504282286.702035,0.132214,0.316990,-2.628476,-0.794696,-0.499104,-2.128781,0.125261,-0.311708,-0.941885,-0.086763,-0.041014,-0.028543,-5.157511,-31.632193,-36.694214,,,,,,,
1504282286.712045,0.135024,0.307225,-2.649289,-0.666495,-0.312668,-2.077652,0.128311,-0.302414,-0.944501,-0.077163,-0.043975,-0.025287,-5.157511,-31.632193,-36.694214,,,,,,,
1504282286.722055,0.138369,0.299536,-2.669464,-0.465267,-0.191851,-2.013470,0.131786,-0.295077,-0.946341,-0.073345,-0.034085,0.000357,-4.409021,-31.253073,-37.070160,,,,,,,
1504282286.732064,0.142897,0.293799,-2.689516,-0.241898,-0.117013,-1.969451,0.136309,-0.289591,-0.947395,-0.063707,0.007578,0.023292,-4.409021,-31.253073,-37.070160,,,,,,,
1504282286.742074,0.147941,0.290083,-2.709831,-0.037653,-0.070725,-1.987325,0.141244,-0.286031,-0.947753,-0.049386,0.050665,0.023574,-3.359293,-31.322760,-37.367004,,,,,,,
1504282286.752084,0.153414,0.287845,-2.731110,0.121855,-0.057032,-2.072465,0.146526,-0.283887,-0.947596,-0.040371,0.071286,0.025706,-3.359293,-31.322760,-37.367004,,,,,,,
1504282286.762094,0.159223,0.286573,-2.753582,0.235460,-0.055732,-2.172606,0.152085,-0.282667,-0.947085,-0.019486,0.056532,0.012469,-2.083933,-31.467031,-37.362732,,,,,,,
1504282286.772103,0.165277,0.285888,-2.777131,0.314782,-0.062690,-2.257849,0.157848,-0.282010,-0.946337,-0.005352,0.035184,0.001910,-2.083933,-31.467031,-37.362732,,,,,,,
1504282286.782113,0.171429,0.285527,-2.801441,0.366217,-0.071578,-2.316451,0.163684,-0.281664,-0.945449,0.004392,0.050935,-0.007310,-1.183817,-31.463125,-37.285492,,,,,,,
1504282286.792123,0.177479,0.285235,-2.826162,0.386407,-0.098356,-2.343054,0.169415,-0.281383,-0.944522,0.015521,0.078701,-0.018124,-1.183817,-31.463125,-37.285492,,,,,,,
1504282286.802133,0.183028,0.284846,-2.850779,0.381588,-0.152687,-2.319483,0.174674,-0.281009,-0.943675,0.030023,0.091770,-0.024053,0.016134,-31.532431,-37.432007,,,,,,,
1504282286.812143,0.187568,0.284235,-2.874784,0.357066,-0.245256,-2.257453,0.178988,-0.280423,-0.943041,0.044675,0.063656,-0.034712,0.016134,-31.532431,-37.432007,,,,,,,
1504282286.822152,0.190626,0.283329,-2.897969,0.317230,-0.377140,-2.182572,0.181920,-0.279553,-0.942738,0.042553,0.017712,-0.040447,1.067175,-31.902868,-37.351593,,,,,,,
1504282286.832162,0.192119,0.281881,-2.920284,0.247590,-0.503445,-2.113088,0.183404,-0.278163,-0.942862,0.043494,0.006297,-0.034876,1.067175,-31.902868,-37.351593,,,,,,,
1504282286.842172,0.192342,0.279679,-2.941905,0.157038,-0.594383,-2.072524,0.183731,-0.276047,-0.943420,0.041229,0.019608,-0.019791,2.192282,-31.897955,-37.273804,,,,,,,
1504282286.852182,0.191902,0.276490,-2.963399,0.055405,-0.644668,-2.098229,0.183483,-0.272981,-0.944360,0.032765,0.043076,-0.002372,2.192282,-31.897955,-37.273804,,,,,,,
1504282286.862191,0.190435,0.273730,-2.984958,0.175723,-0.789547,-2.066810,0.182238,-0.270324,-0.945364,0.030607,0.071243,0.025046,2.642355,-31.970785,-37.347137,,,,,,,
1504282286.872201,0.186025,0.273824,-3.005049,0.418042,-1.038988,-1.849268,0.178063,-0.270415,-0.946134,0.054176,0.113112,0.027036,2.642355,-31.970785,-37.347137,,,,,,,
1504282286.882211,0.181245,0.274984,-3.024224,0.452523,-0.943457,-1.763984,0.173482,-0.271532,-0.946665,0.143458,0.241716,-0.123632,3.241446,-31.518377,-37.199036,,,,,,,
1504282286.892190,0.176968,0.276062,-3.043630,0.419711,-0.959089,-1.841934,0.169380,-0.272568,-0.947110,0.174462,-0.186385,-0.142688,3.241446,-31.518377,-37.199036,,,,,,,
1504282286.902200,0.173716,0.276084,-3.063558,0.309823,-0.862218,-1.902070,0.166298,-0.272590,-0.947649,0.177543,-0.186364,-0.142149,3.542379,-31.892035,-37.195496,,,,,,,
1504282286.912210,0.169637,0.275039,-3.083836,0.198077,-0.995504,-1.958601,0.162480,-0.271584,-0.948600,0.165050,-0.244041,-0.083977,3.542379,-31.892035,-37.195496,,,,,,,
1504282286.922219,0.164517,0.271564,-3.103154,-0.148606,-1.047116,-1.841696,0.157774,-0.268239,-0.950345,0.120531,-0.149379,0.025281,3.767309,-31.816183,-37.120483,,,,,,,
1504282286.932229,0.159459,0.264303,-3.119415,-0.558303,-0.894810,-1.599307,0.153271,-0.261237,-0.953029,0.046162,-0.070276,0.094844,3.767309,-31.816183,-37.120483,,,,,,,
1504282286.942239,0.153306,0.255277,-3.133378,-0.707285,-1.015224,-1.442444,0.147758,-0.252513,-0.956245,0.031975,0.100521,0.222023,4.140982,-31.513739,-37.496796,,,,,,,
1504282286.952249,0.145680,0.244762,3.136929,-0.915164,-1.083913,-1.373302,0.140838,-0.242325,-0.959918,0.038895,0.090333,0.225696,4.140982,-31.513739,-37.496796,,,,,,,
1504282286.962259,0.138701,0.232264,3.124465,-1.097507,-0.950256,-1.394135,0.134545,-0.230181,-0.963802,0.054481,0.056811,0.074993,4.138006,-30.687551,-38.103027,,,,,,,
1504282286.972268,0.133563,0.219347,3.109903,-1.057678,-0.804321,-1.659039,0.129976,-0.217592,-0.967347,0.077010,-0.022719,0.093995,4.138006,-30.687551,-38.103027,,,,,,,
1504282286.982278,0.131454,0.207751,3.091813,-0.814804,-0.527852,-1.994270,0.128257,-0.206259,-0.970055,0.041787,-0.092065,0.168358,3.984701,-29.637320,-38.561310,,,,,,,
1504282286.992288,0.134265,0.198299,3.070645,-0.627930,0.019626,-2.219066,0.131239,-0.197002,-0.971579,0.004381,-0.154942,0.220984,3.984701,-29.637320,-38.561310,,,,,,,
1504282287.002298,0.140556,0.191159,3.049178,-0.329034,0.226997,-2.131387,0.137542,-0.189997,-0.972103,-0.025741,-0.328604,0.286281,4.731939,-28.808050,-39.015625,,,,,,,
1504282287.012307,0.146278,0.187501,3.029776,-0.011479,0.194294,-1.890613,0.143202,-0.186404,-0.971981,-0.006072,-0.290860,0.358318,4.731939,-28.808050,-39.015625,,,,,,,
1504282287.022317,0.149575,0.187175,3.011105,0.304954,-0.089695,-1.827655,0.146415,-0.186084,-0.971563,0.005379,-0.127698,0.261663,6.005468,-28.351858,-39.240875,,,,,,,
1504282287.032327,0.150093,0.188108,2.990566,0.413499,-0.394059,-2.044680,0.146892,-0.187000,-0.971315,0.064336,-0.191890,0.173128,6.005468,-28.351858,-39.240875,,,,,,,
1504282287.042337,0.147658,0.188427,2.966932,0.346831,-0.797031,-2.372845,0.144518,-0.187314,-0.971611,0.044172,-0.215899,0.021782,7.054220,-27.896994,-39.316650,,,,,,,
1504282287.052346,0.141456,0.185991,2.939973,0.051924,-1.222576,-2.754735,0.138553,-0.184920,-0.972938,0.050137,-0.218293,0.023108,7.054220,-27.896994,-39.316650,,,,,,,
1504282287.062356,0.131922,0.179167,2.909812,-0.372874,-1.606571,-3.125183,0.129434,-0.178210,-0.975442,0.098868,-0.231992,0.030633,7.205191,-28.196615,-39.164032,,,,,,,
1504282287.072366,0.119260,0.168520,2.875264,-0.741037,-1.940792,-3.647191,0.117292,-0.167723,-0.978832,0.104113,-0.350587,0.250301,7.205191,-28.196615,-39.164032,,,,,,,
1504282287.082376,0.104903,0.153898,2.835584,-1.103499,-2.100293,-4.176969,0.103473,-0.153292,-0.982749,0.117932,-0.365019,0.254218,7.352026,-27.294744,-39.770447,,,,,,,
1504282287.092385,0.089826,0.136567,2.791328,-1.337466,-2.158627,-4.637322,0.088870,-0.136142,-0.986695,0.140363,-0.426297,0.375932,7.352026,-27.294744,-39.770447,,,,,,,
1504282287.102395,0.074270,0.119124,2.742222,-1.325599,-2.175274,-5.118670,0.073676,-0.118843,-0.990176,0.155557,-0.443596,0.379412,7.571264,-25.716330,-40.981720,,,,,,,
1504282287.112374,0.059442,0.103312,2.687564,-1.217420,-2.057327,-5.655593,0.059090,-0.103128,-0.992911,0.172584,-0.537832,0.350974,7.571264,-25.716330,-40.981720,,,,,,,
1504282287.122384,0.046758,0.089726,2.628153,-0.999677,-1.766724,-6.063475,0.046553,-0.089605,-0.994889,0.133134,-0.563272,0.387436,8.015234,-23.762808,-41.745270,,,,,,,
1504282287.132394,0.036782,0.080341,2.565503,-0.557223,-1.439755,-6.330135,0.036655,-0.080255,-0.996100,0.069394,-0.556372,0.426520,8.015234,-23.762808,-41.745270,,,,,,,
1504282287.142404,0.030167,0.076755,2.500562,-0.000705,-1.081830,-6.527271,0.030074,-0.076680,-0.996602,0.013383,-0.576427,0.427739,8.833899,-21.732443,-42.583435,,,,,,,
1504282287.152414,0.026827,0.079288,2.433065,0.601489,-0.790279,-6.790390,0.026739,-0.079205,-0.996500,0.025507,-0.609958,0.461084,8.833899,-21.732443,-42.583435,,,,,,,
1504282287.162423,0.026665,0.087298,2.362005,1.102372,-0.550013,-7.145391,0.026560,-0.087187,-0.995838,0.067190,-0.597535,0.496433,9.729345,-20.227346,-43.117523,,,,,,,
1504282287.172433,0.028563,0.098779,2.286354,1.427146,-0.524492,-7.617732,0.028420,-0.098619,-0.994719,0.109916,-0.563231,0.513778,9.729345,-20.227346,-43.117523,,,,,,,
1504282287.182443,0.029999,0.111897,2.205729,1.570336,-0.782005,-8.074945,0.029807,-0.111663,-0.993299,0.113992,-0.528809,0.464170,11.377447,-19.469931,-43.119080,,,,,,,
1504282287.192453,0.028443,0.125484,2.122543,1.603432,-1.273363,-8.224526,0.028215,-0.125155,-0.991736,0.060988,-0.485151,0.329047,11.377447,-19.469931,-43.119080,,,,,,,
1504282287.202462,0.022890,0.138985,2.040064,1.545510,-1.758944,-8.085008,0.022667,-0.138538,-0.990098,-0.044441,-0.525143,0.188279,12.650137,-18.638891,-43.272125,,,,,,,
1504282287.212472,0.013957,0.152579,1.960344,1.488621,-2.133904,-7.761022,0.013794,-0.151987,-0.988286,-0.154480,-0.621252,0.087697,12.650137,-18.638891,-43.272125,,,,,,,
1504282287.222482,0.003628,0.166920,1.884633,1.500681,-2.238857,-7.352001,0.003578,-0.166146,-0.986095,-0.258552,-0.681465,0.038081,13.247152,-17.585745,-43.503540,,,,,,,
1504282287.232492,-0.005154,0.181313,1.812380,1.394802,-2.076337,-7.040789,-0.005069,-0.180321,-0.983595,-0.355755,-0.699959,0.003477,13.247152,-17.585745,-43.503540,,,,,,,
1504282287.242501,-0.009862,0.193950,1.742244,1.130428,-1.663034,-6.851978,-0.009677,-0.192736,-0.981203,-0.413296,-0.648466,0.002230,12.869604,-16.836538,-43.960052,,,,,,,
1504282287.252511,-0.008961,0.203769,1.673363,0.841547,-1.162068,-6.743421,-0.008775,-0.202362,-0.979271,-0.436644,-0.513748,-0.034385,12.869604,-16.836538,-43.960052,,,,,,,
1504282287.262521,-0.004611,0.210620,1.605011,0.559239,-0.910499,-6.640815,-0.004510,-0.209066,-0.977891,-0.435264,-0.498820,-0.049605,13.017080,-16.234518,-44.639252,,,,,,,
1504282287.272531,0.002305,0.214217,1.538574,0.285138,-0.649492,-6.457090,0.002253,-0.212583,-0.977140,-0.460566,-0.534640,-0.102770,13.017080,-16.234518,-44.639252,,,,,,,
1504282287.282540,0.010500,0.215957,1.473243,0.204241,-0.557298,-6.347450,0.010255,-0.214283,-0.976718,-0.464082,-0.489086,-0.183637,13.238379,-14.808340,-44.724365,,,,,,,
1504282287.292550,0.018655,0.217165,1.409847,0.220192,-0.552343,-6.114738,0.018216,-0.215462,-0.976342,-0.503903,-0.521888,-0.161887,13.238379,-14.808340,-44.724365,,,,,,,
1504282287.302560,0.025454,0.218534,1.349565,0.293537,-0.654511,-5.795277,0.024845,-0.216799,-0.975900,-0.545384,-0.527876,-0.128607,13.458975,-13.231726,-45.035645,,,,,,,
1504282287.312570,0.030384,0.221966,1.292502,0.587575,-0.777676,-5.476464,0.029634,-0.220148,-0.975016,-0.491502,-0.436560,-0.073049,13.458975,-13.231726,-45.035645,,,,,,,
1504282287.322549,0.034666,0.229924,1.237393,1.112501,-0.809876,-5.312186,0.033747,-0.227904,-0.973099,-0.428614,-0.342485,-0.002548,13.455770,-12.180975,-45.418549,,,,,,,
1504282287.332559,0.039332,0.243212,1.181469,1.658928,-0.860081,-5.423227,0.038164,-0.240822,-0.969819,-0.395662,-0.403145,0.142533,13.455770,-12.180975,-45.418549,,,,,,,
1504282287.342569,0.044995,0.260842,1.122346,2.110265,-0.915693,-5.730826,0.043458,-0.257894,-0.965195,-0.311189,-0.436106,0.297944,13.679708,-11.804815,-45.495789,,,,,,,
1504282287.352578,0.053165,0.281982,1.058268,2.506337,-0.896116,-6.175281,0.051041,-0.278260,-0.959149,-0.318772,-0.415741,0.291897,13.679708,-11.804815,-45.495789,,,,,,,
1504282287.362588,0.063825,0.305486,0.987730,2.804784,-1.020527,-6.743470,0.060829,-0.300756,-0.951759,-0.283897,-0.441797,0.303734,13.455206,-12.180227,-45.793549,,,,,,,
1504282287.372598,0.075920,0.330010,0.910335,3.001795,-1.272002,-7.285993,0.071755,-0.324052,-0.943314,-0.281655,-0.501479,0.285553,13.455206,-12.180227,-45.793549,,,,,,,
1504282287.382608,0.088684,0.354871,0.827571,3.147161,-1.587193,-7.629956,0.083049,-0.347470,-0.934006,-0.291683,-0.528461,0.196778,13.457800,-13.080679,-45.561768,,,,,,,
1504282287.392617,0.100508,0.379235,0.742439,3.169862,-1.967771,-7.656998,0.093210,-0.370210,-0.924260,-0.323343,-0.605559,0.111195,13.457800,-13.080679,-45.561768,,,,,,,
1504282287.402627,0.110218,0.402812,0.658989,3.147509,-2.278038,-7.308517,0.101192,-0.392007,-0.914380,-0.386806,-0.673393,0.006970,13.084951,-13.982229,-45.630920,,,,,,,
1504282287.412637,0.117818,0.425316,0.580898,2.996175,-2.391476,-6.668138,0.107073,-0.412608,-0.904594,-0.451235,-0.691564,-0.098061,13.084951,-13.982229,-45.630920,,,,,,,
1504282287.422647,0.124956,0.445753,0.510444,2.732530,-2.187649,-5.890818,0.112453,-0.431137,-0.895251,-0.554729,-0.770325,-0.145795,12.637671,-15.109106,-45.698608,,,,,,,
1504282287.432656,0.133480,0.463565,0.447345,2.406767,-1.832916,-5.252634,0.119039,-0.447139,-0.886508,-0.672887,-0.829197,-0.137754,12.637671,-15.109106,-45.698608,,,,,,,
1504282287.442666,0.142798,0.477770,0.388673,2.029307,-1.718283,-4.902315,0.126377,-0.459800,-0.878984,-0.740238,-0.868264,-0.084547,11.590506,-16.238821,-45.692749,,,,,,,
1504282287.452676,0.150420,0.488065,0.333379,1.633146,-1.850644,-4.620974,0.132357,-0.468918,-0.873268,-0.745729,-0.795685,-0.090355,11.590506,-16.238821,-45.692749,,,,,,,
1504282287.462686,0.154642,0.494269,0.280982,1.210687,-2.123357,-4.425890,0.135592,-0.474388,-0.869811,-0.663791,-0.521843,-0.214006,11.143713,-17.291601,-45.310974,,,,,,,
1504282287.472696,0.154979,0.496392,0.230875,0.785068,-2.421568,-4.279868,0.135729,-0.476256,-0.868768,-0.584764,-0.313081,-0.307181,11.143713,-17.291601,-45.310974,,,,,,,
1504282287.482705,0.151152,0.494738,0.183891,0.362518,-2.675151,-4.035717,0.132522,-0.474801,-0.870059,-0.582122,-0.240958,-0.320524,10.468557,-17.369192,-45.537079,,,,,,,
1504282287.492715,0.142562,0.490199,0.141393,0.021467,-2.932732,-3.666533,0.125348,-0.470802,-0.873289,-0.619748,-0.159142,-0.299456,10.468557,-17.369192,-45.537079,,,,,,,
1504282287.502725,0.129053,0.484397,0.104577,-0.168087,-3.112837,-3.171269,0.113889,-0.465675,-0.877597,-0.676679,-0.074105,-0.249372,8.968054,-17.300482,-45.766357,,,,,,,
1504282287.512735,0.111798,0.479387,0.073874,-0.149671,-3.133810,-2.618286,0.098989,-0.461235,-0.881739,-0.732153,-0.023246,-0.171942,8.968054,-17.300482,-45.766357,,,,,,,
1504282287.522744,0.094211,0.476716,0.048937,-0.007593,-2.796645,-2.112685,0.083583,-0.458864,-0.884567,-0.767391,-0.037489,-0.058915,7.167013,-16.933416,-45.848602,,,,,,,
1504282287.532754,0.078963,0.476195,0.027705,0.149946,-2.397574,-1.827052,0.070106,-0.458400,-0.885976,-0.767127,-0.116200,0.082662,7.167013,-16.933416,-45.848602,,,,,,,
1504282287.542733,0.066249,0.477067,0.007752,0.224237,-2.130802,-1.748406,0.058809,-0.459176,-0.886397,-0.747514,-0.174155,0.127409,5.140554,-16.716330,-46.455322,,,,,,,
1504282287.552743,0.054540,0.478943,-0.012207,0.319579,-2.090017,-1.760054,0.048380,-0.460842,-0.886163,-0.698175,-0.033223,0.072320,5.140554,-16.716330,-46.455322,,,,,,,
1504282287.562753,0.042384,0.481950,-0.032158,0.408586,-2.148323,-1.729910,0.037545,-0.463508,-0.885297,-0.613686,0.223014,0.030713,3.716055,-16.872885,-46.382690,,,,,,,
1504282287.572745,0.028346,0.486501,-0.051371,0.528175,-2.360369,-1.659948,0.025053,-0.467536,-0.883619,-0.536101,0.431021,0.003965,3.716055,-16.872885,-46.382690,,,,,,,
1504282287.582753,0.012374,0.490913,-0.067946,0.441491,-2.334402,-1.351665,0.010912,-0.471432,-0.881835,-0.490374,0.507671,-0.019929,2.141714,-17.179815,-46.459320,,,,,,,
1504282287.592763,-0.004863,0.495328,-0.080152,0.431427,-2.286765,-0.968569,-0.004279,-0.475320,-0.879802,-0.523324,0.596689,-0.122792,2.141714,-17.179815,-46.459320,,,,,,,
1504282287.602773,-0.021430,0.498218,-0.085990,0.208529,-1.743186,-0.338048,-0.018823,-0.477861,-0.878234,-0.553458,0.532380,-0.105607,0.493307,-17.862082,-46.533356,,,,,,,
1504282287.612783,-0.033534,0.495357,-0.083208,-0.482597,-0.820830,0.447938,-0.029498,-0.475346,-0.879304,-0.594388,0.420903,-0.138961,0.493307,-17.862082,-46.533356,,,,,,,
1504282287.622792,-0.040298,0.484978,-0.073490,-1.134441,-0.069049,0.999465,-0.035641,-0.466189,-0.883967,-0.763797,0.044192,-0.296422,-1.231348,-17.870291,-46.312592,,,,,,,
1504282287.632802,-0.044387,0.470479,-0.061360,-1.460698,0.188157,1.152152,-0.039551,-0.453313,-0.890473,-0.912414,-0.141047,-0.691100,-1.231348,-17.870291,-46.312592,,,,,,,
1504282287.642812,-0.047530,0.455032,-0.050586,-1.491141,0.137448,0.970730,-0.042678,-0.439491,-0.897233,-0.719133,-0.074761,-0.784515,-1.534098,-17.045736,-46.769501,,,,,,,
1504282287.652822,-0.050317,0.440768,-0.043418,-1.357118,0.001376,0.621094,-0.045489,-0.426634,-0.903280,-0.456006,0.089415,-0.637690,-1.534098,-17.045736,-46.769501,,,,,,,
1504282287.662832,-0.051823,0.428016,-0.040575,-1.223103,-0.033411,0.221112,-0.047127,-0.415067,-0.908569,-0.237312,0.300565,-0.515701,-1.462214,-15.845236,-46.853333,,,,,,,
1504282287.672842,-0.051419,0.416799,-0.041782,-1.094034,0.009582,-0.132050,-0.046996,-0.404836,-0.913181,-0.146226,0.402379,-0.392117,-1.462214,-15.845236,-46.853333,,,,,,,
1504282287.682852,-0.048541,0.406776,-0.045206,-0.973267,0.202692,-0.291225,-0.044562,-0.395651,-0.917319,-0.114633,0.458685,-0.291833,-1.465723,-14.719336,-47.311798,,,,,,,
1504282287.692862,-0.043525,0.399069,-0.048974,-0.718740,0.398817,-0.310343,-0.040093,-0.388561,-0.920550,-0.146278,0.367732,-0.182523,-1.465723,-14.719336,-47.311798,,,,,,,
1504282287.702872,-0.036813,0.392974,-0.052373,-0.605360,0.586464,-0.280590,-0.033999,-0.382937,-0.923148,-0.167951,0.163119,-0.063668,-1.168406,-13.742682,-47.468384,,,,,,,
1504282287.712880,-0.028899,0.386905,-0.055449,-0.621672,0.692075,-0.263726,-0.026759,-0.377324,-0.925695,-0.209188,-0.065654,-0.012477,-1.168406,-13.742682,-47.468384,,,,,,,
1504282287.722890,-0.020974,0.380037,-0.058786,-0.729538,0.653578,-0.304406,-0.019476,-0.370955,-0.928447,-0.198588,-0.110536,-0.048299,-0.419992,-13.064459,-47.396576,,,,,,,
1504282287.732900,-0.013672,0.370701,-0.062701,-1.022317,0.563342,-0.361327,-0.012743,-0.362269,-0.931987,-0.130582,-0.051626,-0.085302,-0.419992,-13.064459,-47.396576,,,,,,,
1504282287.742910,-0.007543,0.358514,-0.067172,-1.279375,0.402483,-0.420196,-0.007063,-0.350883,-0.936393,-0.048433,0.056785,-0.202783,0.178244,-12.536169,-47.699066,,,,,,,
1504282287.752889,-0.003300,0.344679,-0.072229,-1.416247,0.193750,-0.479839,-0.003106,-0.337894,-0.941179,-0.052391,0.043796,-0.197996,0.178244,-12.536169,-47.699066,,,,,,,
1504282287.762899,-0.001257,0.331112,-0.077544,-1.298334,-0.018187,-0.501677,-0.001189,-0.325095,-0.945681,0.003569,0.051718,-0.079893,0.700140,-11.258947,-47.632324,,,,,,,
1504282287.772908,-0.001337,0.320241,-0.082787,-0.984221,-0.223251,-0.489029,-0.001269,-0.314796,-0.949159,0.027774,0.057426,0.095475,0.700140,-11.258947,-47.632324,,,,,,,
1504282287.782918,-0.003661,0.314201,-0.087751,-0.470725,-0.436366,-0.462146,-0.003482,-0.309056,-0.951037,0.019946,0.057408,0.363528,0.697058,-10.208349,-47.940216,,,,,,,
1504282287.792928,-0.007558,0.314314,-0.092220,0.148946,-0.573643,-0.423471,-0.007187,-0.309164,-0.950981,0.028992,-0.003366,0.554543,0.697058,-10.208349,-47.940216,,,,,,,
1504282287.802938,-0.012433,0.319494,-0.097048,0.654384,-0.639562,-0.470512,-0.011803,-0.314087,-0.949321,0.047524,-0.097092,0.643520,0.246420,-9.910513,-47.868591,,,,,,,
1504282287.812948,-0.018634,0.328811,-0.102781,0.982775,-0.875510,-0.589076,-0.017635,-0.322918,-0.946263,0.095058,-0.042027,0.588871,0.246420,-9.910513,-47.868591,,,,,,,
1504282287.822958,-0.024589,0.339514,-0.110360,1.076709,-0.851583,-0.773616,-0.023183,-0.333029,-0.942632,0.130696,0.025579,0.486699,-0.277521,-10.288031,-47.792053,,,,,,,
1504282287.832968,-0.028809,0.349107,-0.119444,0.870861,-0.661133,-0.910936,-0.027068,-0.342059,-0.939288,0.209837,0.088702,0.290942,-0.277521,-10.288031,-47.792053,,,,,,,
1504282287.842978,-0.030486,0.354890,-0.129831,0.396962,-0.478107,-1.010281,-0.028582,-0.347487,-0.937249,0.210115,0.002395,0.105325,-0.799768,-11.340551,-47.710480,,,,,,,
1504282287.852988,-0.028472,0.354727,-0.140689,-0.179200,-0.071643,-0.998120,-0.026696,-0.347334,-0.937361,0.128960,-0.081468,-0.159837,-0.799768,-11.340551,-47.710480,,,,,,,
1504282287.862997,-0.022461,0.350239,-0.151345,-0.558968,0.342796,-0.988835,-0.021096,-0.343122,-0.939054,0.013848,-0.061892,-0.370684,-1.099314,-11.566748,-47.784515,,,,,,,
1504282287.873007,-0.011725,0.342989,-0.162897,-0.784252,0.776353,-1.118078,-0.011042,-0.336303,-0.941689,-0.097616,-0.162430,-0.324516,-1.099314,-11.566748,-47.784515,,,,,,,
1504282287.883017,0.000158,0.333581,-0.175626,-1.028683,0.704938,-1.212307,0.000149,-0.327429,-0.944876,-0.019848,-0.148172,-0.220728,-0.874613,-11.266333,-47.486206,,,,,,,
1504282287.893027,0.010729,0.323209,-0.188315,-1.007152,0.605643,-1.196084,0.010174,-0.317611,-0.948166,0.119633,-0.085846,-0.200378,-0.874613,-11.266333,-47.486206,,,,,,,
1504282287.903035,0.020946,0.314658,-0.200700,-0.765686,0.647345,-1.196806,0.019916,-0.309491,-0.950694,0.077435,-0.216983,-0.396993,-0.202478,-10.437246,-48.015778,,,,,,,
1504282287.913045,0.032210,0.308531,-0.214361,-0.540213,0.718126,-1.367324,0.030684,-0.303660,-0.952286,0.088854,-0.357794,-0.196227,-0.202478,-10.437246,-48.015778,,,,,,,
1504282287.923055,0.044442,0.303147,-0.230881,-0.473521,0.723232,-1.682102,0.042401,-0.298525,-0.953460,0.103335,-0.352354,-0.008714,0.621496,-9.983679,-47.942108,,,,,,,
1504282287.933065,0.056738,0.296732,-0.250982,-0.577419,0.589118,-2.030018,0.054229,-0.292396,-0.954758,0.108841,-0.227257,0.037675,0.621496,-9.983679,-47.942108,,,,,,,
1504282287.943074,0.066417,0.288921,-0.273092,-0.673527,0.221363,-2.174703,0.063618,-0.284918,-0.956439,0.079525,-0.109766,0.054141,1.368322,-8.854864,-48.173706,,,,,,,
1504282287.953084,0.070401,0.280455,-0.294148,-0.706550,-0.343293,-2.020059,0.067594,-0.276792,-0.958549,0.024493,-0.078951,0.088264,1.368322,-8.854864,-48.173706,,,,,,,
1504282287.963094,0.067261,0.272558,-0.312598,-0.642354,-0.964264,-1.766945,0.064729,-0.269196,-0.960908,-0.015764,-0.085464,0.130448,1.592535,-8.404303,-47.951508,,,,,,,
1504282287.973073,0.057659,0.266578,-0.329434,-0.452451,-1.543532,-1.622563,0.055591,-0.263432,-0.963075,-0.046787,-0.030544,0.158219,1.592535,-8.404303,-47.951508,,,,,,,
1504282287.983083,0.044121,0.261489,-0.343811,-0.438560,-1.749627,-1.314763,0.042607,-0.258519,-0.965066,-0.108098,-0.014872,0.142190,1.140951,-7.955724,-48.256012,,,,,,,
1504282287.993093,0.029805,0.256598,-0.352943,-0.492018,-1.556880,-0.768686,0.028825,-0.253791,-0.966829,-0.224534,-0.070397,0.072695,1.140951,-7.955724,-48.256012,,,,,,,
1504282288.003103,0.017995,0.250679,-0.356644,-0.613136,-1.171736,-0.254020,0.017431,-0.248062,-0.968587,-0.345098,-0.015061,0.000509,-0.735697,-7.214437,-48.116272,,,,,,,
1504282288.013113,0.010112,0.243617,-0.356922,-0.735241,-0.665911,0.009592,0.009813,-0.241215,-0.970422,-0.512422,-0.001400,-0.048789,-0.735697,-7.214437,-48.116272,,,,,,,
1504282288.023123,0.006638,0.235369,-0.356564,-0.850387,-0.249388,0.018265,0.006455,-0.233201,-0.972407,-0.514603,0.061464,-0.044530,-1.561930,-6.768011,-48.196686,,,,,,,
1504282288.033133,0.005922,0.226427,-0.357497,-0.898213,-0.059150,-0.142264,0.005771,-0.224497,-0.974458,-0.302310,0.163676,-0.002395,-1.561930,-6.768011,-48.196686,,,,,,,
1504282288.043143,0.006274,0.218055,-0.360399,-0.802062,-0.028842,-0.333216,0.006125,-0.216331,-0.976301,-0.130271,0.200065,0.029585,-2.013880,-5.945180,-48.128998,,,,,,,
1504282288.053152,0.006764,0.211509,-0.364788,-0.593529,-0.046414,-0.457709,0.006613,-0.209936,-0.977693,-0.083609,0.141317,0.078950,-2.013880,-5.945180,-48.128998,,,,,,,
1504282288.063161,0.007534,0.207220,-0.369694,-0.371159,-0.007724,-0.485145,0.007373,-0.205740,-0.978579,-0.087817,0.081442,0.113421,-2.390696,-5.271719,-48.209961,,,,,,,
1504282288.073171,0.009635,0.205222,-0.374129,-0.136442,0.172481,-0.408203,0.009432,-0.203784,-0.978970,-0.125384,0.054523,0.103116,-2.390696,-5.271719,-48.209961,,,,,,,
1504282288.083181,0.014139,0.205794,-0.377093,0.127593,0.468508,-0.248157,0.013841,-0.204344,-0.978801,-0.171723,0.072737,0.073421,-2.166590,-4.821004,-48.062805,,,,,,,
1504282288.093190,0.020871,0.208591,-0.378307,0.322732,0.697953,-0.072102,0.020417,-0.207082,-0.978111,-0.215089,0.000783,0.041129,-2.166590,-4.821004,-48.062805,,,,,,,
1504282288.103200,0.028153,0.212404,-0.378250,0.408650,0.701396,0.034781,0.027517,-0.210810,-0.977140,-0.211782,-0.140783,0.009275,-1.717356,-4.743230,-48.437256,,,,,,,
1504282288.113210,0.032710,0.216682,-0.377761,0.422963,0.375174,0.065268,0.031939,-0.214991,-0.976094,-0.166201,-0.136251,-0.078167,-1.717356,-4.743230,-48.437256,,,,,,,
1504282288.123220,0.033096,0.220715,-0.376731,0.388243,-0.054050,0.135346,0.032288,-0.218928,-0.975207,-0.076950,-0.096014,-0.163847,-1.041346,-5.190053,-48.507233,,,,,,,
1504282288.133230,0.028776,0.224819,-0.375175,0.419730,-0.498699,0.169274,0.028048,-0.222930,-0.974431,-0.017489,-0.135606,-0.222133,-1.041346,-5.190053,-48.507233,,,,,,,
1504282288.143239,0.020828,0.229082,-0.373573,0.423563,-0.825860,0.160251,0.020282,-0.227084,-0.973664,0.090771,-0.178007,-0.182769,-1.115473,-5.490545,-48.430145,,,,,,,
1504282288.153250,0.011353,0.233594,-0.372585,0.456137,-0.933679,0.087915,0.011045,-0.231475,-0.972778,0.100009,-0.173615,-0.183655,-1.115473,-5.490545,-48.430145,,,,,,,
1504282288.163260,0.002131,0.238172,-0.371921,0.459925,-0.878268,0.059004,0.002071,-0.235927,-0.971769,0.131123,-0.148412,-0.136080,-1.939081,-6.094106,-48.502686,,,,,,,
1504282288.173270,-0.005446,0.243452,-0.372304,0.554608,-0.730788,-0.077720,-0.005285,-0.241055,-0.970497,0.129370,-0.116428,-0.070320,-1.939081,-6.094106,-48.502686,,,,,,,
1504282288.183279,-0.011068,0.249732,-0.374530,0.640860,-0.600238,-0.262461,-0.010725,-0.247144,-0.968919,0.146223,-0.074191,-0.028700,-2.988352,-6.249273,-48.279144,,,,,,,
1504282288.193259,-0.016384,0.256208,-0.378117,0.628344,-0.639436,-0.383030,-0.015849,-0.253414,-0.967228,0.299067,-0.101612,0.029469,-2.988352,-6.249273,-48.279144,,,,,,,
1504282288.203268,-0.022678,0.261517,-0.382016,0.483289,-0.762923,-0.376659,-0.021905,-0.258546,-0.965750,0.320931,-0.121214,0.040488,-3.437403,-6.626287,-48.277435,,,,,,,
1504282288.213278,-0.030061,0.265174,-0.385038,0.316922,-0.819208,-0.267973,-0.029006,-0.262077,-0.964611,0.224074,-0.084923,0.005657,-3.437403,-6.626287,-48.277435,,,,,,,
1504282288.223288,-0.037005,0.267474,-0.387023,0.196860,-0.703223,-0.182994,-0.035681,-0.264296,-0.963781,0.084173,-0.013033,-0.011316,-4.335779,-7.230474,-48.200134,,,,,,,
1504282288.233298,-0.041282,0.268991,-0.388911,0.130092,-0.388307,-0.196474,-0.039786,-0.265759,-0.963218,0.003882,0.036587,0.051673,-4.335779,-7.230474,-48.200134,,,,,,,
1504282288.243306,-0.041618,0.270349,-0.391504,0.129265,-0.009926,-0.280400,-0.040095,-0.267068,-0.962843,-0.001119,0.096322,0.136397,-5.084940,-7.608694,-48.274200,,,,,,,
1504282288.253316,-0.038249,0.271694,-0.395349,0.102464,0.300508,-0.399475,-0.036837,-0.268363,-0.962613,-0.001462,0.109840,0.206266,-5.084940,-7.608694,-48.274200,,,,,,,
1504282288.263326,-0.031913,0.272185,-0.399955,0.011113,0.582638,-0.456703,-0.030733,-0.268836,-0.962695,0.019869,0.140632,0.197864,-5.234720,-7.609670,-48.124573,,,,,,,
1504282288.273336,-0.022744,0.271959,-0.404586,-0.044425,0.856931,-0.433800,-0.021906,-0.268619,-0.962997,-0.020742,0.162968,0.138809,-5.234720,-7.609670,-48.124573,,,,,,,
1504282288.283345,-0.012043,0.271599,-0.408553,-0.038444,0.983611,-0.360363,-0.011601,-0.268272,-0.963273,-0.017528,0.107948,0.148485,-4.784235,-7.982046,-48.420624,,,,,,,
1504282288.293355,-0.002167,0.271475,-0.411503,-0.009138,0.843669,-0.256527,-0.002088,-0.268153,-0.963374,-0.007540,0.067225,0.178843,-4.784235,-7.982046,-48.420624,,,,,,,
1504282288.303365,0.003296,0.270876,-0.413562,-0.089120,0.359405,-0.184296,0.003176,-0.267575,-0.963532,-0.026430,-0.009417,0.159027,-3.509989,-7.676321,-48.419739,,,,,,,
1504282288.313375,0.003561,0.269044,-0.415336,-0.209415,-0.134054,-0.172960,0.003433,-0.265810,-0.964019,-0.026001,-0.085737,0.043457,-3.509989,-7.676321,-48.419739,,,,,,,
1504282288.323385,0.000910,0.266514,-0.417244,-0.255826,-0.344643,-0.189748,0.000878,-0.263370,-0.964694,-0.025124,-0.040585,-0.103573,-2.983912,-7.974416,-48.191193,,,,,,,
1504282288.333395,-0.000929,0.264385,-0.419535,-0.194568,-0.183131,-0.233690,-0.000896,-0.261316,-0.965253,-0.032200,-0.034842,-0.145328,-2.983912,-7.974416,-48.191193,,,,,,,
1504282288.343405,0.000047,0.263115,-0.422392,-0.105661,0.094314,-0.287395,0.000046,-0.260090,-0.965584,-0.045959,-0.049175,-0.087516,-3.434809,-7.750982,-48.418976,,,,,,,
1504282288.353415,0.003274,0.262530,-0.425245,-0.043475,0.282386,-0.260934,0.003162,-0.259524,-0.965731,-0.060886,-0.040479,-0.013715,-3.434809,-7.750982,-48.418976,,,,,,,
1504282288.363425,0.006575,0.262327,-0.427228,-0.015323,0.259677,-0.165846,0.006350,-0.259329,-0.965768,-0.071475,-0.026499,0.016641,-3.285639,-7.375463,-48.346405,,,,,,,
1504282288.373434,0.008112,0.262180,-0.427992,-0.011995,0.085829,-0.041715,0.007835,-0.259187,-0.965795,-0.060585,-0.046264,-0.003641,-3.285639,-7.375463,-48.346405,,,,,,,
1504282288.383444,0.007375,0.262353,-0.427300,0.030575,-0.103285,0.104926,0.007123,-0.259354,-0.965756,-0.034482,-0.082535,-0.030200,-2.984476,-7.749410,-48.192871,,,,,,,
1504282288.393454,0.005066,0.263093,-0.425402,0.081725,-0.187983,0.195893,0.004892,-0.260068,-0.965578,-0.038171,-0.134219,-0.027373,-2.984476,-7.749410,-48.192871,,,,,,,
1504282288.403433,0.002695,0.263956,-0.423563,0.086074,-0.194385,0.169227,0.002602,-0.260901,-0.965362,-0.067345,-0.152887,-0.026291,-2.834925,-7.748144,-48.492523,,,,,,,
1504282288.413442,0.000268,0.265242,-0.421997,0.145859,-0.204444,0.145866,0.000258,-0.262142,-0.965029,-0.057646,-0.095127,-0.051832,-2.834925,-7.748144,-48.492523,,,,,,,
1504282288.423452,-0.001986,0.267176,-0.420432,0.206929,-0.166595,0.155511,-0.001916,-0.264009,-0.964518,-0.022925,-0.047102,-0.064412,-3.510416,-7.601018,-48.570282,,,,,,,
1504282288.433461,-0.004550,0.272065,-0.418186,0.227371,-0.113534,0.208819,-0.004383,-0.268721,-0.963208,-0.007687,-0.034547,-0.024951,-3.510416,-7.601018,-48.570282,,,,,,,
