timestamp(unix),attitude_roll(radians),attitude_pitch(radians),attitude_yaw(radians),rotation_rate_x(radians/s),rotation_rate_y(radians/s),rotation_rate_z(radians/s),gravity_x(G),gravity_y(G),gravity_z(G),user_acc_x(G),user_acc_y(G),user_acc_z(G),magnetic_field_x(microteslas),magnetic_field_y(microteslas),magnetic_field_z(microteslas),latitude(degree),longitude(degree),altitude(meter),speed(m/s),course(degree),timestamp(unix),User Mark
1504282492.288878,0.168862,0.273709,2.008617,-0.285534,-0.108529,-0.147567,0.161804,-0.270304,-0.949081,-0.164825,-0.357229,0.204010,-17.683359,-29.519461,-33.741364,,,,,,,
1504282492.298888,0.167302,0.269742,2.007547,-0.401462,-0.211976,-0.173203,0.160501,-0.266483,-0.950382,-0.157572,-0.370602,0.181675,-17.683619,-29.369619,-33.667480,,,,,,,
1504282492.308898,0.164634,0.264731,2.006511,-0.501493,-0.318768,-0.182795,0.158182,-0.261650,-0.952112,-0.148432,-0.383797,0.158411,-17.683619,-29.369619,-33.667480,,,,,,,
1504282492.318908,0.161196,0.258979,2.005548,-0.564936,-0.381115,-0.183862,0.155147,-0.256094,-0.954120,-0.138072,-0.399179,0.145465,-18.059443,-29.220694,-33.969513,,,,,,,
1504282492.328917,0.157464,0.253048,2.004657,-0.568315,-0.398145,-0.175299,0.151820,-0.250356,-0.956176,-0.132594,-0.416758,0.154937,-18.059443,-29.220694,-33.969513,,,,,,,
1504282492.338927,0.153849,0.247614,2.003861,-0.504197,-0.372055,-0.153886,0.148569,-0.245091,-0.958049,-0.132395,-0.425579,0.171809,-18.210505,-28.846228,-34.047699,,,,,,,
1504282492.348937,0.150756,0.243208,2.003170,-0.396054,-0.306908,-0.126061,0.145766,-0.240817,-0.959562,-0.136122,-0.419446,0.194364,-18.210505,-28.846228,-34.047699,,,,,,,
1504282492.358947,0.148548,0.240015,2.002513,-0.275880,-0.210947,-0.107876,0.143760,-0.237717,-0.960637,-0.146003,-0.417327,0.219075,-18.360880,-28.696890,-34.049194,,,,,,,
1504282492.368956,0.147437,0.238080,2.001748,-0.151284,-0.102224,-0.100380,0.142760,-0.235837,-0.961249,-0.152342,-0.413760,0.230826,-18.360880,-28.696890,-34.049194,,,,,,,
1504282492.378966,0.147522,0.237192,2.000727,-0.049940,0.017374,-0.119629,0.142872,-0.234974,-0.961444,-0.160588,-0.395778,0.238299,-18.436670,-28.471930,-34.201080,,,,,,,
1504282492.388976,0.148818,0.237068,1.999018,0.027913,0.107374,-0.182629,0.144123,-0.234853,-0.961287,-0.174014,-0.381602,0.235915,-18.436670,-28.471930,-34.201080,,,,,,,
1504282492.398986,0.150633,0.237254,1.996565,0.060351,0.119963,-0.248774,0.145860,-0.235034,-0.960981,-0.165391,-0.366391,0.230024,-18.211176,-28.621069,-34.124390,,,,,,,
1504282492.408996,0.152084,0.237339,1.993505,0.048428,0.059384,-0.308462,0.147252,-0.235117,-0.960748,-0.168858,-0.372732,0.196817,-18.211176,-28.621069,-34.124390,,,,,,,
1504282492.419005,0.152952,0.237111,1.989834,0.023568,-0.019201,-0.370276,0.148093,-0.234895,-0.960673,-0.165564,-0.369398,0.151194,-18.060419,-28.920401,-34.121796,,,,,,,
1504282492.429015,0.153242,0.236438,1.985789,-0.015174,-0.082782,-0.405456,0.148396,-0.234241,-0.960786,-0.140110,-0.368542,0.135224,-18.060419,-28.920401,-34.121796,,,,,,,
1504282492.439025,0.153118,0.235450,1.981573,-0.038833,-0.116668,-0.422515,0.148312,-0.233280,-0.961033,-0.122891,-0.375332,0.123569,-17.910913,-28.769567,-34.197510,,,,,,,
1504282492.449035,0.153027,0.234425,1.977358,-0.036592,-0.100707,-0.418270,0.148262,-0.232284,-0.961282,-0.127372,-0.374909,0.126412,-17.910913,-28.769567,-34.197510,,,,,,,
1504282492.459044,0.153459,0.233416,1.973263,-0.039300,-0.030369,-0.404522,0.148713,-0.231302,-0.961449,-0.142289,-0.371283,0.158943,-18.060907,-28.770254,-34.197876,,,,,,,
1504282492.469054,0.154637,0.232278,1.969483,-0.064464,0.047589,-0.368412,0.149885,-0.230195,-0.961533,-0.155882,-0.369644,0.186157,-18.060907,-28.770254,-34.197876,,,,,,,
1504282492.479064,0.156164,0.230637,1.966406,-0.131646,0.091766,-0.304562,0.151412,-0.228598,-0.961674,-0.158126,-0.371927,0.199055,-17.686136,-28.768255,-34.346954,,,,,,,
1504282492.489043,0.157587,0.228701,1.964056,-0.158677,0.087658,-0.239490,0.152849,-0.226712,-0.961893,-0.164568,-0.392657,0.157267,-17.686136,-28.768255,-34.346954,,,,,,,
1504282492.499053,0.158957,0.227004,1.962242,-0.126808,0.100133,-0.191424,0.154228,-0.225059,-0.962061,-0.159523,-0.398232,0.143488,-17.386240,-28.916311,-34.645111,,,,,,,
1504282492.509063,0.160760,0.226137,1.960412,-0.035741,0.147335,-0.191349,0.155993,-0.224215,-0.961974,-0.150774,-0.404081,0.169372,-17.386240,-28.916311,-34.645111,,,,,,,
1504282492.519072,0.162718,0.225769,1.958433,0.003781,0.149147,-0.197688,0.157889,-0.223856,-0.961748,-0.135978,-0.406256,0.210772,-17.385706,-29.216024,-34.792877,,,,,,,
1504282492.529082,0.164586,0.225761,1.956194,0.050735,0.134933,-0.222132,0.159687,-0.223848,-0.961453,-0.134922,-0.408751,0.196454,-17.385706,-29.216024,-34.792877,,,,,,,
1504282492.539092,0.166653,0.226495,1.953545,0.137458,0.156623,-0.247638,0.161646,-0.224564,-0.960959,-0.139414,-0.407364,0.160986,-16.710779,-29.138128,-34.716766,,,,,,,
1504282492.549102,0.169269,0.228173,1.950712,0.233893,0.213362,-0.239031,0.164096,-0.226199,-0.960160,-0.133181,-0.404478,0.202363,-16.710779,-29.138128,-34.716766,,,,,,,
1504282492.559112,0.172359,0.230534,1.948068,0.285310,0.260854,-0.203802,0.166969,-0.228498,-0.959119,-0.142784,-0.417529,0.231901,-17.009577,-29.440084,-34.415253,,,,,,,
1504282492.569121,0.175908,0.233084,1.945791,0.288762,0.316197,-0.165467,0.170270,-0.230979,-0.957944,-0.159512,-0.424279,0.229993,-17.009577,-29.440084,-34.415253,,,,,,,
1504282492.579131,0.180067,0.235658,1.943735,0.288178,0.386515,-0.149581,0.174145,-0.233483,-0.956639,-0.162579,-0.417854,0.203679,-16.634241,-29.663092,-34.562622,,,,,,,
1504282492.589141,0.184921,0.238220,1.941581,0.289827,0.449389,-0.165700,0.178676,-0.235973,-0.955192,-0.177287,-0.405201,0.204536,-16.634241,-29.663092,-34.562622,,,,,,,
1504282492.599151,0.190395,0.240737,1.938993,0.296809,0.492005,-0.213796,0.183789,-0.238419,-0.953613,-0.193051,-0.400985,0.202881,-16.033274,-29.960699,-34.408905,,,,,,,
1504282492.609160,0.196092,0.243215,1.935833,0.304561,0.496256,-0.263958,0.189103,-0.240824,-0.951968,-0.190599,-0.381597,0.193408,-16.033274,-29.960699,-34.408905,,,,,,,
1504282492.619170,0.202034,0.245968,1.932388,0.350646,0.516133,-0.273520,0.194623,-0.243495,-0.950175,-0.175672,-0.367436,0.170771,-15.957560,-30.335073,-34.555878,,,,,,,
1504282492.629180,0.208304,0.249436,1.928996,0.425432,0.550645,-0.238227,0.200400,-0.246858,-0.948104,-0.190772,-0.375930,0.163665,-15.957560,-30.335073,-34.555878,,,,,,,
1504282492.639190,0.214690,0.253849,1.926076,0.511617,0.566908,-0.164455,0.206217,-0.251131,-0.945731,-0.202738,-0.388365,0.186484,-15.132151,-30.630911,-34.776642,,,,,,,
1504282492.649199,0.220867,0.259268,1.923666,0.601824,0.551172,-0.092755,0.211754,-0.256373,-0.943098,-0.208168,-0.401281,0.177930,-15.132151,-30.630911,-34.776642,,,,,,,
1504282492.659209,0.226697,0.265662,1.921532,0.688854,0.518446,-0.053053,0.216875,-0.262548,-0.940231,-0.204363,-0.403849,0.161391,-14.605906,-31.078695,-34.696960,,,,,,,
1504282492.669219,0.232321,0.272793,1.919233,0.761240,0.496540,-0.055024,0.221724,-0.269422,-0.937150,-0.184446,-0.386156,0.159730,-14.605906,-31.078695,-34.696960,,,,,,,
1504282492.679229,0.238154,0.280570,1.916645,0.829770,0.522624,-0.062423,0.226684,-0.276903,-0.933777,-0.163742,-0.368803,0.158752,-14.228540,-31.752920,-34.240936,,,,,,,
1504282492.689238,0.244740,0.288769,1.913802,0.866713,0.600118,-0.072102,0.232271,-0.284772,-0.930029,-0.165118,-0.365603,0.178427,-14.228540,-31.752920,-34.240936,,,,,,,
1504282492.699248,0.252178,0.296866,1.910820,0.844921,0.672765,-0.078672,0.238600,-0.292525,-0.926013,-0.175428,-0.371797,0.211810,-13.477793,-31.825293,-33.863525,,,,,,,
1504282492.709227,0.260045,0.304405,1.907814,0.785453,0.699908,-0.091632,0.245303,-0.299726,-0.921949,-0.167331,-0.374316,0.203367,-13.477793,-31.825293,-33.863525,,,,,,,
1504282492.719237,0.267876,0.311252,1.904608,0.725683,0.675928,-0.125850,0.251966,-0.306251,-0.918000,-0.160337,-0.369057,0.178528,-13.325907,-32.574619,-33.857544,,,,,,,
1504282492.729247,0.275267,0.317491,1.901027,0.683773,0.609189,-0.172771,0.258219,-0.312184,-0.914256,-0.147120,-0.354289,0.164378,-13.325907,-32.574619,-33.857544,,,,,,,
1504282492.739257,0.281787,0.323123,1.897067,0.628670,0.495669,-0.216430,0.263682,-0.317530,-0.910849,-0.137782,-0.349447,0.164603,-12.874094,-33.023502,-33.403046,,,,,,,
1504282492.749263,0.287115,0.328020,1.892934,0.562690,0.366238,-0.244068,0.268087,-0.322169,-0.907930,-0.136236,-0.354039,0.166597,-12.874094,-33.023502,-33.403046,,,,,,,
1504282492.759272,0.291176,0.332204,1.888831,0.492403,0.243217,-0.253580,0.271383,-0.326127,-0.905534,-0.128454,-0.357833,0.153688,-12.422907,-33.322071,-33.099701,,,,,,,
1504282492.769282,0.293956,0.335619,1.885008,0.411405,0.125595,-0.246041,0.273576,-0.329354,-0.903705,-0.123933,-0.361000,0.154392,-12.422907,-33.322071,-33.099701,,,,,,,
1504282492.779292,0.295700,0.338334,1.881455,0.340238,0.034535,-0.241734,0.274889,-0.331916,-0.902368,-0.126451,-0.371804,0.158685,-12.270716,-34.146549,-33.018127,,,,,,,
1504282492.789302,0.296686,0.340420,1.878133,0.275733,-0.024610,-0.238539,0.275576,-0.333883,-0.901432,-0.123232,-0.374842,0.169087,-12.270716,-34.146549,-33.018127,,,,,,,
1504282492.799311,0.297305,0.341964,1.874934,0.223279,-0.049747,-0.243923,0.275983,-0.335338,-0.900768,-0.122022,-0.373998,0.190746,-12.119699,-34.371479,-32.716034,,,,,,,
1504282492.809321,0.297770,0.343086,1.871870,0.180529,-0.056857,-0.240782,0.276291,-0.336394,-0.900279,-0.128372,-0.383836,0.207957,-12.119699,-34.371479,-32.716034,,,,,,,
1504282492.819331,0.298166,0.343877,1.869058,0.143143,-0.052304,-0.224844,0.276569,-0.337140,-0.899915,-0.131412,-0.388827,0.223965,-12.194361,-34.596516,-32.864532,,,,,,,
1504282492.829341,0.298662,0.344342,1.866565,0.104836,-0.027499,-0.205741,0.276969,-0.337578,-0.899627,-0.143256,-0.400856,0.235519,-12.194361,-34.596516,-32.864532,,,,,,,
1504282492.839350,0.299374,0.344626,1.864372,0.081503,0.004637,-0.182355,0.277581,-0.337845,-0.899338,-0.140939,-0.405807,0.242234,-12.043726,-34.671436,-32.563599,,,,,,,
1504282492.849360,0.300116,0.344840,1.862521,0.068611,0.012171,-0.152503,0.278227,-0.338047,-0.899063,-0.135618,-0.411190,0.249527,-12.043726,-34.671436,-32.563599,,,,,,,
1504282492.859370,0.300623,0.345029,1.861035,0.056583,-0.003748,-0.119407,0.278664,-0.338224,-0.898861,-0.131203,-0.414508,0.254223,-11.894327,-34.520466,-32.714355,,,,,,,
1504282492.869380,0.300862,0.345217,1.859809,0.049946,-0.021828,-0.101240,0.278860,-0.338401,-0.898733,-0.131689,-0.414956,0.245489,-11.894327,-34.520466,-32.714355,,,,,,,
1504282492.879390,0.300936,0.345398,1.858727,0.047403,-0.029758,-0.088621,0.278908,-0.338572,-0.898654,-0.132241,-0.416037,0.238468,-11.668238,-34.819904,-32.486542,,,,,,,
1504282492.889399,0.300973,0.345724,1.857781,0.061207,-0.026693,-0.070456,0.278909,-0.338878,-0.898538,-0.128518,-0.417774,0.232691,-11.668238,-34.819904,-32.486542,,,,,,,
1504282492.899409,0.301025,0.346275,1.856916,0.083566,-0.025823,-0.059745,0.278900,-0.339396,-0.898346,-0.133362,-0.419362,0.228561,-11.594294,-34.444416,-32.564178,,,,,,,
1504282492.909419,0.300918,0.347095,1.855963,0.111119,-0.050557,-0.061789,0.278722,-0.340167,-0.898109,-0.127049,-0.408215,0.228783,-11.594294,-34.444416,-32.564178,,,,,,,
1504282492.919429,0.300523,0.348083,1.854866,0.130086,-0.086932,-0.072366,0.278267,-0.341096,-0.897898,-0.114190,-0.390578,0.227061,-11.668619,-34.669895,-32.487671,,,,,,,
1504282492.929408,0.299778,0.349184,1.853531,0.146899,-0.131805,-0.092538,0.277487,-0.342131,-0.897746,-0.118017,-0.390184,0.218409,-11.668619,-34.669895,-32.487671,,,,,,,
1504282492.939418,0.298650,0.350435,1.851929,0.167958,-0.178845,-0.111632,0.276348,-0.343306,-0.897649,-0.117412,-0.383607,0.209920,-11.892893,-34.821369,-32.262085,,,,,,,
1504282492.949427,0.297384,0.352018,1.850025,0.224484,-0.192080,-0.128589,0.275052,-0.344792,-0.897477,-0.121365,-0.376582,0.210374,-11.892893,-34.821369,-32.262085,,,,,,,
1504282492.959437,0.296518,0.354190,1.847745,0.279296,-0.150958,-0.142443,0.274055,-0.346831,-0.896996,-0.131294,-0.373811,0.231621,-11.741770,-35.270695,-32.258331,,,,,,,
1504282492.969447,0.296317,0.356229,1.845579,0.239262,-0.079247,-0.129830,0.273668,-0.348742,-0.896373,-0.129991,-0.375989,0.330928,-11.741770,-35.270695,-32.258331,,,,,,,
1504282492.979457,0.296465,0.357583,1.843877,0.155197,-0.038083,-0.108700,0.273662,-0.350011,-0.895880,-0.140194,-0.382914,0.307165,-11.891809,-35.121815,-32.034821,,,,,,,
1504282492.989466,0.296329,0.358234,1.842491,0.083372,-0.077989,-0.104484,0.273473,-0.350621,-0.895699,-0.154241,-0.368603,0.233514,-11.891809,-35.121815,-32.034821,,,,,,,
1504282492.999476,0.295358,0.358307,1.841235,0.029373,-0.164914,-0.112964,0.272596,-0.350689,-0.895940,-0.123762,-0.366565,0.198308,-11.666651,-35.046253,-31.809875,,,,,,,
1504282493.009486,0.293731,0.357865,1.839944,-0.019997,-0.214569,-0.134310,0.271183,-0.350275,-0.896530,-0.122349,-0.367330,0.207733,-11.666651,-35.046253,-31.809875,,,,,,,
1504282493.019496,0.292213,0.356883,1.838504,-0.067686,-0.192833,-0.164318,0.269921,-0.349356,-0.897270,-0.122368,-0.360758,0.224357,-11.665857,-35.495808,-32.031464,,,,,,,
1504282493.029505,0.291239,0.355466,1.836994,-0.102358,-0.134989,-0.179424,0.269189,-0.348027,-0.898006,-0.128289,-0.362605,0.232631,-11.665857,-35.495808,-32.031464,,,,,,,
1504282493.039515,0.290746,0.353873,1.835538,-0.115910,-0.091195,-0.173120,0.268905,-0.346534,-0.898668,-0.137679,-0.370813,0.244127,-11.891245,-35.346821,-32.033142,,,,,,,
1504282493.049525,0.290521,0.352456,1.834164,-0.090137,-0.063712,-0.162450,0.268842,-0.345204,-0.899198,-0.141462,-0.378429,0.250395,-11.891245,-35.346821,-32.033142,,,,,,,
1504282493.059535,0.290545,0.351455,1.832776,-0.047330,-0.039569,-0.149610,0.268963,-0.344264,-0.899523,-0.133969,-0.381261,0.261369,-11.516886,-35.045277,-31.959503,,,,,,,
1504282493.069545,0.290733,0.350911,1.831428,-0.005654,-0.020750,-0.132492,0.269186,-0.343754,-0.899651,-0.134451,-0.385128,0.266534,-11.516886,-35.045277,-31.959503,,,,,,,
1504282493.079554,0.291182,0.350745,1.830131,0.027622,0.013061,-0.118618,0.269606,-0.343598,-0.899585,-0.142653,-0.386032,0.261569,-11.667215,-34.821247,-31.811554,,,,,,,
1504282493.089564,0.292253,0.350952,1.828721,0.070798,0.073448,-0.121852,0.270549,-0.343792,-0.899227,-0.147914,-0.376972,0.261380,-11.667215,-34.821247,-31.811554,,,,,,,
1504282493.099574,0.293947,0.351483,1.827122,0.100060,0.124366,-0.131497,0.272019,-0.344290,-0.898593,-0.150651,-0.373620,0.273471,-11.891428,-35.047565,-31.660400,,,,,,,
1504282493.109584,0.296001,0.352095,1.825298,0.110992,0.144543,-0.151795,0.273803,-0.344865,-0.897831,-0.155929,-0.373641,0.264332,-11.891428,-35.047565,-31.660400,,,,,,,
1504282493.119593,0.298099,0.352605,1.823166,0.106798,0.131827,-0.187004,0.275634,-0.345344,-0.897086,-0.145675,-0.361184,0.244391,-11.515863,-35.495121,-32.031097,,,,,,,
1504282493.129603,0.299965,0.352912,1.820770,0.091683,0.093617,-0.212580,0.277276,-0.345632,-0.896469,-0.142159,-0.361125,0.225876,-11.515863,-35.495121,-32.031097,,,,,,,
1504282493.139613,0.301345,0.352986,1.818211,0.072098,0.034125,-0.231723,0.278505,-0.345701,-0.896061,-0.145967,-0.370501,0.209141,-11.291315,-35.269260,-31.957245,,,,,,,
1504282493.149623,0.302042,0.352792,1.815551,0.050236,-0.041336,-0.247638,0.279150,-0.345520,-0.895931,-0.140814,-0.370041,0.192363,-11.291315,-35.269260,-31.957245,,,,,,,
1504282493.159602,0.301940,0.352337,1.812877,0.025091,-0.121043,-0.253946,0.279105,-0.345092,-0.896109,-0.133536,-0.366242,0.180823,-11.216425,-35.268787,-32.032043,,,,,,,
1504282493.169612,0.301079,0.351629,1.810259,-0.002164,-0.194343,-0.254931,0.278405,-0.344428,-0.896582,-0.133676,-0.371942,0.173926,-11.216425,-35.268787,-32.032043,,,,,,,
1504282493.179621,0.299518,0.350666,1.807673,-0.025067,-0.261280,-0.262325,0.277104,-0.343524,-0.897332,-0.126408,-0.369931,0.171639,-11.214624,-35.719669,-31.578674,,,,,,,
1504282493.189631,0.297359,0.349539,1.805041,-0.038313,-0.321901,-0.270780,0.275279,-0.342465,-0.898298,-0.119471,-0.368747,0.173689,-11.214624,-35.719669,-31.578674,,,,,,,
1504282493.199641,0.294662,0.348349,1.802354,-0.040838,-0.374089,-0.276029,0.272973,-0.341346,-0.899427,-0.116738,-0.373940,0.182279,-11.065226,-35.568699,-31.729431,,,,,,,
1504282493.209651,0.291531,0.347104,1.799679,-0.048616,-0.413451,-0.277041,0.270278,-0.340176,-0.900683,-0.116164,-0.375217,0.189715,-11.065226,-35.568699,-31.729431,,,,,,,
1504282493.219661,0.288072,0.345783,1.797022,-0.058436,-0.440011,-0.275944,0.267288,-0.338933,-0.902043,-0.117508,-0.379039,0.196660,-10.990381,-35.418659,-31.580383,,,,,,,
1504282493.229670,0.284457,0.344379,1.794379,-0.067054,-0.451660,-0.278073,0.264159,-0.337612,-0.903459,-0.114653,-0.380161,0.203096,-10.990381,-35.418659,-31.580383,,,,,,,
1504282493.239680,0.280893,0.342895,1.791811,-0.077627,-0.435595,-0.271715,0.261076,-0.336215,-0.904875,-0.116773,-0.384137,0.211485,-11.439692,-35.645832,-31.504791,,,,,,,
1504282493.249690,0.277652,0.341380,1.789351,-0.082688,-0.396135,-0.263254,0.258281,-0.334788,-0.906205,-0.118328,-0.386724,0.222337,-11.439692,-35.645832,-31.504791,,,,,,,
1504282493.259700,0.274859,0.339917,1.786962,-0.078046,-0.343968,-0.254799,0.255882,-0.333409,-0.907394,-0.117057,-0.386211,0.233932,-11.814737,-35.722218,-31.655151,,,,,,,
1504282493.269709,0.272615,0.338608,1.784543,-0.059492,-0.291906,-0.254858,0.253962,-0.332174,-0.908385,-0.113001,-0.382624,0.242934,-11.814737,-35.722218,-31.655151,,,,,,,
1504282493.279719,0.270896,0.337558,1.782004,-0.028151,-0.245272,-0.260223,0.252494,-0.331184,-0.909156,-0.110449,-0.379158,0.245871,-11.514246,-35.646778,-31.204956,,,,,,,
1504282493.289729,0.269647,0.336863,1.779222,0.014902,-0.208314,-0.276225,0.251419,-0.330528,-0.909692,-0.109330,-0.375725,0.245340,-11.514246,-35.646778,-31.204956,,,,,,,
1504282493.299739,0.268847,0.336554,1.776068,0.060085,-0.177757,-0.301818,0.250718,-0.330236,-0.909991,-0.106477,-0.373347,0.245288,-11.739176,-35.722630,-31.279938,,,,,,,
1504282493.309748,0.268404,0.336589,1.772452,0.104152,-0.159967,-0.338065,0.250312,-0.330270,-0.910091,-0.101783,-0.367286,0.244274,-11.739176,-35.722630,-31.279938,,,,,,,
1504282493.319758,0.268310,0.336909,1.768400,0.139698,-0.135721,-0.366866,0.250198,-0.330572,-0.910013,-0.096466,-0.364039,0.243692,-11.588755,-35.797260,-31.128998,,,,,,,
1504282493.329768,0.268717,0.337352,1.764060,0.154013,-0.092130,-0.386131,0.250530,-0.330990,-0.909769,-0.099163,-0.366413,0.246043,-11.588755,-35.797260,-31.128998,,,,,,,
1504282493.339778,0.269621,0.337783,1.759579,0.152309,-0.046281,-0.399024,0.251314,-0.331396,-0.909405,-0.101305,-0.371607,0.245450,-11.063608,-35.944599,-31.276581,,,,,,,
1504282493.349787,0.270853,0.338200,1.754946,0.158930,-0.028205,-0.413988,0.252398,-0.331789,-0.908962,-0.098009,-0.373518,0.241985,-11.063608,-35.944599,-31.276581,,,,,,,
1504282493.359797,0.272134,0.338642,1.750045,0.170710,-0.039995,-0.441699,0.253522,-0.332207,-0.908496,-0.090131,-0.366219,0.242053,-10.913157,-36.168781,-31.349548,,,,,,,
1504282493.369807,0.273322,0.339147,1.744688,0.189911,-0.067813,-0.485380,0.254556,-0.332683,-0.908033,-0.081597,-0.359548,0.238309,-10.913157,-36.168781,-31.349548,,,,,,,
1504282493.379786,0.274299,0.339674,1.738640,0.210138,-0.115861,-0.553574,0.255395,-0.333180,-0.907615,-0.076623,-0.352352,0.231986,-10.387262,-36.391865,-31.121552,,,,,,,
1504282493.389796,0.275092,0.340230,1.731692,0.236850,-0.162881,-0.636702,0.256065,-0.333703,-0.907234,-0.070793,-0.342307,0.226615,-10.387262,-36.391865,-31.121552,,,,,,,
1504282493.399806,0.275873,0.340772,1.723834,0.257324,-0.187475,-0.716679,0.256723,-0.334215,-0.906859,-0.069574,-0.342329,0.229628,-10.161539,-36.541309,-30.894867,,,,,,,
1504282493.409816,0.276863,0.341219,1.715358,0.260819,-0.179996,-0.763652,0.257581,-0.334637,-0.906461,-0.066449,-0.347950,0.231747,-10.161539,-36.541309,-30.894867,,,,,,,
1504282493.419825,0.278134,0.341623,1.706867,0.255687,-0.147996,-0.753043,0.258695,-0.335017,-0.906002,-0.065794,-0.362524,0.234295,-10.160761,-36.766605,-30.743164,,,,,,,
1504282493.429835,0.279649,0.342066,1.698742,0.252559,-0.114977,-0.714680,0.260026,-0.335434,-0.905467,-0.077058,-0.378128,0.233516,-9.560007,-37.063908,-30.739441,,,,,,,
1504282493.439845,0.281319,0.342636,1.690860,0.263313,-0.091643,-0.694422,0.261485,-0.335971,-0.904848,-0.084972,-0.387204,0.233781,-9.560007,-37.063908,-30.739441,,,,,,,
1504282493.449855,0.283011,0.362637,1.682951,0.274361,-0.075782,-0.708271,0.261088,-0.354741,-0.897771,-0.075174,-0.362605,0.230794,-9.560007,-37.063908,-30.739441,,,,,,,
1504282493.459864,0.285166,0.374711,1.674609,0.285501,-0.055615,-0.748826,0.261797,-0.366003,-0.893031,-0.078005,-0.349527,0.227808,-9.483194,-37.514469,-30.285889,,,,,,,
1504282493.469874,0.287805,0.380467,1.665569,0.300970,-0.037571,-0.817134,0.263550,-0.371354,-0.890302,-0.092881,-0.345214,0.229688,-9.483194,-37.514469,-30.285889,,,,,,,
1504282493.479884,0.291222,0.382125,1.655451,0.302685,-0.022563,-0.920693,0.266414,-0.372893,-0.888805,-0.098461,-0.329225,0.234554,-8.957529,-37.737263,-30.207886,,,,,,,
1504282493.489894,0.295322,0.382676,1.643998,0.309828,-0.012895,-1.053054,0.269996,-0.373404,-0.887509,-0.100959,-0.308847,0.229138,-8.957529,-37.737263,-30.207886,,,,,,,
1504282493.499903,0.300081,0.382678,1.631014,0.320235,-0.003241,-1.198219,0.274216,-0.373406,-0.886213,-0.104706,-0.300422,0.227461,-8.281244,-38.109684,-29.978424,,,,,,,
1504282493.509913,0.305612,0.382307,1.616474,0.340350,0.019122,-1.344457,0.279155,-0.373062,-0.884815,-0.112682,-0.299912,0.234714,-7.380808,-38.106236,-29.676178,,,,,,,
1504282493.519923,0.311929,0.381537,1.600410,0.359381,0.041490,-1.487495,0.284828,-0.372348,-0.883307,-0.119254,-0.294050,0.238058,-7.380808,-38.106236,-29.676178,,,,,,,
1504282493.529933,0.318978,0.380467,1.582897,0.386850,0.059513,-1.617701,0.291172,-0.371354,-0.881655,-0.115848,-0.291427,0.239702,-7.380808,-38.106236,-29.676178,,,,,,,
1504282493.539942,0.326558,0.378946,1.564009,0.418381,0.056186,-1.741459,0.298027,-0.369941,-0.879957,-0.118370,-0.290246,0.240491,-6.404825,-38.402149,-29.521515,,,,,,,
1504282493.549952,0.334198,0.377178,1.543865,0.447337,0.004915,-1.853396,0.304955,-0.368298,-0.878270,-0.110756,-0.290042,0.230260,-6.404825,-38.402149,-29.521515,,,,,,,
1504282493.559962,0.341344,0.375262,1.522600,0.484388,-0.093323,-1.952427,0.311459,-0.366516,-0.876732,-0.104672,-0.293732,0.207558,-4.978418,-38.920902,-29.439056,,,,,,,
1504282493.569972,0.347764,0.373331,1.499970,0.544867,-0.215166,-2.080196,0.317322,-0.364719,-0.875378,-0.108002,-0.289151,0.192837,-4.001352,-39.517262,-29.057159,,,,,,,
1504282493.579982,0.353471,0.371544,1.475673,0.633072,-0.344687,-2.217509,0.322538,-0.363054,-0.874163,-0.085157,-0.282087,0.185870,-4.001352,-39.517262,-29.057159,,,,,,,
1504282493.589991,0.358507,0.370124,1.449963,0.722330,-0.450816,-2.314301,0.327116,-0.361731,-0.873010,-0.060728,-0.275766,0.191049,-2.425226,-39.735935,-28.676575,,,,,,,
1504282493.599971,0.362994,0.369098,1.423490,0.791258,-0.524875,-2.348208,0.331162,-0.360774,-0.871880,-0.056061,-0.280232,0.200523,-2.425226,-39.735935,-28.676575,,,,,,,
1504282493.609980,0.366871,0.368514,1.396955,0.838682,-0.581770,-2.321340,0.334615,-0.360230,-0.870786,-0.044179,-0.302917,0.210858,-0.998850,-40.105122,-28.370270,,,,,,,
1504282493.619990,0.370109,0.368290,1.370753,0.864729,-0.632115,-2.276376,0.337462,-0.360021,-0.869773,-0.041441,-0.324244,0.222007,-0.998850,-40.105122,-28.370270,,,,,,,
1504282493.630000,0.372672,0.368317,1.344843,0.884352,-0.691985,-2.242079,0.339687,-0.360046,-0.868896,-0.026393,-0.326523,0.227248,0.353628,-40.550846,-27.463501,,,,,,,
1504282493.640010,0.374514,0.368578,1.319060,0.907184,-0.761455,-2.224838,0.341252,-0.360289,-0.868181,-0.002873,-0.318300,0.230349,0.353628,-40.550846,-27.463501,,,,,,,
1504282493.650019,0.375773,0.368992,1.293433,0.916300,-0.806312,-2.199126,0.342290,-0.360676,-0.867612,0.020762,-0.316113,0.240506,1.405386,-40.847477,-26.783661,,,,,,,
1504282493.660029,0.376814,0.369551,1.268117,0.920380,-0.808512,-2.164958,0.343118,-0.361197,-0.867068,0.034430,-0.317087,0.247485,1.405386,-40.847477,-26.783661,,,,,,,
1504282493.670039,0.377857,0.370159,1.243231,0.906456,-0.789260,-2.123388,0.343942,-0.361764,-0.866505,0.041800,-0.311896,0.261708,1.405386,-40.847477,-26.783661,,,,,,,
1504282493.680049,0.378914,0.370699,1.218702,0.888265,-0.780611,-2.098884,0.344785,-0.362267,-0.865959,0.046466,-0.315238,0.259789,2.831854,-41.291523,-26.551758,,,,,,,
1504282493.690058,0.379755,0.371062,1.194345,0.865624,-0.806005,-2.092474,0.345464,-0.362606,-0.865547,0.053583,-0.311283,0.256675,4.108389,-41.586842,-26.021332,,,,,,,
1504282493.700068,0.380157,0.371122,1.170222,0.826861,-0.842994,-2.080734,0.345804,-0.362661,-0.865388,0.069082,-0.318751,0.253022,4.108389,-41.586842,-26.021332,,,,,,,
1504282493.710078,0.380162,0.370749,1.146442,0.773278,-0.863879,-2.066914,0.345859,-0.362314,-0.865511,0.071820,-0.322211,0.254382,5.084875,-41.733952,-25.267822,,,,,,,
1504282493.720088,0.380044,0.369858,1.122891,0.718919,-0.862357,-2.075551,0.345876,-0.361483,-0.865852,0.068720,-0.306822,0.259575,5.084875,-41.733952,-25.267822,,,,,,,
1504282493.730098,0.379952,0.368404,1.099221,0.671079,-0.864055,-2.112989,0.345992,-0.360127,-0.866371,0.076341,-0.285915,0.270256,6.135366,-41.879383,-25.189087,,,,,,,
1504282493.740107,0.379752,0.366171,1.075236,0.608254,-0.891172,-2.181364,0.346116,-0.358043,-0.867185,0.086883,-0.242086,0.268796,6.135366,-41.879383,-25.189087,,,,,,,
1504282493.750105,0.378545,0.364185,1.050202,0.718257,-1.061425,-2.261996,0.345331,-0.356188,-0.868261,0.104880,-0.140486,0.232198,7.261221,-41.950230,-24.735779,,,,,,,
1504282493.760115,0.376291,0.362736,1.024119,0.761550,-1.159747,-2.328994,0.343562,-0.354834,-0.869516,0.112691,-0.192667,0.186960,7.261221,-41.950230,-24.735779,,,,,,,
1504282493.770125,0.374330,0.360770,0.997706,0.711937,-1.128377,-2.385708,0.342111,-0.352994,-0.870836,0.127402,-0.233447,0.175768,7.261221,-41.950230,-24.735779,,,,,,,
1504282493.780134,0.371959,0.358269,0.970887,0.674274,-1.198346,-2.433682,0.340365,-0.350654,-0.872464,0.128492,-0.262795,0.216062,8.762335,-42.169224,-24.355347,,,,,,,
1504282493.790144,0.368686,0.355849,0.944134,0.686315,-1.283710,-2.417500,0.337812,-0.348386,-0.874363,0.133455,-0.222903,0.234546,10.035894,-41.638355,-24.431122,,,,,,,
1504282493.800154,0.364708,0.354034,0.917233,0.752010,-1.343919,-2.422617,0.334556,-0.346685,-0.876289,0.137520,-0.218562,0.237876,10.035894,-41.638355,-24.431122,,,,,,,
1504282493.810164,0.360360,0.352911,0.889861,0.824238,-1.395644,-2.440547,0.330880,-0.345631,-0.878099,0.152000,-0.242962,0.227785,11.311346,-41.633213,-24.127991,,,,,,,
1504282493.820143,0.355532,0.352551,0.862248,0.888875,-1.447332,-2.433939,0.326679,-0.345293,-0.879803,0.174450,-0.242460,0.208462,11.311346,-41.633213,-24.127991,,,,,,,
1504282493.830153,0.349941,0.352407,0.834979,0.833591,-1.523654,-2.381598,0.321772,-0.345158,-0.881662,0.180822,-0.239910,0.190271,11.311346,-41.633213,-24.127991,,,,,,,
1504282493.840162,0.342205,0.349324,0.810563,0.379453,-1.643689,-2.222062,0.315298,-0.342262,-0.885123,0.184564,-0.267937,0.192054,12.435690,-41.328312,-24.052460,,,,,,,
1504282493.850172,0.332058,0.344475,0.788009,0.217569,-1.825720,-2.144102,0.306839,-0.337702,-0.889835,0.237671,-0.271001,0.228687,13.484961,-41.173130,-24.276001,,,,,,,
1504282493.860182,0.320009,0.339845,0.765910,0.246004,-1.983700,-2.108549,0.296584,-0.333341,-0.894942,0.278428,-0.275516,0.228240,13.484961,-41.173130,-24.276001,,,,,,,
1504282493.870192,0.305838,0.335942,0.745104,0.215156,-2.133871,-1.939689,0.284262,-0.329659,-0.900289,0.312906,-0.271492,0.204183,14.157431,-40.344501,-24.580536,,,,,,,
1504282493.880201,0.289872,0.332443,0.726219,0.186712,-2.243580,-1.760221,0.270180,-0.326353,-0.905813,0.358040,-0.275652,0.210317,14.157431,-40.344501,-24.580536,,,,,,,
1504282493.890211,0.271935,0.329520,0.709357,0.148249,-2.369524,-1.568075,0.254145,-0.323589,-0.911428,0.396566,-0.327427,0.214879,14.155478,-39.968159,-25.258392,,,,,,,
1504282493.900221,0.252924,0.326578,0.693248,0.096375,-2.436256,-1.542430,0.237010,-0.320804,-0.917012,0.427389,-0.350598,0.220098,14.155478,-39.968159,-25.258392,,,,,,,
1504282493.910231,0.233438,0.322725,0.677077,-0.045499,-2.462743,-1.590662,0.219381,-0.317152,-0.922652,0.397806,-0.406161,0.259383,14.153143,-39.441807,-25.937317,,,,,,,
1504282493.920241,0.214603,0.317683,0.660539,-0.170301,-2.368935,-1.660425,0.202303,-0.312367,-0.928171,0.357603,-0.358486,0.301553,14.153143,-39.441807,-25.937317,,,,,,,
1504282493.930250,0.197958,0.311717,0.643257,-0.272628,-2.144225,-1.748525,0.187190,-0.306693,-0.933220,0.311147,-0.321572,0.357826,14.001028,-38.916431,-26.466675,,,,,,,
1504282493.940260,0.183547,0.304537,0.624831,-0.416461,-1.953195,-1.911356,0.174120,-0.299851,-0.937961,0.263929,-0.310027,0.388233,14.001028,-38.916431,-26.466675,,,,,,,
1504282493.950270,0.171379,0.295425,0.605196,-0.621103,-1.749961,-2.056169,0.163153,-0.291146,-0.942664,0.241723,-0.336158,0.383383,14.001028,-38.916431,-26.466675,,,,,,,
1504282493.960280,0.161679,0.283744,0.583236,-0.847548,-1.548549,-2.324834,0.154539,-0.279952,-0.947494,0.308214,-0.278184,0.287002,14.597540,-38.236332,-27.670258,,,,,,,
1504282493.970289,0.153885,0.270521,0.559029,-0.962624,-1.410957,-2.563307,0.147704,-0.267233,-0.952245,0.409180,-0.313059,0.201116,15.042150,-36.806919,-28.879883,,,,,,,
1504282493.980299,0.146856,0.256996,0.532743,-0.943336,-1.387472,-2.756515,0.141523,-0.254176,-0.956747,0.362688,-0.386418,0.183951,15.042150,-36.806919,-28.879883,,,,,,,
1504282493.990309,0.139737,0.244494,0.504372,-0.801871,-1.425738,-2.944065,0.135141,-0.242066,-0.960802,0.339484,-0.392456,0.166979,16.162542,-35.599766,-29.936127,,,,,,,
1504282494.000319,0.132162,0.233647,0.473498,-0.621076,-1.512230,-3.179495,0.128197,-0.231527,-0.964345,0.382682,-0.401072,0.169697,16.162542,-35.599766,-29.936127,,,,,,,
1504282494.010328,0.124259,0.224608,0.439384,-0.420529,-1.577495,-3.490714,0.120826,-0.222724,-0.967365,0.430306,-0.400018,0.176487,17.132757,-34.094028,-30.619995,,,,,,,
1504282494.020338,0.116645,0.217490,0.401591,-0.210872,-1.586331,-3.826567,0.113639,-0.215779,-0.969807,0.464562,-0.403789,0.220539,17.132757,-34.094028,-30.619995,,,,,,,
1504282494.030348,0.110042,0.212829,0.360043,0.033136,-1.569877,-4.163471,0.107342,-0.211226,-0.971525,0.487506,-0.431794,0.306501,18.627615,-32.585484,-31.527588,,,,,,,
1504282494.040358,0.103920,0.210630,0.314879,0.282017,-1.602496,-4.486404,0.101441,-0.209076,-0.972624,0.479507,-0.468140,0.352476,18.627615,-32.585484,-31.527588,,,,,,,
1504282494.050337,0.096752,0.210531,0.266957,0.462911,-1.797704,-4.701360,0.094468,-0.208979,-0.973347,0.457732,-0.507910,0.364887,20.197485,-30.852362,-32.061646,,,,,,,
1504282494.060347,0.086967,0.211925,0.217307,0.635195,-2.099458,-4.858505,0.084915,-0.210342,-0.973933,0.397004,-0.597046,0.316584,20.197485,-30.852362,-32.061646,,,,,,,
1504282494.070357,0.074159,0.216151,0.165766,0.900879,-2.463785,-5.017513,0.072367,-0.214472,-0.974046,0.349783,-0.665747,0.316941,21.317816,-29.346106,-32.670135,,,,,,,
1504282494.080366,0.059177,0.223665,0.113008,1.150142,-2.700181,-5.102056,0.057669,-0.221805,-0.973384,0.368082,-0.664486,0.407527,21.317816,-29.346106,-32.670135,,,,,,,
1504282494.090376,0.043716,0.234360,0.059165,1.320588,-2.798450,-5.206191,0.042507,-0.232221,-0.971734,0.298999,-0.655047,0.459939,21.317816,-29.346106,-32.670135,,,,,,,
1504282494.100386,0.029615,0.246634,0.003738,1.348679,-2.724988,-5.372783,0.028714,-0.244141,-0.969315,0.262423,-0.624618,0.450119,21.987494,-27.766272,-33.580322,,,,,,,
1504282494.110396,0.018660,0.259578,-0.054044,1.287336,-2.539895,-5.612309,0.018034,-0.256673,-0.966330,0.284945,-0.575969,0.442587,22.507589,-26.262411,-34.340271,,,,,,,
1504282494.120405,0.010835,0.271015,-0.114745,1.210611,-2.314110,-5.911713,0.010439,-0.267710,-0.963443,0.301389,-0.536337,0.436832,22.507589,-26.262411,-34.340271,,,,,,,
1504282494.130415,0.006940,0.282371,-0.178707,1.183068,-2.078071,-6.215320,0.006665,-0.278633,-0.960374,0.322726,-0.501198,0.432771,23.625921,-24.005987,-35.029419,,,,,,,
1504282494.140425,0.006905,0.293862,-0.246393,1.196001,-1.881739,-6.568953,0.006609,-0.289650,-0.957110,0.342619,-0.480125,0.441317,23.625921,-24.005987,-35.029419,,,,,,,
1504282494.150435,0.010228,0.305480,-0.318540,1.229859,-1.775028,-6.983235,0.009754,-0.300751,-0.953653,0.336330,-0.459259,0.453500,23.625921,-24.005987,-35.029419,,,,,,,
1504282494.160444,0.016252,0.317697,-0.394938,1.354607,-1.732010,-7.325731,0.015438,-0.312379,-0.949832,0.296451,-0.418364,0.450274,24.744207,-21.824286,-35.867981,,,,,,,
1504282494.170454,0.023954,0.331389,-0.474340,1.577209,-1.777316,-7.534476,0.022648,-0.325357,-0.945320,0.247570,-0.404883,0.435783,25.560797,-18.744665,-36.339081,,,,,,,
1504282494.180464,0.032099,0.346637,-0.555767,1.784560,-1.938741,-7.652314,0.030185,-0.339737,-0.940036,0.199521,-0.450775,0.409305,25.560797,-18.744665,-36.339081,,,,,,,
1504282494.190474,0.039701,0.362619,-0.638744,1.897160,-2.182544,-7.729609,0.037110,-0.354724,-0.934234,0.142837,-0.477246,0.359817,25.560797,-18.744665,-36.339081,,,,,,,
1504282494.200483,0.046583,0.378535,-0.722887,1.932885,-2.408706,-7.767575,0.043270,-0.369560,-0.928199,0.079121,-0.479164,0.315620,26.152929,-16.190008,-37.331696,,,,,,,
1504282494.210493,0.053192,0.394035,-0.807985,1.941232,-2.585631,-7.799271,0.049093,-0.383917,-0.922061,0.073298,-0.464807,0.309482,26.152929,-16.190008,-37.331696,,,,,,,
1504282494.220503,0.060052,0.409331,-0.894110,1.991621,-2.703238,-7.822458,0.055058,-0.397996,-0.915734,-0.051701,-0.471587,0.303780,25.543844,-13.340155,-38.629639,,,,,,,
1504282494.230513,0.068020,0.425389,-0.980576,2.154611,-2.693992,-7.757081,0.061911,-0.412675,-0.908772,-0.129507,-0.440337,0.305775,24.186026,-10.943823,-39.850983,,,,,,,
1504282494.240523,0.078153,0.443291,-1.066420,2.419441,-2.553570,-7.577546,0.070527,-0.428915,-0.900588,-0.208909,-0.403086,0.314742,24.186026,-10.943823,-39.850983,,,,,,,
1504282494.250532,0.091265,0.462988,-1.150575,2.651595,-2.297902,-7.293665,0.081543,-0.446624,-0.890998,-0.284607,-0.378923,0.308570,24.186026,-10.943823,-39.850983,,,,,,,
1504282494.260542,0.108482,0.483595,-1.233169,2.813172,-1.952103,-7.047425,0.095854,-0.464965,-0.880125,-0.349654,-0.363115,0.269224,22.680929,-9.673025,-41.139252,,,,,,,
1504282494.270521,0.130192,0.503803,-1.314615,2.859637,-1.601078,-6.816338,0.113695,-0.482759,-0.868342,-0.433763,-0.334303,0.196146,21.477316,-8.776617,-42.049011,,,,,,,
1504282494.280531,0.155203,0.522322,-1.394334,2.796124,-1.360026,-6.530809,0.133969,-0.498894,-0.856246,-0.506253,-0.340660,0.082519,21.477316,-8.776617,-42.049011,,,,,,,
1504282494.290541,0.181388,0.538558,-1.471589,2.685297,-1.278458,-6.213059,0.154860,-0.512899,-0.844366,-0.549422,-0.381282,-0.059901,20.575506,-8.554022,-42.877899,,,,,,,
1504282494.300551,0.206883,0.552376,-1.546131,2.546666,-1.343705,-5.903637,0.174862,-0.524711,-0.833128,-0.580105,-0.389916,-0.204043,20.575506,-8.554022,-42.877899,,,,,,,
1504282494.310560,0.230017,0.563482,-1.617606,2.341050,-1.516021,-5.598413,0.192747,-0.534133,-0.823135,-0.597990,-0.380494,-0.214036,20.575506,-8.554022,-42.877899,,,,,,,
1504282494.320570,0.250795,0.571673,-1.685716,2.102122,-1.591082,-5.304091,0.208714,-0.541040,-0.814687,-0.674977,-0.386801,-0.432765,19.748159,-8.106085,-43.708374,,,,,,,
1504282494.330580,0.270275,0.577020,-1.750582,1.851434,-1.571149,-5.066530,0.223768,-0.545529,-0.807667,-0.724073,-0.340992,-0.478404,18.547628,-8.260275,-44.310211,,,,,,,
1504282494.340590,0.288371,0.578729,-1.812756,1.506989,-1.592971,-4.922990,0.238080,-0.546961,-0.802591,-0.754529,-0.298132,-0.524237,18.547628,-8.260275,-44.310211,,,,,,,
1504282494.350599,0.305007,0.576388,-1.872615,1.156505,-1.609347,-4.843513,0.251782,-0.544999,-0.799738,-0.765805,-0.237853,-0.596029,16.970953,-8.040869,-45.065796,,,,,,,
1504282494.360609,0.320210,0.570144,-1.930741,0.821209,-1.639627,-4.836568,0.264977,-0.539753,-0.799033,-0.761513,-0.187817,-0.636758,16.970953,-8.040869,-45.065796,,,,,,,
1504282494.370619,0.334191,0.560069,-1.987744,0.525797,-1.659511,-4.894685,0.277892,-0.531245,-0.800347,-0.759215,-0.133535,-0.644813,15.919226,-7.669530,-45.596222,,,,,,,
1504282494.380629,0.347373,0.547295,-2.044162,0.372659,-1.636871,-4.959034,0.290704,-0.520379,-0.802930,-0.761193,-0.076133,-0.610522,15.919226,-7.669530,-45.596222,,,,,,,
1504282494.390638,0.360796,0.533383,-2.100323,0.376108,-1.503647,-5.009431,0.303982,-0.508449,-0.805651,-0.760220,-0.021397,-0.538862,15.919226,-7.669530,-45.596222,,,,,,,
1504282494.400648,0.376099,0.519501,-2.156616,0.491666,-1.213660,-5.038562,0.318837,-0.496447,-0.807393,-0.766911,0.047640,-0.446239,14.115744,-6.551748,-46.059082,,,,,,,
1504282494.410658,0.394445,0.506412,-2.212470,0.656862,-0.798433,-4.979233,0.336063,-0.485043,-0.807338,-0.791202,0.142254,-0.358387,12.914053,-6.106390,-46.440430,,,,,,,
1504282494.420668,0.415648,0.494224,-2.267292,0.806519,-0.424693,-4.865422,0.355465,-0.474349,-0.805381,-0.814617,0.196730,-0.287866,12.914053,-6.106390,-46.440430,,,,,,,
1504282494.430678,0.437961,0.482448,-2.320515,0.894867,-0.229496,-4.724715,0.375689,-0.463949,-0.802252,-0.843615,0.184958,-0.256402,12.537481,-5.657476,-46.744751,,,,,,,
1504282494.440687,0.459153,0.471384,-2.371821,1.013182,-0.256247,-4.530196,0.394855,-0.454120,-0.798664,-0.886890,0.124179,-0.250652,12.537481,-5.657476,-46.744751,,,,,,,
1504282494.450697,0.477230,0.461995,-2.420958,1.187351,-0.460419,-4.266953,0.411168,-0.445734,-0.795149,-0.918645,0.049220,-0.246828,12.612967,-5.807287,-46.668427,,,,,,,
1504282494.460707,0.491562,0.454872,-2.467906,1.378188,-0.703109,-3.984400,0.424009,-0.439347,-0.791954,-0.938413,0.042969,-0.245674,12.612967,-5.807287,-46.668427,,,,,,,
1504282494.470717,0.502809,0.450210,-2.513022,1.572790,-0.887203,-3.721157,0.433871,-0.435155,-0.788921,-0.948215,0.070760,-0.224599,11.863714,-6.110662,-46.668030,,,,,,,
1504282494.480726,0.512010,0.447837,-2.556505,1.729752,-0.985721,-3.475209,0.441617,-0.433017,-0.785793,-0.949429,0.142154,-0.205631,11.863714,-6.110662,-46.668030,,,,,,,
1504282494.490706,0.519713,0.447191,-2.598200,1.811332,-1.045244,-3.241202,0.447795,-0.432434,-0.782611,-0.960903,0.263520,-0.212613,11.115088,-7.012823,-47.263153,,,,,,,
1504282494.500715,0.526200,0.447779,-2.637788,1.835564,-1.064878,-2.996690,0.452735,-0.432964,-0.779470,-0.979850,0.377682,-0.248729,11.115088,-7.012823,-47.263153,,,,,,,
1504282494.510725,0.531803,0.449413,-2.674793,1.813120,-1.034073,-2.725663,0.456735,-0.434437,-0.776310,-1.004877,0.417118,-0.283641,10.067434,-7.992391,-47.333435,,,,,,,
1504282494.520735,0.536966,0.451650,-2.708637,1.712269,-0.920594,-2.431435,0.460239,-0.436450,-0.773105,-1.041996,0.367572,-0.314908,10.067434,-7.992391,-47.333435,,,,,,,
1504282494.530745,0.542984,0.454166,-2.738801,1.574253,-0.637402,-2.115155,0.464314,-0.438713,-0.769378,-1.090398,0.297417,-0.327012,9.395742,-9.270590,-47.250488,,,,,,,
1504282494.540754,0.550940,0.457285,-2.765032,1.464479,-0.264977,-1.756287,0.469703,-0.441513,-0.764490,-1.130622,0.219651,-0.297750,9.395742,-9.270590,-47.250488,,,,,,,
1504282494.550764,0.560569,0.461415,-2.787222,1.377617,0.050760,-1.375932,0.476068,-0.445216,-0.758381,-1.143518,0.159129,-0.287426,9.322821,-10.095922,-47.244507,,,,,,,
1504282494.560774,0.570610,0.466747,-2.805436,1.304530,0.222526,-0.993164,0.482370,-0.449984,-0.751554,-1.132272,0.153857,-0.316317,9.322821,-10.095922,-47.244507,,,,,,,
1504282494.570784,0.579326,0.473600,-2.820155,1.281064,0.173340,-0.645145,0.487202,-0.456093,-0.744724,-1.091984,0.176765,-0.363324,9.926397,-11.293982,-46.859009,,,,,,,
1504282494.580794,0.584458,0.481545,-2.831618,1.201771,-0.079936,-0.340626,0.489003,-0.463149,-0.739168,-1.015645,0.195525,-0.439009,9.926397,-11.293982,-46.859009,,,,,,,
1504282494.590803,0.585915,0.490068,-2.840216,1.098512,-0.307363,-0.109845,0.487879,-0.470686,-0.735138,-0.935969,0.245222,-0.517990,9.704031,-12.344992,-46.851685,,,,,,,
1504282494.600813,0.584770,0.498040,-2.846211,0.897424,-0.416674,0.029829,0.484950,-0.477704,-0.732545,-0.866633,0.270856,-0.536849,9.704031,-12.344992,-46.851685,,,,,,,
1504282494.610823,0.582800,0.504285,-2.849871,0.628875,-0.340996,0.086870,0.481855,-0.483182,-0.730993,-0.809690,0.283658,-0.519587,9.556479,-13.320669,-46.844727,,,,,,,
1504282494.620833,0.581856,0.508509,-2.851752,0.385111,-0.131205,0.095684,0.480039,-0.486875,-0.729737,-0.770810,0.284589,-0.463882,9.556479,-13.320669,-46.844727,,,,,,,
1504282494.630842,0.582237,0.510942,-2.852367,0.188142,0.047318,0.084354,0.479664,-0.488999,-0.728562,-0.725468,0.250123,-0.402251,9.332952,-13.772131,-46.616913,,,,,,,
1504282494.640852,0.583251,0.512236,-2.852314,0.086276,0.109974,0.072326,0.480053,-0.490127,-0.727546,-0.667843,0.205582,-0.361565,9.332952,-13.772131,-46.616913,,,,,,,
1504282494.650862,0.583427,0.513257,-2.852113,0.079942,-0.015713,0.071469,0.479906,-0.491017,-0.727044,-0.601732,0.177419,-0.340095,9.332846,-13.771978,-46.691925,,,,,,,
1504282494.660872,0.581543,0.514472,-2.852183,0.111189,-0.253584,0.056999,0.478207,-0.492075,-0.727448,-0.532086,0.182383,-0.346283,9.332846,-13.771978,-46.691925,,,,,,,
1504282494.670881,0.577620,0.515750,-2.852664,0.135277,-0.462608,0.026455,0.475006,-0.493187,-0.728791,-0.480957,0.225609,-0.347869,9.032583,-13.847738,-46.992096,,,,,,,
1504282494.680891,0.572556,0.516857,-2.853382,0.118647,-0.556218,0.002041,0.471013,-0.494150,-0.730727,-0.454091,0.273706,-0.330247,9.032583,-13.847738,-46.992096,,,,,,,
1504282494.690901,0.567632,0.517533,-2.853898,0.066905,-0.489724,0.000766,0.467229,-0.494738,-0.732756,-0.454244,0.309923,-0.303453,8.433065,-14.000586,-46.917450,,,,,,,
1504282494.700911,0.564004,0.517925,-2.853705,0.008401,-0.302814,0.050503,0.464464,-0.495078,-0.734283,-0.475770,0.315559,-0.264481,8.433065,-14.000586,-46.917450,,,,,,,
1504282494.710890,0.561952,0.518265,-2.852447,-0.039389,-0.090451,0.132236,0.462867,-0.495373,-0.735092,-0.494895,0.288708,-0.225999,8.432989,-13.925726,-46.843018,,,,,,,
1504282494.720900,0.561328,0.518920,-2.850065,-0.055460,0.100314,0.237545,0.462235,-0.495943,-0.735105,-0.498078,0.246767,-0.200625,8.432989,-13.925726,-46.843018,,,,,,,
1504282494.730909,0.561852,0.520282,-2.846902,-0.020656,0.236336,0.322757,0.462260,-0.497125,-0.734291,-0.479533,0.185556,-0.181938,8.433035,-14.075277,-47.066895,,,,,,,
1504282494.740919,0.563030,0.522169,-2.843690,0.023427,0.286044,0.334487,0.462623,-0.498762,-0.732951,-0.438392,0.116987,-0.175024,8.433035,-14.075277,-47.066895,,,,,,,
1504282494.750916,0.564740,0.524190,-2.841205,0.065440,0.296420,0.270498,0.463335,-0.500512,-0.731306,-0.398333,0.090417,-0.189288,8.508413,-14.224951,-47.065582,,,,,,,
1504282494.760926,0.567136,0.526070,-2.839792,0.101233,0.314333,0.181934,0.464580,-0.502139,-0.729399,-0.373546,0.107501,-0.204348,8.508413,-14.224951,-47.065582,,,,,,,
1504282494.770936,0.570290,0.527426,-2.839147,0.067905,0.366904,0.102796,0.466510,-0.503311,-0.727356,-0.365176,0.143539,-0.227280,8.883627,-14.223562,-46.914642,,,,,,,
1504282494.780945,0.574335,0.527263,-2.837820,-0.129375,0.507067,0.092600,0.469493,-0.503170,-0.725532,-0.387370,0.157085,-0.279748,8.883627,-14.223562,-46.914642,,,,,,,
1504282494.790955,0.578011,0.525740,-2.834642,-0.306914,0.504183,0.173420,0.472575,-0.501853,-0.724442,-0.445979,0.097343,-0.387725,9.108221,-14.147253,-47.064667,,,,,,,
1504282494.800965,0.578587,0.524781,-2.829630,-0.330231,0.243103,0.365972,0.473255,-0.501023,-0.724573,-0.485202,-0.010924,-0.388449,9.108221,-14.147253,-47.064667,,,,,,,
1504282494.810975,0.575644,0.524108,-2.821908,-0.461848,0.053236,0.566751,0.471304,-0.500441,-0.726244,-0.482764,-0.117097,-0.283720,9.332693,-14.070791,-47.289673,,,,,,,
1504282494.820984,0.570877,0.521935,-2.811414,-0.755677,0.060884,0.663362,0.468423,-0.498558,-0.729397,-0.464562,-0.126198,-0.365849,9.332693,-14.070791,-47.289673,,,,,,,
1504282494.830994,0.566138,0.516820,-2.798804,-1.100206,0.186298,0.631589,0.466323,-0.494118,-0.733751,-0.438155,-0.041282,-0.504195,9.181189,-13.471457,-47.294556,,,,,,,
1504282494.841004,0.562358,0.509062,-2.785952,-1.286646,0.264706,0.488096,0.465576,-0.487358,-0.738729,-0.386657,0.090355,-0.564051,9.181189,-13.471457,-47.294556,,,,,,,
1504282494.851014,0.559161,0.500281,-2.775314,-1.202110,0.155552,0.263213,0.465464,-0.479673,-0.743813,-0.314982,0.207547,-0.483696,9.328588,-12.570333,-47.525909,,,,,,,
1504282494.861023,0.556086,0.492077,-2.768170,-0.956892,-0.002883,0.045100,0.465237,-0.472457,-0.748558,-0.235638,0.250076,-0.280922,9.328588,-12.570333,-47.525909,,,,,,,
1504282494.871033,0.553925,0.485500,-2.765126,-0.599017,-0.081264,-0.170825,0.465243,-0.466650,-0.752188,-0.220003,0.197531,-0.093042,9.175497,-11.520407,-47.834198,,,,,,,
1504282494.881043,0.554721,0.482591,-2.767299,-0.001906,0.014192,-0.370630,0.466554,-0.464076,-0.752968,-0.232652,0.094859,0.065789,9.175497,-11.520407,-47.834198,,,,,,,
1504282494.891053,0.561003,0.483159,-2.775448,0.581498,0.358972,-0.664937,0.471135,-0.464579,-0.749799,-0.236699,0.020686,0.263654,9.551962,-11.969168,-47.604858,,,,,,,
1504282494.901063,0.574335,0.486089,-2.789470,1.002581,0.798034,-0.959584,0.480347,-0.467171,-0.742306,-0.254929,0.030251,0.279034,9.551962,-11.969168,-47.604858,,,,,,,
1504282494.911072,0.593547,0.489485,-2.807172,1.167699,1.177298,-1.156369,0.493629,-0.470171,-0.731621,-0.336188,0.053545,0.130044,10.453344,-12.564978,-47.673157,,,,,,,
1504282494.921082,0.615748,0.492315,-2.825763,1.153423,1.376711,-1.183430,0.508977,-0.472668,-0.719394,-0.403234,0.086117,-0.053571,10.453344,-12.564978,-47.673157,,,,,,,
1504282494.931061,0.637407,0.494528,-2.843030,1.029667,1.320061,-1.061861,0.523815,-0.474616,-0.707359,-0.447597,0.081642,-0.184044,11.730185,-12.935446,-47.067200,,,,,,,
1504282494.941071,0.655543,0.496186,-2.857105,0.824839,1.071085,-0.823746,0.536076,-0.476075,-0.697119,-0.458485,0.026551,-0.249872,11.730185,-12.935446,-47.067200,,,,,,,
1504282494.951081,0.668499,0.497381,-2.867240,0.575353,0.719094,-0.567381,0.544710,-0.477125,-0.689668,-0.473939,-0.051668,-0.253370,12.782141,-13.531332,-46.760071,,,,,,,
1504282494.961091,0.675563,0.497581,-2.873338,0.267995,0.303697,-0.361173,0.549508,-0.477302,-0.685729,-0.442284,-0.106546,-0.217668,12.782141,-13.531332,-46.760071,,,,,,,
1504282494.971100,0.676100,0.496173,-2.875857,-0.047151,-0.198937,-0.230609,0.550296,-0.476064,-0.685957,-0.366657,-0.158625,-0.206301,13.082327,-13.604986,-46.758789,,,,,,,
1504282494.981110,0.669747,0.493087,-2.875425,-0.332607,-0.751854,-0.143669,0.546836,-0.473348,-0.690588,-0.283042,-0.116923,-0.219141,13.082327,-13.604986,-46.758789,,,,,,,
1504282494.991120,0.657213,0.488415,-2.872879,-0.560854,-1.251912,-0.104757,0.539483,-0.469227,-0.699131,-0.231500,-0.010357,-0.243740,12.256277,-13.233541,-46.838623,,,,,,,
1504282495.001130,0.639970,0.482131,-2.869046,-0.741974,-1.624438,-0.111885,0.529099,-0.463668,-0.710680,-0.200760,0.095366,-0.264753,12.256277,-13.233541,-46.838623,,,,,,,
1504282495.011139,0.619939,0.474824,-2.864834,-0.827997,-1.856006,-0.135109,0.516713,-0.457182,-0.723873,-0.175847,0.208021,-0.258350,10.828756,-12.638601,-47.521637,,,,,,,
1504282495.021149,0.599138,0.466637,-2.861227,-0.858992,-1.925974,-0.236442,0.503639,-0.449885,-0.737530,-0.144554,0.277415,-0.211139,10.828756,-12.638601,-47.521637,,,,,,,
1504282495.031159,0.579179,0.457459,-2.859284,-0.869637,-1.901192,-0.415828,0.491058,-0.441669,-0.750859,-0.115814,0.271275,-0.219310,9.101065,-11.970007,-48.206024,,,,,,,
1504282495.041169,0.561299,0.446767,-2.858936,-0.932307,-1.711877,-0.596662,0.480042,-0.432052,-0.763473,-0.124237,0.282089,-0.267609,9.101065,-11.970007,-48.206024,,,,,,,
1504282495.051178,0.547461,0.434519,-2.860362,-0.977302,-1.330870,-0.805555,0.472150,-0.420974,-0.774503,-0.172010,0.286956,-0.273120,7.372763,-10.926855,-48.668121,,,,,,,
1504282495.061188,0.539061,0.421463,-2.864013,-0.922478,-0.864391,-0.996280,0.468410,-0.409096,-0.783092,-0.242153,0.219460,-0.214055,7.372763,-10.926855,-48.668121,,,,,,,
1504282495.071198,0.535592,0.408967,-2.869612,-0.766356,-0.480894,-1.093819,0.468263,-0.397661,-0.789047,-0.333543,0.137041,-0.142258,6.619864,-9.730368,-48.604004,,,,,,,
1504282495.081208,0.535271,0.398313,-2.876432,-0.536364,-0.259035,-1.072464,0.470144,-0.387864,-0.792796,-0.410986,0.072847,-0.111440,6.619864,-9.730368,-48.604004,,,,,,,
1504282495.091218,0.535211,0.389753,-2.883376,-0.382514,-0.293456,-0.955790,0.471772,-0.379960,-0.795652,-0.456574,0.026811,-0.133609,6.243399,-9.281607,-48.833313,,,,,,,
1504282495.101227,0.533367,0.382179,-2.889487,-0.363064,-0.457839,-0.840187,0.471754,-0.372944,-0.798975,-0.470198,-0.021847,-0.199117,6.243399,-9.281607,-48.833313,,,,,,,
1504282495.111237,0.529616,0.375303,-2.894012,-0.385134,-0.578244,-0.672431,0.470038,-0.366554,-0.802934,-0.503592,-0.078438,-0.222152,5.942160,-8.832800,-48.912415,,,,,,,
1504282495.121247,0.524726,0.369358,-2.897189,-0.357291,-0.601014,-0.515434,0.467190,-0.361016,-0.807094,-0.546978,-0.150184,-0.181843,5.942160,-8.832800,-48.912415,,,,,,,
1504282495.131257,0.519998,0.364865,-2.899322,-0.264651,-0.524155,-0.355299,0.464170,-0.356823,-0.810693,-0.553601,-0.176593,-0.134894,5.641256,-8.608694,-49.139862,,,,,,,
1504282495.141266,0.516120,0.362022,-2.900415,-0.175901,-0.396121,-0.188856,0.461521,-0.354166,-0.813366,-0.582569,-0.145514,-0.082096,5.641256,-8.608694,-49.139862,,,,,,,
1504282495.151246,0.513072,0.360185,-2.900663,-0.144560,-0.285658,-0.091863,0.459359,-0.352447,-0.815335,-0.568200,-0.047028,-0.078403,5.115393,-8.310904,-49.218414,,,,,,,
1504282495.161255,0.510727,0.358588,-2.900610,-0.140891,-0.216442,-0.074900,0.457720,-0.350952,-0.816900,-0.496554,0.048142,-0.080806,5.115393,-8.310904,-49.218414,,,,,,,
1504282495.171265,0.509001,0.356849,-2.900784,-0.144584,-0.165228,-0.108086,0.456606,-0.349324,-0.818220,-0.403780,0.060536,-0.060534,4.664801,-8.162634,-49.370636,,,,,,,
1504282495.181275,0.507883,0.354725,-2.901150,-0.181330,-0.110546,-0.140268,0.456050,-0.347333,-0.819377,-0.339641,0.039746,-0.037740,4.664801,-8.162634,-49.370636,,,,,,,
1504282495.191285,0.507349,0.352223,-2.901413,-0.212824,-0.046351,-0.140436,0.456034,-0.344985,-0.820377,-0.329752,0.021652,-0.016278,4.739340,-7.937444,-49.297119,,,,,,,
1504282495.201294,0.507515,0.349703,-2.901381,-0.220801,0.042129,-0.110719,0.456591,-0.342619,-0.821058,-0.343600,0.014296,0.008696,4.739340,-7.937444,-49.297119,,,,,,,
1504282495.211304,0.508829,0.347492,-2.900857,-0.216730,0.190148,-0.047996,0.458037,-0.340541,-0.821117,-0.363784,0.020213,0.032452,4.739462,-7.937597,-49.222137,,,,,,,
1504282495.221314,0.511695,0.345576,-2.899596,-0.227349,0.377702,0.028508,0.460708,-0.338739,-0.820368,-0.380370,0.025796,0.048335,4.739462,-7.937597,-49.222137,,,,,,,
1504282495.231324,0.516127,0.343907,-2.897722,-0.232676,0.546054,0.082639,0.464617,-0.337168,-0.818809,-0.380755,0.022974,0.048942,5.114035,-7.860616,-49.371765,,,,,,,
1504282495.241334,0.522009,0.342299,-2.895503,-0.247546,0.701731,0.104754,0.469695,-0.335654,-0.816531,-0.368361,0.032950,0.038562,5.114035,-7.860616,-49.371765,,,,,,,
1504282495.251343,0.528852,0.340724,-2.892974,-0.263200,0.772145,0.147299,0.475538,-0.334170,-0.813754,-0.367353,0.054796,0.017779,5.788656,-7.707571,-49.371246,,,,,,,
1504282495.261353,0.534817,0.338992,-2.889355,-0.351653,0.696077,0.218796,0.480678,-0.332537,-0.811399,-0.371379,0.103609,-0.038867,5.788656,-7.707571,-49.371246,,,,,,,
1504282495.271363,0.539659,0.336099,-2.884794,-0.506032,0.606767,0.224023,0.485093,-0.329806,-0.809884,-0.365540,0.134860,-0.092124,6.313650,-7.480962,-48.996643,,,,,,,
1504282495.281373,0.542631,0.332056,-2.879412,-0.645273,0.408642,0.228401,0.488182,-0.325988,-0.809574,-0.352516,0.041869,-0.085552,6.313650,-7.480962,-48.996643,,,,,,,
1504282495.291382,0.543006,0.327244,-2.872774,-0.766845,0.204955,0.318211,0.489291,-0.321435,-0.810724,-0.285144,-0.076423,-0.126852,6.911810,-6.877813,-49.224670,,,,,,,
1504282495.301392,0.540746,0.321538,-2.864641,-0.926682,0.002676,0.381267,0.488394,-0.316026,-0.813387,-0.322500,-0.258574,-0.186994,6.911810,-6.877813,-49.224670,,,,,,,
1504282495.311402,0.537628,0.314175,-2.855149,-1.157258,0.009867,0.416080,0.487034,-0.309032,-0.816883,-0.377369,-0.305928,-0.183712,6.684591,-6.128393,-49.455811,,,,,,,
1504282495.321412,0.534593,0.305494,-2.844708,-1.269261,-0.003036,0.390291,0.485901,-0.300764,-0.820635,-0.375534,-0.071077,-0.214720,6.684591,-6.128393,-49.455811,,,,,,,
1504282495.331421,0.531129,0.296178,-2.834500,-1.313234,-0.049531,0.361476,0.484454,-0.291867,-0.824693,-0.321551,0.058820,-0.242537,6.832098,-5.003164,-49.238922,,,,,,,
1504282495.341431,0.528872,0.286252,-2.823496,-1.412160,0.166460,0.433508,0.484029,-0.282359,-0.828245,-0.425374,0.052790,-0.191637,6.832098,-5.003164,-49.238922,,,,,,,
1504282495.351441,0.527305,0.277317,-2.812143,-1.268703,0.133245,0.496791,0.483980,-0.273776,-0.831150,-0.436388,0.030200,-0.081189,7.128820,-3.876211,-49.546661,,,,,,,
1504282495.361451,0.525336,0.270489,-2.803260,-0.923365,0.002674,0.357790,0.483269,-0.267202,-0.833699,-0.376183,0.088186,-0.144512,7.128820,-3.876211,-49.546661,,,,,,,
1504282495.371430,0.523108,0.266083,-2.797346,-0.599153,-0.078744,0.254958,0.481994,-0.262954,-0.835785,-0.385025,0.185119,-0.207718,6.976889,-2.977331,-49.328735,,,,,,,
1504282495.381440,0.521391,0.263322,-2.792838,-0.407754,-0.039806,0.233873,0.480918,-0.260290,-0.837238,-0.415839,0.167776,-0.244916,6.976889,-2.977331,-49.328735,,,,,,,
1504282495.391449,0.520848,0.262116,-2.789784,-0.200883,0.048053,0.183908,0.480619,-0.259125,-0.837771,-0.414045,0.121216,-0.261229,6.975653,-2.527181,-49.407135,,,,,,,
1504282495.401459,0.521335,0.262450,-2.788064,-0.002750,0.119984,0.148901,0.480984,-0.259447,-0.837461,-0.402386,0.099398,-0.283938,6.975653,-2.527181,-49.407135,,,,,,,
1504282495.411469,0.522696,0.264405,-2.787764,0.206826,0.154526,0.112911,0.481869,-0.261335,-0.836365,-0.400769,0.098432,-0.298782,7.276175,-2.601278,-49.180817,,,,,,,
1504282495.421479,0.524589,0.268004,-2.788640,0.404408,0.174219,0.104680,0.482978,-0.264807,-0.834632,-0.389289,0.087805,-0.273568,7.276175,-2.601278,-49.180817,,,,,,,
1504282495.431489,0.526863,0.273249,-2.790487,0.577163,0.168525,0.113528,0.484169,-0.269861,-0.832319,-0.383324,0.070673,-0.252382,7.127691,-3.201955,-49.176697,,,,,,,
1504282495.441498,0.528711,0.278993,-2.792689,0.598122,0.115082,0.104052,0.484916,-0.275388,-0.830071,-0.365028,0.068051,-0.220604,7.127691,-3.201955,-49.176697,,,,,,,
1504282495.451508,0.529765,0.284015,-2.794466,0.482263,0.038244,0.107189,0.485086,-0.280212,-0.828355,-0.353098,0.060287,-0.170424,7.354269,-3.875799,-49.246063,,,,,,,
1504282495.461518,0.530028,0.287407,-2.795340,0.284569,-0.008067,0.095187,0.484821,-0.283466,-0.827403,-0.370441,0.034839,-0.115315,7.354269,-3.875799,-49.246063,,,,,,,
1504282495.471528,0.529677,0.288647,-2.795273,0.038007,-0.046485,0.053199,0.484352,-0.284655,-0.827269,-0.391456,0.023699,-0.073945,7.504156,-3.874975,-49.320679,,,,,,,
1504282495.481537,0.528947,0.287032,-2.794178,-0.263544,-0.037541,-0.011384,0.483979,-0.283107,-0.828018,-0.407990,0.079936,-0.059341,7.504156,-3.874975,-49.320679,,,,,,,
1504282495.491547,0.527877,0.282370,-2.792109,-0.599565,-0.070935,-0.078086,0.483753,-0.278632,-0.829667,-0.422092,0.127570,-0.046432,7.578817,-3.649938,-49.172211,,,,,,,
1504282495.501557,0.525413,0.274062,-2.788269,-0.996997,-0.147564,-0.094651,0.482851,-0.270644,-0.832830,-0.439028,0.120437,-0.040018,7.578817,-3.649938,-49.172211,,,,,,,
1504282495.511567,0.522265,0.263236,-2.781472,-1.340071,-0.119333,0.068017,0.481661,-0.260207,-0.836836,-0.432848,0.077376,-0.035936,7.501333,-2.749959,-49.329132,,,,,,,
1504282495.521576,0.519084,0.251611,-2.772910,-1.424526,-0.087823,0.152140,0.480465,-0.248964,-0.840934,-0.411113,0.022371,-0.060998,7.501333,-2.749959,-49.329132,,,,,,,
1504282495.531586,0.514810,0.239683,-2.763932,-1.484614,-0.250387,0.173671,0.478294,-0.237395,-0.845505,-0.325172,-0.028749,-0.114898,7.048162,-1.402288,-49.190369,,,,,,,
1504282495.541596,0.509547,0.227253,-2.754724,-1.532086,-0.318191,0.170506,0.475240,-0.225302,-0.850521,-0.300619,-0.008112,-0.218830,7.048162,-1.402288,-49.190369,,,,,,,
1504282495.551606,0.504969,0.214822,-2.745826,-1.482174,-0.228003,0.148018,0.472661,-0.213174,-0.855072,-0.353779,0.027551,-0.224868,6.970114,-0.277318,-49.348999,,,,,,,
1504282495.561615,0.502510,0.204463,-2.738477,-1.151976,-0.047411,0.120519,0.471594,-0.203041,-0.858122,-0.395087,0.048714,-0.170534,6.970114,-0.277318,-49.348999,,,,,,,
1504282495.571625,0.502081,0.198039,-2.733734,-0.664274,0.077547,0.084852,0.471845,-0.196747,-0.859450,-0.405438,0.082382,-0.148332,7.117483,0.997614,-48.983215,,,,,,,
1504282495.581635,0.502563,0.195240,-2.731651,-0.238126,0.089029,0.015122,0.472522,-0.194002,-0.859701,-0.400287,0.181124,-0.177194,7.117483,0.997614,-48.983215,,,,,,,
1504282495.591614,0.503321,0.194701,-2.732404,0.046047,0.050598,-0.119878,0.473224,-0.193473,-0.859434,-0.382205,0.331077,-0.226884,7.116613,1.297770,-49.060455,,,,,,,
1504282495.601624,0.504016,0.194613,-2.734694,0.106022,0.006535,-0.236043,0.473829,-0.193386,-0.859120,-0.379759,0.336789,-0.228404,7.116613,1.297770,-49.060455,,,,,,,
1504282495.611634,0.504590,0.194967,-2.737990,0.223409,0.000256,-0.250772,0.474289,-0.193734,-0.858788,-0.372864,0.274514,-0.196998,7.117285,1.072611,-48.983765,,,,,,,
1504282495.621644,0.505453,0.197146,-2.740871,0.355105,0.019260,-0.099006,0.474824,-0.195871,-0.858007,-0.375062,0.155649,-0.134180,7.117285,1.072611,-48.983765,,,,,,,
1504282495.631653,0.505523,0.200471,-2.742943,0.391429,-0.048272,-0.002758,0.474567,-0.199131,-0.857399,-0.372806,0.062534,-0.089256,7.042028,0.997874,-49.283417,,,,,,,
1504282495.641663,0.505327,0.203153,-2.744554,0.268847,-0.039793,-0.012592,0.474138,-0.201759,-0.857022,-0.311556,0.083366,-0.076160,7.042028,0.997874,-49.283417,,,,,,,
1504282495.651673,0.505583,0.203515,-2.745011,-0.028219,0.030862,-0.021771,0.474322,-0.202113,-0.856836,-0.329745,0.052974,-0.027502,6.893301,0.621760,-49.055969,,,,,,,
1504282495.661683,0.505479,0.200964,-2.743647,-0.371013,0.004893,-0.002038,0.474481,-0.199614,-0.857334,-0.385340,0.019423,-0.071163,6.893301,0.621760,-49.055969,,,,,,,
1504282495.671692,0.504755,0.196275,-2.741010,-0.571813,-0.022224,-0.002338,0.474308,-0.195017,-0.858487,-0.393726,0.048807,-0.174884,7.117331,1.147318,-48.834351,,,,,,,
1504282495.681702,0.504193,0.190867,-2.738065,-0.616332,0.009054,-0.011010,0.474328,-0.189710,-0.859665,-0.386056,0.098035,-0.181321,7.117331,1.147318,-48.834351,,,,,,,
1504282495.691712,0.503852,0.186227,-2.735517,-0.475551,0.008949,-0.000092,0.474455,-0.185152,-0.860588,-0.392240,0.138262,-0.168602,7.116644,1.372462,-48.911041,,,,,,,
1504282495.701722,0.503541,0.184471,-2.734361,-0.104504,-0.011175,0.017665,0.474343,-0.183426,-0.861019,-0.365167,0.158570,-0.157261,7.116644,1.372462,-48.911041,,,,,,,
1504282495.711731,0.503733,0.186653,-2.735558,0.363021,0.000981,-0.003962,0.474314,-0.185571,-0.860575,-0.349070,0.176492,-0.121725,6.815969,1.596278,-48.988434,,,,,,,
1504282495.721741,0.504479,0.192201,-2.738764,0.712037,0.015159,-0.006584,0.474451,-0.191020,-0.859307,-0.367578,0.198680,-0.086067,6.815969,1.596278,-48.988434,,,,,,,
1504282495.731751,0.505358,0.199428,-2.742824,0.843093,-0.002977,0.000080,0.474525,-0.198109,-0.857659,-0.386833,0.181110,-0.094673,7.267172,1.073435,-49.058411,,,,,,,
1504282495.741761,0.506027,0.206101,-2.746740,0.720457,-0.007274,-0.019339,0.474448,-0.204645,-0.856166,-0.397116,0.206644,-0.136174,7.267172,1.073435,-49.058411,,,,,,,
1504282495.751730,0.506586,0.209765,-2.748544,0.280821,0.027180,0.047085,0.474560,-0.208230,-0.855239,-0.412563,0.203545,-0.140733,7.118979,0.397608,-48.978699,,,,,,,
1504282495.761739,0.506236,0.209185,-2.746985,-0.262927,-0.015298,0.114532,0.474319,-0.207662,-0.855511,-0.413619,0.058676,-0.126911,7.118979,0.397608,-48.978699,,,,,,,
