timestamp(unix),attitude_roll(radians),attitude_pitch(radians),attitude_yaw(radians),rotation_rate_x(radians/s),rotation_rate_y(radians/s),rotation_rate_z(radians/s),gravity_x(G),gravity_y(G),gravity_z(G),user_acc_x(G),user_acc_y(G),user_acc_z(G),magnetic_field_x(microteslas),magnetic_field_y(microteslas),magnetic_field_z(microteslas),latitude(degree),longitude(degree),altitude(meter),speed(m/s),course(degree),timestamp(unix),User Mark
1504280158.341244,-0.015727,0.319216,3.035243,0.057626,-0.081065,-0.014203,-0.014932,-0.313822,-0.949364,0.015512,-0.048055,0.012932,-21.879141,-11.949594,-39.920227,,,,,,,
1504280158.351253,-0.017448,0.320337,3.034835,0.127157,-0.213736,-0.049072,-0.016560,-0.314887,-0.948985,0.024250,-0.047372,0.012645,-21.654303,-11.798883,-39.770813,,,,,,,
1504280158.361263,-0.019868,0.321891,3.034163,0.164118,-0.274757,-0.070249,-0.018846,-0.316361,-0.948452,0.025240,-0.046829,0.015377,-21.654303,-11.798883,-39.770813,,,,,,,
1504280158.371273,-0.022401,0.323613,3.033410,0.168433,-0.271592,-0.074517,-0.021236,-0.317994,-0.947855,0.017147,-0.049529,0.018640,-22.028387,-12.250269,-39.918335,,,,,,,
1504280158.381283,-0.024553,0.326681,3.032746,0.143220,-0.218110,-0.065045,-0.023252,-0.320901,-0.946827,0.005232,-0.053031,0.017720,-22.028387,-12.250269,-39.918335,,,,,,,
1504280158.391292,-0.025956,0.327826,3.032251,0.103254,-0.132555,-0.043917,-0.024571,-0.321986,-0.946426,-0.002147,-0.058492,0.016601,-22.103842,-12.025751,-39.845245,,,,,,,
1504280158.401302,-0.026445,0.328583,3.032009,0.065529,-0.031038,-0.018544,-0.025027,-0.322702,-0.946170,-0.006299,-0.061087,0.013888,-22.103842,-12.025751,-39.845245,,,,,,,
1504280158.411312,-0.026030,0.328920,3.031933,0.024568,0.058795,-0.004897,-0.024632,-0.323021,-0.946071,-0.009456,-0.058754,0.015209,-22.253119,-12.176874,-39.619476,,,,,,,
1504280158.421322,-0.025402,0.330404,3.032034,0.001449,0.104805,0.000324,-0.024026,-0.324426,-0.945606,-0.005485,-0.051246,0.012241,-22.253119,-12.176874,-39.619476,,,,,,,
1504280158.431301,-0.024326,0.330369,3.032099,-0.002825,0.108031,0.006715,-0.023008,-0.324392,-0.945643,0.002302,-0.043817,0.008097,-22.028616,-12.025721,-39.695038,,,,,,,
1504280158.441311,-0.023535,0.330412,3.032171,0.008618,0.070642,0.005733,-0.022260,-0.324433,-0.945647,0.010084,-0.039367,0.008742,-22.028616,-12.025721,-39.695038,,,,,,,
1504280158.451321,-0.023240,0.330633,3.032205,0.028475,0.016137,0.001594,-0.021980,-0.324642,-0.945581,0.017173,-0.036076,0.010904,-21.953466,-11.950830,-39.470428,,,,,,,
1504280158.461330,-0.022623,0.332059,3.031923,0.052634,-0.035207,-0.002550,-0.021385,-0.325991,-0.945131,0.023750,-0.033323,0.013933,-21.953466,-11.950830,-39.470428,,,,,,,
1504280158.471340,-0.023280,0.332781,3.031920,0.077918,-0.074843,-0.001369,-0.022001,-0.326673,-0.944881,0.027082,-0.031283,0.019314,-22.028799,-11.950708,-39.695587,,,,,,,
1504280158.481350,-0.024197,0.333646,3.031894,0.086313,-0.095155,-0.005588,-0.022860,-0.327490,-0.944578,0.026370,-0.032266,0.025724,-22.028799,-11.950708,-39.695587,,,,,,,
1504280158.491360,-0.024164,0.335566,3.031534,0.076859,-0.081218,-0.010972,-0.022814,-0.329304,-0.943949,0.025499,-0.033306,0.027933,-22.253729,-12.026575,-39.770599,,,,,,,
1504280158.501369,-0.023974,0.337324,3.031216,0.049490,-0.036236,-0.011103,-0.022621,-0.330963,-0.943373,0.019752,-0.036759,0.026579,-22.253729,-12.026575,-39.770599,,,,,,,
1504280158.511379,-0.023653,0.338788,3.031102,0.014657,0.017320,0.001550,-0.022307,-0.332344,-0.942894,0.011000,-0.038780,0.028634,-22.328009,-12.177362,-39.544647,,,,,,,
1504280158.521389,-0.023151,0.339990,3.031272,-0.013700,0.081477,0.016334,-0.021824,-0.333477,-0.942505,-0.000103,-0.042484,0.024613,-22.328009,-12.177362,-39.544647,,,,,,,
1504280158.531399,-0.022392,0.341049,3.031602,-0.022911,0.131636,0.020504,-0.021100,-0.334476,-0.942168,-0.008090,-0.043240,0.022033,-22.029181,-11.800714,-39.696716,,,,,,,
1504280158.541408,-0.021561,0.342091,3.031929,-0.018607,0.131610,0.015181,-0.020311,-0.335458,-0.941836,-0.010543,-0.040595,0.027102,-22.029181,-11.800714,-39.696716,,,,,,,
1504280158.551418,-0.020894,0.343130,3.032070,-0.010418,0.078281,0.001416,-0.019675,-0.336437,-0.941501,-0.004693,-0.037678,0.028399,-21.953924,-11.950235,-39.770416,,,,,,,
1504280158.561428,-0.020462,0.344315,3.031865,0.005229,0.016376,-0.024064,-0.019260,-0.337552,-0.941110,0.004001,-0.039447,0.028375,-21.953924,-11.950235,-39.770416,,,,,,,
1504280158.571438,-0.020196,0.345639,3.031368,0.017742,-0.030597,-0.038905,-0.019000,-0.338798,-0.940667,0.012652,-0.040108,0.029153,-22.253195,-12.102030,-39.545013,,,,,,,
1504280158.581448,-0.020243,0.347132,3.030856,0.033611,-0.048841,-0.038847,-0.019034,-0.340202,-0.940160,0.010870,-0.038887,0.033742,-22.253195,-12.102030,-39.545013,,,,,,,
1504280158.591457,-0.020337,0.348764,3.030482,0.049786,-0.023406,-0.030324,-0.019111,-0.341736,-0.939602,0.006035,-0.038818,0.031536,-21.953207,-12.100672,-39.544281,,,,,,,
1504280158.601467,-0.020323,0.350397,3.030324,0.045798,0.018175,-0.017593,-0.019087,-0.343271,-0.939043,-0.001238,-0.036459,0.035295,-21.953207,-12.100672,-39.544281,,,,,,,
1504280158.611477,-0.020123,0.351799,3.030247,0.021472,0.045016,-0.015544,-0.018889,-0.344587,-0.938564,-0.004792,-0.035632,0.035442,-22.178473,-12.176096,-39.844299,,,,,,,
1504280158.621487,-0.019680,0.352823,3.030084,-0.012553,0.053832,-0.023088,-0.018466,-0.345548,-0.938219,-0.002850,-0.037020,0.029818,-22.178473,-12.176096,-39.844299,,,,,,,
1504280158.631496,-0.019035,0.353534,3.029763,-0.041292,0.055146,-0.032745,-0.017856,-0.346215,-0.937985,0.001240,-0.038504,0.027066,-22.102118,-12.401804,-39.317383,,,,,,,
1504280158.641506,-0.018372,0.353938,3.029317,-0.063836,0.034026,-0.037017,-0.017232,-0.346595,-0.937857,0.005971,-0.035745,0.028540,-22.102118,-12.401804,-39.317383,,,,,,,
1504280158.651516,-0.017752,0.354089,3.028801,-0.073552,0.018124,-0.038074,-0.016650,-0.346736,-0.937815,0.009982,-0.032063,0.025095,-21.878775,-11.875345,-39.545776,,,,,,,
1504280158.661526,-0.017174,0.354177,3.028314,-0.065062,0.014852,-0.032719,-0.016107,-0.346818,-0.937794,0.011178,-0.029112,0.022282,-21.878775,-11.875345,-39.545776,,,,,,,
1504280158.671535,-0.016602,0.354358,3.027912,-0.034140,0.017785,-0.023066,-0.015570,-0.346988,-0.937740,0.011511,-0.022580,0.019451,-22.178808,-11.951395,-39.695953,,,,,,,
1504280158.681545,-0.016107,0.354728,3.027680,-0.008572,0.019694,-0.011285,-0.015103,-0.347336,-0.937619,0.009305,-0.018097,0.019162,-22.178808,-11.951395,-39.695953,,,,,,,
1504280158.691524,-0.015783,0.355224,3.027535,0.007329,0.008903,-0.006970,-0.014797,-0.347800,-0.937452,0.006847,-0.014642,0.019498,-21.728048,-12.249369,-39.692596,,,,,,,
1504280158.701534,-0.015541,0.355703,3.027377,0.009400,-0.000702,-0.009086,-0.014567,-0.348250,-0.937289,0.007655,-0.014482,0.012408,-21.728048,-12.249369,-39.692596,,,,,,,
1504280158.711544,-0.015340,0.356178,3.027149,0.004084,-0.004910,-0.018695,-0.014376,-0.348695,-0.937126,0.007281,-0.017333,0.008171,-22.028845,-12.025415,-39.845062,,,,,,,
1504280158.721554,-0.015192,0.356512,3.026826,-0.010809,-0.005843,-0.028327,-0.014237,-0.349008,-0.937012,0.004593,-0.017066,0.008041,-22.028845,-12.025415,-39.845062,,,,,,,
1504280158.731563,-0.014991,0.356671,3.026463,-0.026747,0.000685,-0.030501,-0.014047,-0.349157,-0.936959,0.004129,-0.018626,0.003503,-22.028128,-12.175867,-39.618927,,,,,,,
1504280158.741573,-0.014782,0.356721,3.026184,-0.044766,0.018943,-0.024159,-0.013851,-0.349204,-0.936944,-0.000156,-0.022149,0.004388,-22.028128,-12.175867,-39.618927,,,,,,,
1504280158.751583,-0.014332,0.356736,3.026031,-0.052052,0.049892,-0.010350,-0.013429,-0.349217,-0.936945,-0.000655,-0.025111,0.004038,-22.027334,-12.401163,-39.467224,,,,,,,
1504280158.761593,-0.013638,0.356252,3.026084,-0.045530,0.077523,0.009894,-0.012781,-0.348764,-0.937123,-0.004751,-0.024130,0.004231,-22.027334,-12.401163,-39.467224,,,,,,,
1504280158.771603,-0.013119,0.356409,3.026387,-0.033862,0.078477,0.025925,-0.012294,-0.348911,-0.937075,-0.006596,-0.023586,0.007784,-21.803015,-12.174997,-39.543335,,,,,,,
1504280158.781612,-0.012622,0.356650,3.026682,-0.023362,0.056015,0.024917,-0.011828,-0.349137,-0.936997,-0.001295,-0.022491,0.009263,-21.803015,-12.174997,-39.543335,,,,,,,
1504280158.791622,-0.012251,0.356995,3.026796,-0.004322,0.024974,0.008993,-0.011479,-0.349461,-0.936881,0.003864,-0.020290,0.005545,-21.652716,-12.473734,-39.840759,,,,,,,
1504280158.801632,-0.011965,0.357534,3.026675,0.013691,-0.001797,-0.008009,-0.011208,-0.349965,-0.936696,0.008889,-0.020350,0.006383,-21.652716,-12.473734,-39.840759,,,,,,,
1504280158.811642,-0.011813,0.358119,3.026389,0.017879,-0.020997,-0.021845,-0.011064,-0.350513,-0.936493,0.009767,-0.017514,0.009246,-21.653357,-12.173883,-39.767975,,,,,,,
1504280158.821651,-0.011740,0.358684,3.026040,0.021064,-0.025282,-0.025036,-0.010992,-0.351042,-0.936295,0.010611,-0.017244,0.002076,-21.653357,-12.173883,-39.767975,,,,,,,
1504280158.831661,-0.011469,0.359222,3.025757,0.026561,0.001302,-0.014401,-0.010736,-0.351546,-0.936109,0.011270,-0.016542,-0.003100,-21.878469,-12.174738,-39.843567,,,,,,,
1504280158.841671,-0.010923,0.359727,3.025642,0.018284,0.041848,-0.000613,-0.010224,-0.352019,-0.935937,0.008789,-0.015611,-0.000785,-21.878469,-12.174738,-39.843567,,,,,,,
1504280158.851681,-0.010016,0.359976,3.025713,-0.007029,0.088926,0.016338,-0.009374,-0.352252,-0.935858,0.006933,-0.014707,-0.002222,-21.803473,-12.174402,-39.843353,,,,,,,
1504280158.861690,-0.008871,0.360072,3.025872,-0.014489,0.094308,0.023786,-0.008302,-0.352342,-0.935835,0.008134,-0.017135,-0.009066,-21.803473,-12.174402,-39.843353,,,,,,,
1504280158.871700,-0.008877,0.360916,3.025859,0.045218,-0.065988,-0.009986,-0.008305,-0.353131,-0.935537,0.008794,-0.018466,-0.001337,-21.803961,-12.024256,-39.919464,,,,,,,
1504280158.881710,-0.010219,0.362631,3.025203,0.034323,-0.254466,-0.050238,-0.009554,-0.354735,-0.934918,0.028276,-0.032335,0.094403,-21.803961,-12.024256,-39.919464,,,,,,,
1504280158.891720,-0.013054,0.363128,3.024467,0.052060,-0.318524,-0.072510,-0.012203,-0.355200,-0.934711,0.034999,-0.015802,0.051684,-21.653738,-12.023874,-39.769104,,,,,,,
1504280158.901729,-0.015764,0.363442,3.023712,0.016053,-0.280938,-0.066234,-0.014734,-0.355494,-0.934563,0.022409,-0.026220,0.079353,-21.653738,-12.023874,-39.769104,,,,,,,
1504280158.911739,-0.017457,0.363050,3.023278,-0.060924,-0.143946,-0.029250,-0.016319,-0.355127,-0.934676,0.009971,-0.007864,0.061140,-22.177374,-12.476542,-39.617035,,,,,,,
1504280158.921749,-0.017418,0.361999,3.023219,-0.169270,0.065777,-0.003121,-0.016289,-0.354144,-0.935049,-0.004097,-0.010541,0.025625,-22.177374,-12.476542,-39.617035,,,,,,,
1504280158.931759,-0.015474,0.359572,3.023247,-0.264048,0.229582,0.009235,-0.014484,-0.351873,-0.935936,-0.037747,-0.024851,-0.010887,-22.178915,-11.951242,-39.770966,,,,,,,
1504280158.941769,-0.012640,0.356500,3.023264,-0.314714,0.293942,0.002629,-0.011845,-0.348997,-0.937049,-0.045742,-0.019854,-0.024011,-22.178915,-11.951242,-39.770966,,,,,,,
1504280158.951748,-0.009639,0.353460,3.023108,-0.293303,0.291653,-0.015476,-0.009043,-0.346146,-0.938137,-0.039113,-0.019638,-0.035694,-21.879141,-11.949594,-39.920227,,,,,,,
1504280158.961758,-0.007456,0.350963,3.022951,-0.198502,0.257863,-0.038730,-0.007002,-0.343803,-0.939016,-0.033342,-0.003823,-0.046473,-21.879141,-11.949594,-39.920227,,,,,,,
1504280158.971767,-0.005154,0.349954,3.022387,-0.067709,0.192866,-0.054400,-0.004841,-0.342854,-0.939376,-0.034328,0.013936,-0.037980,-21.729895,-11.648920,-39.922119,,,,,,,
1504280158.981777,-0.003687,0.350192,3.021788,0.048932,0.101331,-0.056171,-0.003463,-0.343078,-0.939301,-0.031434,0.021713,-0.024139,-21.729895,-11.648920,-39.922119,,,,,,,
1504280158.991787,-0.003122,0.351276,3.021236,0.126116,0.017572,-0.049485,-0.002932,-0.344096,-0.938930,-0.031690,0.019496,-0.017323,-21.729940,-11.723612,-40.071533,,,,,,,
1504280159.001797,-0.003936,0.352559,3.021053,0.168325,-0.033936,-0.038642,-0.003694,-0.345301,-0.938485,-0.027983,0.014002,-0.011161,-21.729940,-11.723612,-40.071533,,,,,,,
1504280159.011806,-0.004237,0.354335,3.020723,0.176766,-0.040408,-0.030077,-0.003974,-0.346967,-0.937869,-0.027169,0.002713,-0.002088,-21.355047,-11.721781,-40.145630,,,,,,,
1504280159.021816,-0.004384,0.355973,3.020386,0.157737,-0.021066,-0.034413,-0.004110,-0.348503,-0.937299,-0.030101,-0.004021,0.009046,-21.355047,-11.721781,-40.145630,,,,,,,
1504280159.031826,-0.004265,0.357209,3.019921,0.111052,0.002776,-0.048412,-0.003995,-0.349660,-0.936868,-0.031848,-0.012965,0.017450,-21.579336,-11.873240,-39.920044,,,,,,,
1504280159.041836,-0.004623,0.358521,3.019551,0.058017,0.029873,-0.066692,-0.004329,-0.350890,-0.936407,-0.029805,-0.018846,0.018713,-21.579336,-11.873240,-39.920044,,,,,,,
1504280159.051845,-0.003854,0.358712,3.018724,0.004927,0.052703,-0.081767,-0.003609,-0.351068,-0.936343,-0.027717,-0.028906,0.020129,-21.353430,-12.097681,-39.692810,,,,,,,
1504280159.061855,-0.002877,0.358354,3.017740,-0.048255,0.065941,-0.093624,-0.002694,-0.350734,-0.936471,-0.023643,-0.036840,0.026468,-21.353430,-12.097681,-39.692810,,,,,,,
1504280159.071865,-0.001812,0.357597,3.016714,-0.081291,0.069412,-0.095823,-0.001698,-0.350024,-0.936739,-0.017620,-0.040632,0.022341,-21.202795,-12.396860,-39.765198,,,,,,,
1504280159.081875,-0.001260,0.357844,3.015816,-0.070657,0.061869,-0.098989,-0.001180,-0.350256,-0.936653,-0.016658,-0.039255,0.017662,-21.202795,-12.396860,-39.765198,,,,,,,
1504280159.091885,-0.000346,0.357522,3.014798,-0.016356,0.051825,-0.092473,-0.000324,-0.349954,-0.936767,-0.011364,-0.032081,0.020645,-21.653814,-12.173288,-40.067963,,,,,,,
1504280159.101894,0.000255,0.357825,3.013926,0.046264,0.019327,-0.078431,0.000239,-0.350238,-0.936661,-0.006114,-0.023266,0.022110,-21.653814,-12.173288,-40.067963,,,,,,,
1504280159.111904,0.000320,0.358637,3.013220,0.090592,-0.031138,-0.062254,0.000300,-0.350998,-0.936376,-0.002756,-0.014969,0.027242,-21.128592,-12.395472,-40.290009,,,,,,,
1504280159.121914,-0.000053,0.360248,3.012538,0.112586,-0.082469,-0.061058,-0.000049,-0.352507,-0.935809,0.004139,-0.013491,0.021808,-21.128592,-12.395472,-40.290009,,,,,,,
1504280159.131924,-0.000940,0.361384,3.011824,0.112311,-0.122949,-0.070594,-0.000880,-0.353569,-0.935408,0.009791,-0.014717,0.019926,-21.577978,-12.547800,-40.139984,,,,,,,
1504280159.141933,-0.002063,0.362343,3.010950,0.089785,-0.147257,-0.085534,-0.001929,-0.354466,-0.935067,0.014044,-0.015362,0.019402,-21.577978,-12.547800,-40.139984,,,,,,,
1504280159.151943,-0.003284,0.362971,3.010019,0.053454,-0.155480,-0.087717,-0.003070,-0.355053,-0.934841,0.015445,-0.016178,0.020107,-21.427649,-12.547571,-39.914612,,,,,,,
1504280159.161953,-0.003973,0.363781,3.008987,0.016110,-0.134941,-0.080267,-0.003713,-0.355810,-0.934551,0.015966,-0.017801,0.016201,-21.427649,-12.547571,-39.914612,,,,,,,
1504280159.171963,-0.004737,0.363665,3.008183,-0.019868,-0.093094,-0.072931,-0.004427,-0.355702,-0.934589,0.011996,-0.015636,0.017551,-21.578588,-12.173243,-39.917786,,,,,,,
1504280159.181972,-0.005040,0.363285,3.007468,-0.040865,-0.044977,-0.064513,-0.004711,-0.355347,-0.934723,0.011989,-0.016190,0.018173,-21.578588,-12.173243,-39.917786,,,,,,,
1504280159.191982,-0.005002,0.362913,3.006860,-0.035311,-0.010935,-0.053889,-0.004677,-0.354999,-0.934855,0.010795,-0.015973,0.019343,-21.802984,-12.324564,-39.767242,,,,,,,
1504280159.201992,-0.004559,0.363187,3.006311,-0.002181,0.004761,-0.038917,-0.004262,-0.355255,-0.934760,0.008855,-0.010010,0.016822,-21.802984,-12.324564,-39.767242,,,,,,,
1504280159.211971,-0.004196,0.363717,3.005915,0.036206,0.007633,-0.029250,-0.003922,-0.355750,-0.934573,0.005921,-0.004098,0.019152,-21.353125,-12.397089,-39.990570,,,,,,,
1504280159.221981,-0.003736,0.364376,3.005524,0.047955,0.009667,-0.028167,-0.003491,-0.356367,-0.934340,0.008832,-0.000826,0.020659,-21.353125,-12.397089,-39.990570,,,,,,,
1504280159.231991,-0.003056,0.365142,3.005041,0.060955,0.028750,-0.036720,-0.002854,-0.357082,-0.934069,0.011674,0.000484,0.017794,-21.577108,-12.623697,-39.689423,,,,,,,
1504280159.242000,-0.002061,0.365898,3.004421,0.059122,0.057552,-0.050652,-0.001925,-0.357788,-0.933801,0.010790,-0.000213,0.015328,-21.577108,-12.623697,-39.689423,,,,,,,
1504280159.252010,-0.000802,0.366655,3.003730,0.049678,0.075748,-0.052837,-0.000749,-0.358495,-0.933531,0.011354,-0.003337,0.018675,-21.576742,-12.773691,-39.688293,,,,,,,
1504280159.262020,0.000489,0.367395,3.003094,0.041123,0.076878,-0.046451,0.000457,-0.359186,-0.933266,0.010942,-0.005698,0.021019,-21.576742,-12.773691,-39.688293,,,,,,,
1504280159.272030,0.001574,0.368112,3.002523,0.026030,0.058885,-0.043245,0.001469,-0.359854,-0.933007,0.009319,-0.009805,0.023568,-21.501440,-12.848505,-39.612549,,,,,,,
1504280159.282040,0.002331,0.368755,3.002012,0.023652,0.031194,-0.037864,0.002175,-0.360455,-0.932774,0.008171,-0.010074,0.024602,-21.501440,-12.848505,-39.612549,,,,,,,
1504280159.292049,0.002995,0.369479,3.001496,0.049148,0.017133,-0.037797,0.002792,-0.361130,-0.932511,0.012497,-0.008392,0.013002,-21.351934,-12.697687,-39.688293,,,,,,,
1504280159.302065,0.003451,0.370514,3.000977,0.081081,0.004089,-0.043057,0.003217,-0.362095,-0.932136,0.008029,-0.005352,0.020728,-21.351934,-12.697687,-39.688293,,,,,,,
1504280159.312075,0.003965,0.371800,3.000331,0.099238,0.000752,-0.051560,0.003694,-0.363293,-0.931668,0.011702,-0.004246,0.026547,-21.352835,-12.472239,-39.914978,,,,,,,
1504280159.322085,0.004495,0.373175,2.999602,0.093821,-0.011986,-0.054751,0.004186,-0.364574,-0.931165,0.015925,-0.010014,0.021665,-21.352835,-12.472239,-39.914978,,,,,,,
1504280159.332094,0.004960,0.374395,2.998821,0.066020,-0.023471,-0.060118,0.004616,-0.365709,-0.930718,0.016929,-0.015715,0.019615,-21.576773,-12.848398,-39.837738,,,,,,,
1504280159.342104,0.005309,0.375415,2.998001,0.048814,-0.040378,-0.059053,0.004940,-0.366659,-0.930342,0.019780,-0.020701,0.010741,-21.576773,-12.848398,-39.837738,,,,,,,
1504280159.352114,0.005545,0.376474,2.997225,0.064797,-0.041577,-0.055824,0.005156,-0.367644,-0.929952,0.018358,-0.022401,0.002020,-21.276892,-12.846903,-39.911987,,,,,,,
1504280159.362124,0.005774,0.377739,2.996590,0.106519,-0.020620,-0.044049,0.005367,-0.368820,-0.929485,0.013142,-0.013901,0.003613,-21.276892,-12.846903,-39.911987,,,,,,,
1504280159.372133,0.006100,0.379324,2.996195,0.139732,0.008923,-0.023763,0.005666,-0.370293,-0.928898,0.007579,-0.008262,0.010181,-21.576361,-12.923700,-39.687164,,,,,,,
1504280159.382143,0.006614,0.381100,2.996091,0.153746,0.043944,0.003951,0.006140,-0.371942,-0.928236,0.005381,-0.008078,0.008939,-21.576361,-12.923700,-39.687164,,,,,,,
1504280159.392153,0.007378,0.382888,2.996263,0.132529,0.073931,0.028411,0.006844,-0.373601,-0.927564,0.007133,-0.013499,0.010129,-21.725637,-13.299067,-39.834747,,,,,,,
1504280159.402163,0.008293,0.384345,2.996587,0.069557,0.079764,0.043234,0.007688,-0.374952,-0.927012,0.011843,-0.025713,0.010020,-21.725637,-13.299067,-39.834747,,,,,,,
1504280159.412173,0.009330,0.384981,2.996907,-0.012634,0.075114,0.044165,0.008647,-0.375542,-0.926765,0.019353,-0.030861,-0.001976,-21.576056,-13.223093,-39.984924,,,,,,,
1504280159.422182,0.010406,0.384925,2.997052,-0.079897,0.058637,0.028064,0.009645,-0.375490,-0.926776,0.025634,-0.038145,-0.012143,-21.576056,-13.223093,-39.984924,,,,,,,
1504280159.432192,0.011476,0.384441,2.996955,-0.102328,0.042861,0.008836,0.010638,-0.375041,-0.926947,0.029996,-0.037069,-0.018075,-21.275946,-13.221903,-39.909180,,,,,,,
1504280159.442202,0.012413,0.383900,2.996816,-0.081033,0.036295,0.007814,0.011509,-0.374540,-0.927139,0.026913,-0.029284,-0.022232,-21.275946,-13.221903,-39.909180,,,,,,,
1504280159.452212,0.012952,0.383613,2.996932,-0.040744,0.018890,0.031395,0.012010,-0.374273,-0.927241,0.018721,-0.018290,-0.014745,-21.276205,-13.072046,-39.835327,,,,,,,
1504280159.462221,0.012957,0.383813,2.997532,0.031485,0.004400,0.073173,0.012014,-0.374458,-0.927166,0.008311,-0.009163,-0.014057,-21.276205,-13.072046,-39.835327,,,,,,,
1504280159.472231,0.012455,0.384576,2.998630,0.089901,-0.006774,0.108519,0.011545,-0.375166,-0.926886,-0.001535,-0.003817,-0.013910,-21.126364,-13.145929,-40.059357,,,,,,,
1504280159.482210,0.011566,0.385818,3.000023,0.130176,-0.028438,0.127841,0.010716,-0.376317,-0.926429,-0.006810,-0.001186,-0.006173,-21.126364,-13.145929,-40.059357,,,,,,,
1504280159.492220,0.010445,0.387290,3.001447,0.142779,-0.054116,0.126842,0.009671,-0.377681,-0.925885,-0.004651,-0.001897,-0.001986,-21.351431,-13.072092,-39.985504,,,,,,,
1504280159.502230,0.009273,0.388822,3.002656,0.136301,-0.076419,0.106589,0.008581,-0.379098,-0.925317,0.001719,-0.007758,-0.005103,-21.351431,-13.072092,-39.985504,,,,,,,
1504280159.512240,0.008068,0.390295,3.003523,0.109529,-0.107070,0.077777,0.007461,-0.380461,-0.924767,0.007432,-0.015626,-0.002296,-21.275717,-13.222193,-39.759186,,,,,,,
1504280159.522249,0.006783,0.391456,3.004032,0.067794,-0.139730,0.051076,0.006270,-0.381534,-0.924333,0.014620,-0.019787,-0.000487,-21.275717,-13.222193,-39.759186,,,,,,,
1504280159.532259,0.005462,0.392230,3.004229,0.027248,-0.156418,0.025415,0.005047,-0.382250,-0.924045,0.018284,-0.025602,-0.007351,-21.275793,-13.147348,-39.684723,,,,,,,
1504280159.542269,0.004166,0.392588,3.004205,-0.004626,-0.153999,0.002939,0.003849,-0.382581,-0.923914,0.015148,-0.024340,-0.013189,-21.275793,-13.147348,-39.684723,,,,,,,
1504280159.552279,0.002922,0.392584,3.004063,-0.023586,-0.133579,-0.013141,0.002700,-0.382577,-0.923920,0.007233,-0.017096,-0.014862,-21.500647,-13.073816,-39.460876,,,,,,,
1504280159.562288,0.001986,0.392360,3.003846,-0.026375,-0.088790,-0.023899,0.001835,-0.382370,-0.924008,0.000194,-0.010865,-0.019825,-21.500647,-13.073816,-39.460876,,,,,,,
1504280159.572298,0.001407,0.391993,3.003591,-0.032373,-0.042912,-0.031461,0.001301,-0.382031,-0.924149,-0.008075,-0.006077,-0.021545,-21.575567,-13.148996,-39.535461,,,,,,,
1504280159.582308,0.001065,0.391519,3.003310,-0.034243,-0.013056,-0.036852,0.000985,-0.381593,-0.924330,-0.014016,-0.001647,-0.021196,-21.575567,-13.148996,-39.535461,,,,,,,
1504280159.592318,0.000939,0.391120,3.003005,-0.012726,0.008080,-0.038985,0.000868,-0.381224,-0.924482,-0.015974,0.000090,-0.029268,-21.575979,-13.073694,-39.686035,,,,,,,
1504280159.602328,0.000902,0.390967,3.002626,0.027895,0.010953,-0.050660,0.000834,-0.381083,-0.924541,-0.017741,0.006357,-0.031270,-21.575979,-13.073694,-39.686035,,,,,,,
1504280159.612337,0.000936,0.391151,3.002004,0.053521,-0.000957,-0.074076,0.000866,-0.381253,-0.924470,-0.013881,0.009121,-0.021864,-21.726400,-12.999079,-39.836975,,,,,,,
1504280159.622347,0.000919,0.391558,3.001035,0.060906,-0.029759,-0.103899,0.000850,-0.381629,-0.924315,-0.009227,0.005912,-0.016160,-21.726400,-12.999079,-39.836975,,,,,,,
1504280159.632357,0.000860,0.392000,2.999664,0.043726,-0.062619,-0.134825,0.000795,-0.382038,-0.924146,-0.001741,-0.003796,-0.017351,-21.350943,-13.222239,-39.909363,,,,,,,
1504280159.642367,0.000703,0.392321,2.998070,0.019065,-0.085845,-0.147636,0.000650,-0.382334,-0.924024,0.002555,-0.010809,-0.017230,-21.350943,-13.222239,-39.909363,,,,,,,
1504280159.652376,0.000465,0.392529,2.996399,0.010453,-0.097492,-0.150833,0.000430,-0.382526,-0.923945,0.005231,-0.015347,-0.022055,-21.725302,-13.299524,-39.609741,,,,,,,
1504280159.662386,0.000188,0.392927,2.994841,0.043601,-0.081792,-0.140129,0.000173,-0.382894,-0.923792,0.000147,-0.014415,-0.024816,-21.725302,-13.299524,-39.609741,,,,,,,
1504280159.672396,0.000167,0.393762,2.993475,0.106633,-0.056761,-0.116582,0.000155,-0.383665,-0.923472,0.005201,-0.004748,-0.023335,-21.724966,-13.299967,-39.384735,,,,,,,
1504280159.682406,0.000113,0.395079,2.992381,0.164232,-0.044472,-0.094088,0.000104,-0.384881,-0.922966,-0.000272,0.009973,-0.007286,-21.724966,-13.299967,-39.384735,,,,,,,
1504280159.692415,0.000060,0.396876,2.991592,0.210019,-0.036356,-0.063069,0.000055,-0.386539,-0.922273,0.001517,0.013584,0.001024,-21.724890,-13.374826,-39.459167,,,,,,,
1504280159.702425,-0.000040,0.398997,2.991125,0.213141,-0.028951,-0.035324,-0.000037,-0.388494,-0.921451,0.001868,0.007208,0.006931,-21.724890,-13.374826,-39.459167,,,,,,,
1504280159.712435,-0.000132,0.401093,2.990856,0.187593,-0.013836,-0.022586,-0.000122,-0.390424,-0.920635,-0.000443,0.000944,0.015728,-21.874701,-13.450495,-39.458984,,,,,,,
1504280159.722445,0.000080,0.402917,2.990537,0.138663,0.002556,-0.025903,0.000074,-0.392103,-0.919921,0.006182,-0.006899,0.020538,-21.874701,-13.450495,-39.458984,,,,,,,
1504280159.732454,0.000627,0.404236,2.990073,0.071614,0.016972,-0.035652,0.000576,-0.393317,-0.919403,0.013004,-0.010614,0.031723,-21.574591,-13.449289,-39.383240,,,,,,,
1504280159.742434,0.001065,0.404463,2.989631,0.006669,0.030301,-0.042192,0.000979,-0.393525,-0.919313,0.020429,-0.016631,0.036699,-21.574591,-13.449289,-39.383240,,,,,,,
1504280159.752443,0.001670,0.404167,2.989183,-0.039075,0.047727,-0.041235,0.001536,-0.393253,-0.919429,0.024648,-0.021054,0.038585,-21.799170,-13.525614,-39.233185,,,,,,,
1504280159.762453,0.002539,0.403552,2.988775,-0.065520,0.078843,-0.037066,0.002335,-0.392688,-0.919669,0.026092,-0.020978,0.040961,-21.799170,-13.525614,-39.233185,,,,,,,
1504280159.772463,0.004077,0.403463,2.988260,-0.071822,0.095938,-0.028570,0.003750,-0.392605,-0.919699,0.021504,-0.018482,0.038474,-21.724249,-13.674677,-39.531891,,,,,,,
1504280159.782473,0.005095,0.402715,2.988005,-0.072980,0.088482,-0.022154,0.004687,-0.391918,-0.919988,0.015760,-0.011448,0.035039,-21.724249,-13.674677,-39.531891,,,,,,,
1504280159.792483,0.006021,0.402170,2.987815,-0.045294,0.085052,-0.016763,0.005541,-0.391417,-0.920197,0.012297,-0.004641,0.021698,-21.349707,-13.448130,-39.457703,,,,,,,
1504280159.802492,0.006966,0.402053,2.987651,-0.000466,0.087878,-0.015623,0.006410,-0.391308,-0.920237,0.009230,0.001294,0.014689,-21.349707,-13.448130,-39.457703,,,,,,,
1504280159.812502,0.007957,0.402416,2.987409,0.053875,0.076778,-0.018712,0.007322,-0.391643,-0.920088,0.004412,0.009379,0.015944,-21.799246,-13.675013,-39.532104,,,,,,,
1504280159.822512,0.008648,0.403326,2.987245,0.102765,0.057188,-0.012188,0.007954,-0.392480,-0.919726,0.002284,0.016931,0.011752,-21.799246,-13.675013,-39.532104,,,,,,,
1504280159.832522,0.008996,0.404663,2.987321,0.141890,0.031261,0.016745,0.008269,-0.393709,-0.919198,0.004838,0.018495,0.005548,-21.124258,-13.671976,-39.530426,,,,,,,
1504280159.842531,0.008946,0.406212,2.987779,0.157513,0.005522,0.052042,0.008217,-0.395132,-0.918587,0.001396,0.018759,0.003930,-21.124258,-13.671976,-39.530426,,,,,,,
1504280159.852541,0.008571,0.407511,2.988542,0.144506,-0.005052,0.075521,0.007869,-0.396325,-0.918076,-0.001171,0.013635,0.003205,-21.349142,-13.673136,-39.455994,,,,,,,
1504280159.862551,0.008227,0.408750,2.989354,0.115751,-0.000549,0.072261,0.007549,-0.397463,-0.917587,-0.004329,0.009020,0.000549,-21.349142,-13.673136,-39.455994,,,,,,,
1504280159.872561,0.007852,0.409684,2.990031,0.087081,0.003970,0.051923,0.007202,-0.398320,-0.917218,-0.007080,0.003193,0.003507,-21.274069,-13.747644,-39.530243,,,,,,,
1504280159.882570,0.007546,0.410458,2.990553,0.063678,0.005240,0.040140,0.006919,-0.399029,-0.916912,-0.007148,0.000073,0.007916,-21.274069,-13.747644,-39.530243,,,,,,,
1504280159.892580,0.007202,0.411253,2.991054,0.062587,0.002051,0.040145,0.006602,-0.399758,-0.916597,-0.008738,-0.002250,0.013856,-21.124563,-13.596827,-39.605988,,,,,,,
1504280159.902590,0.006718,0.412247,2.991674,0.083928,0.006130,0.046581,0.006155,-0.400669,-0.916202,-0.014700,-0.003246,0.017078,-21.124563,-13.596827,-39.605988,,,,,,,
1504280159.912600,0.006284,0.413476,2.992432,0.103223,0.025136,0.059391,0.005754,-0.401795,-0.915712,-0.017290,-0.002624,0.021058,-21.423193,-13.824228,-39.080017,,,,,,,
1504280159.922610,0.005945,0.414706,2.993392,0.101185,0.047511,0.076429,0.005441,-0.402921,-0.915219,-0.019677,0.000791,0.024182,-21.423193,-13.824228,-39.080017,,,,,,,
1504280159.932619,0.005702,0.415749,2.994547,0.077817,0.068999,0.090230,0.005216,-0.403875,-0.914799,-0.021955,0.002950,0.023411,-21.648428,-13.824930,-39.230591,,,,,,,
1504280159.942629,0.005577,0.416242,2.995762,0.029881,0.081109,0.094397,0.005101,-0.404326,-0.914601,-0.022847,0.003905,0.017002,-21.648428,-13.824930,-39.230591,,,,,,,
1504280159.952639,0.005523,0.416278,2.996981,-0.009683,0.072904,0.098615,0.005052,-0.404359,-0.914586,-0.018052,0.003190,0.010823,-21.572821,-13.974894,-39.079285,,,,,,,
1504280159.962649,0.005280,0.416090,2.998249,-0.028072,0.045341,0.105037,0.004829,-0.404187,-0.914663,-0.014549,0.001920,0.013617,-21.572821,-13.974894,-39.079285,,,,,,,
1504280159.972658,0.004662,0.415905,2.999503,-0.025179,0.004826,0.101913,0.004264,-0.404018,-0.914741,-0.014000,0.002544,0.017189,-21.574179,-13.524591,-39.232635,,,,,,,
1504280159.982668,0.003686,0.415877,3.000627,-0.011597,-0.040028,0.088141,0.003372,-0.403993,-0.914756,-0.012146,0.003816,0.024009,-21.574179,-13.524591,-39.232635,,,,,,,
1504280159.992678,0.002479,0.416018,3.001497,0.013864,-0.072183,0.065827,0.002268,-0.404121,-0.914703,-0.010233,0.007530,0.026046,-21.574514,-13.524149,-39.457672,,,,,,,
1504280160.002688,0.001100,0.416351,3.002224,0.044694,-0.092674,0.055244,0.001006,-0.404426,-0.914570,-0.009749,0.011527,0.019291,-21.574514,-13.524149,-39.457672,,,,,,,
1504280160.012667,-0.000474,0.416847,3.002955,0.059539,-0.103455,0.056358,-0.000434,-0.404880,-0.914370,-0.012567,0.014072,0.020464,-21.649282,-13.524790,-39.307831,,,,,,,
1504280160.022677,-0.002157,0.417258,3.003769,0.048851,-0.102309,0.061676,-0.001972,-0.405255,-0.914202,-0.015942,0.013959,0.015627,-21.649282,-13.524790,-39.307831,,,,,,,
1504280160.032686,-0.003806,0.417451,3.004669,0.030828,-0.085117,0.065886,-0.003479,-0.405432,-0.914119,-0.020248,0.011953,0.004771,-21.724890,-13.374826,-39.459167,,,,,,,
1504280160.042696,-0.005239,0.417348,3.005617,0.001142,-0.059304,0.068994,-0.004790,-0.405338,-0.914154,-0.022310,0.011554,0.001252,-21.724890,-13.374826,-39.459167,,,,,,,
1504280160.052706,-0.006399,0.416982,3.006508,-0.030632,-0.034529,0.061425,-0.005851,-0.405003,-0.914297,-0.021935,0.007313,0.000326,-21.798040,-13.975611,-39.229828,,,,,,,
1504280160.062716,-0.007310,0.416408,3.007266,-0.049588,-0.011983,0.047479,-0.006685,-0.404478,-0.914523,-0.023528,0.004652,-0.002789,-21.798040,-13.975611,-39.229828,,,,,,,
1504280160.072725,-0.007845,0.415860,3.007857,-0.041872,0.012471,0.036777,-0.007176,-0.403977,-0.914741,-0.020976,0.003022,-0.004113,-21.723684,-13.675425,-39.156860,,,,,,,
1504280160.082735,-0.008192,0.415547,3.008400,-0.011972,0.016484,0.037891,-0.007495,-0.403691,-0.914865,-0.017057,0.005833,-0.001395,-21.723684,-13.675425,-39.156860,,,,,,,
1504280160.092745,-0.008667,0.415593,3.009016,0.022032,0.003408,0.044379,-0.007929,-0.403732,-0.914843,-0.016836,0.006516,0.002520,-21.798986,-13.600611,-39.232635,,,,,,,
1504280160.102755,-0.009242,0.415945,3.009599,0.043215,-0.018077,0.041253,-0.008454,-0.404054,-0.914696,-0.013076,0.002672,0.001412,-21.798986,-13.600611,-39.232635,,,,,,,
1504280160.112765,-0.009943,0.416388,3.010056,0.043075,-0.041510,0.031688,-0.009093,-0.404460,-0.914511,-0.008836,0.000559,0.000845,-22.023840,-13.751322,-39.382080,,,,,,,
1504280160.122774,-0.010716,0.416793,3.010312,0.030196,-0.061633,0.014623,-0.009799,-0.404830,-0.914340,-0.005017,-0.003328,-0.000043,-22.023840,-13.751322,-39.382080,,,,,,,
1504280160.132784,-0.011502,0.417105,3.010424,0.019556,-0.064732,0.003937,-0.010516,-0.405115,-0.914205,-0.004590,-0.006429,-0.002741,-22.023764,-13.601923,-39.083191,,,,,,,
1504280160.142794,-0.012131,0.417359,3.010433,0.004770,-0.050750,-0.003585,-0.011090,-0.405347,-0.914095,-0.003940,-0.010271,0.000155,-22.023764,-13.601923,-39.083191,,,,,,,
1504280160.152804,-0.012499,0.417435,3.010375,-0.021615,-0.019623,-0.011157,-0.011426,-0.405417,-0.914061,-0.005588,-0.010446,0.005308,-21.798727,-13.750452,-39.306519,,,,,,,
1504280160.162813,-0.012462,0.417298,3.010274,-0.034115,0.027367,-0.018670,-0.011392,-0.405292,-0.914116,-0.009711,-0.009091,0.003594,-21.573690,-13.674753,-39.156494,,,,,,,
1504280160.172823,-0.012042,0.416838,3.010088,-0.068991,0.062828,-0.028398,-0.011010,-0.404872,-0.914307,-0.013358,-0.008260,0.003861,-21.573690,-13.674753,-39.156494,,,,,,,
1504280160.182833,-0.011270,0.416090,3.009775,-0.087946,0.088566,-0.037015,-0.010308,-0.404187,-0.914618,-0.012244,-0.007572,-0.001062,-21.573690,-13.674753,-39.156494,,,,,,,
1504280160.192843,-0.010257,0.415294,3.009405,-0.089949,0.103502,-0.039179,-0.009385,-0.403459,-0.914949,-0.009872,-0.009016,-0.002699,-21.649099,-13.599787,-39.307281,,,,,,,
1504280160.202852,-0.009161,0.414637,3.009017,-0.075060,0.098050,-0.038076,-0.008385,-0.402858,-0.915224,-0.004905,-0.007482,0.003939,-21.649099,-13.599787,-39.307281,,,,,,,
1504280160.212862,-0.008203,0.414282,3.008598,-0.037940,0.070038,-0.037962,-0.007509,-0.402533,-0.915375,-0.001005,-0.005167,0.006867,-21.724325,-13.599817,-39.457489,,,,,,,
1504280160.222872,-0.007573,0.414346,3.008148,0.012842,0.017404,-0.035647,-0.006932,-0.402592,-0.915353,0.007054,-0.000683,0.009531,-21.724325,-13.599817,-39.457489,,,,,,,
1504280160.232882,-0.007548,0.414898,3.007684,0.069849,-0.056594,-0.032217,-0.006908,-0.403096,-0.915132,0.013210,0.005879,0.013001,-21.499105,-13.599115,-39.306915,,,,,,,
1504280160.242891,-0.008162,0.415748,3.007225,0.100270,-0.120780,-0.030985,-0.007467,-0.403874,-0.914784,0.016775,0.012700,0.012272,-21.499105,-13.599115,-39.306915,,,,,,,
1504280160.252901,-0.009197,0.416689,3.006755,0.107427,-0.160263,-0.031971,-0.008410,-0.404735,-0.914395,0.018985,0.013622,0.008542,-21.349295,-13.523432,-39.307098,,,,,,,
1504280160.262911,-0.010450,0.417436,3.006272,0.086033,-0.169671,-0.036263,-0.009553,-0.405418,-0.914081,0.015611,0.012474,0.002338,-21.349295,-13.523432,-39.307098,,,,,,,
1504280160.272890,-0.011639,0.417931,3.005772,0.063818,-0.148170,-0.040609,-0.010637,-0.405870,-0.913869,0.010729,0.011644,-0.003367,-21.723532,-13.825129,-39.305786,,,,,,,
1504280160.282900,-0.012500,0.418300,3.005324,0.048210,-0.095831,-0.036459,-0.011422,-0.406208,-0.913709,0.004189,0.008030,-0.005312,-21.723532,-13.825129,-39.305786,,,,,,,
1504280160.292910,-0.013005,0.418576,3.005080,0.030422,-0.041357,-0.019507,-0.011882,-0.406460,-0.913592,-0.002370,0.005733,0.001879,-21.873037,-13.975946,-39.230011,,,,,,,
1504280160.302884,-0.013193,0.418729,3.005125,0.011538,0.012056,0.001714,-0.012052,-0.406600,-0.913527,-0.009478,0.003981,0.005843,-21.873037,-13.975946,-39.230011,,,,,,,
1504280160.312893,-0.013065,0.418815,3.005378,0.000053,0.052626,0.016568,-0.011935,-0.406678,-0.913494,-0.012769,-0.000015,0.009212,-22.022329,-14.127069,-39.004242,,,,,,,
1504280160.322903,-0.012648,0.418903,3.005675,-0.000814,0.078205,0.017589,-0.011554,-0.406759,-0.913463,-0.012112,-0.001139,0.012767,-21.873388,-13.975504,-39.455048,,,,,,,
1504280160.332913,-0.012132,0.419094,3.005864,0.010921,0.070660,0.005882,-0.011082,-0.406933,-0.913391,-0.010738,-0.000614,0.014282,-21.873388,-13.975504,-39.455048,,,,,,,
1504280160.342923,-0.011813,0.419423,3.005827,0.019216,0.029052,-0.012175,-0.010789,-0.407233,-0.913260,-0.006118,0.000464,0.021293,-21.873388,-13.975504,-39.455048,,,,,,,
1504280160.352932,-0.011790,0.419760,3.005576,0.016752,-0.020997,-0.025968,-0.010766,-0.407541,-0.913123,0.001367,-0.000647,0.017860,-21.947744,-14.051432,-39.154602,,,,,,,
1504280160.362942,-0.012099,0.419971,3.005192,0.001531,-0.061356,-0.033395,-0.011047,-0.407734,-0.913034,0.004410,-0.001919,0.015115,-21.798605,-13.750605,-39.231506,,,,,,,
1504280160.372952,-0.012663,0.419962,3.004733,-0.029551,-0.084534,-0.041948,-0.011563,-0.407726,-0.913031,0.003964,-0.006382,0.014777,-21.798605,-13.750605,-39.231506,,,,,,,
1504280160.382962,-0.013333,0.419669,3.004221,-0.061585,-0.090659,-0.046262,-0.012175,-0.407458,-0.913143,0.002639,-0.009809,0.012844,-21.797522,-14.051065,-39.004242,,,,,,,
1504280160.392971,-0.013867,0.419144,3.003673,-0.065687,-0.071442,-0.048438,-0.012667,-0.406979,-0.913350,0.002230,-0.007648,0.007390,-21.797522,-14.051065,-39.004242,,,,,,,
1504280160.402981,-0.014159,0.418720,3.003154,-0.055802,-0.036359,-0.048483,-0.012935,-0.406592,-0.913518,-0.002339,-0.006708,0.006506,-21.948614,-13.751276,-39.231873,,,,,,,
1504280160.412991,-0.014179,0.418550,3.002723,-0.017131,-0.000453,-0.043142,-0.012954,-0.406436,-0.913587,-0.006546,-0.001874,0.009306,-21.948614,-13.751276,-39.231873,,,,,,,
1504280160.423001,-0.013957,0.418635,3.002356,0.013999,0.025925,-0.038864,-0.012751,-0.406514,-0.913556,-0.008184,0.003773,0.009701,-21.948263,-13.751734,-39.006866,,,,,,,
1504280160.433011,-0.013639,0.418800,3.002049,0.025776,0.034346,-0.033521,-0.012460,-0.406664,-0.913493,-0.008979,0.008959,0.008311,-21.948263,-13.751734,-39.006866,,,,,,,
1504280160.443020,-0.013326,0.418866,3.001769,0.019242,0.022670,-0.026039,-0.012173,-0.406725,-0.913470,-0.004352,0.010347,0.000750,-21.872702,-13.976389,-39.005005,,,,,,,
1504280160.453030,-0.013100,0.418782,3.001523,0.002039,0.008955,-0.021775,-0.011968,-0.406648,-0.913507,0.000005,0.006990,-0.004981,-21.872702,-13.976389,-39.005005,,,,,,,
1504280160.463040,-0.012861,0.418554,3.001256,-0.012924,0.005882,-0.021796,-0.011751,-0.406440,-0.913602,0.003969,0.004981,-0.006701,-22.173422,-13.827295,-39.231873,,,,,,,
1504280160.473050,-0.012545,0.418341,3.000979,-0.015044,0.009095,-0.019671,-0.011463,-0.406245,-0.913692,0.006825,0.002269,-0.003788,-22.173422,-13.827295,-39.231873,,,,,,,
1504280160.483059,-0.012255,0.418176,3.000748,-0.020435,0.005937,-0.013271,-0.011198,-0.406094,-0.913763,0.007552,0.000714,0.004888,-22.023306,-13.826777,-39.156494,,,,,,,
1504280160.493069,-0.012123,0.418055,3.000557,-0.019484,-0.007924,-0.012178,-0.011079,-0.405984,-0.913813,0.006425,-0.000647,0.009867,-22.023306,-13.826777,-39.156494,,,,,,,
1504280160.503079,-0.012052,0.418007,3.000318,-0.010981,-0.015447,-0.017487,-0.011014,-0.405940,-0.913833,0.007505,-0.001973,0.007965,-21.573126,-13.899744,-39.154816,,,,,,,
1504280160.513089,-0.012102,0.418043,3.000075,-0.004718,-0.031484,-0.015314,-0.011059,-0.405973,-0.913818,0.008389,-0.001055,0.011291,-21.573126,-13.899744,-39.154816,,,,,,,
1504280160.523098,-0.012202,0.418112,2.999781,-0.004710,-0.034673,-0.021714,-0.011150,-0.406036,-0.913789,0.009014,-0.002412,0.009721,-22.023153,-13.976465,-39.305389,,,,,,,
1504280160.533108,-0.012206,0.418056,2.999448,-0.011018,-0.025026,-0.024944,-0.011154,-0.405985,-0.913812,0.007874,0.001703,0.007501,-22.023153,-13.976465,-39.305389,,,,,,,
1504280160.543087,-0.012177,0.417756,2.999101,-0.035548,-0.023757,-0.024990,-0.011130,-0.405710,-0.913934,0.008414,0.003824,0.008264,-22.022924,-13.976770,-39.155365,,,,,,,
1504280160.553097,-0.012190,0.417224,2.998795,-0.053709,-0.024676,-0.021818,-0.011144,-0.405225,-0.914149,0.007161,0.003079,0.002513,-22.022924,-13.976770,-39.155365,,,,,,,
1504280160.563107,-0.012157,0.416547,2.998485,-0.062175,-0.017144,-0.023981,-0.011117,-0.404605,-0.914424,0.006753,0.003482,-0.001241,-22.022818,-13.976923,-39.080383,,,,,,,
1504280160.573117,-0.012078,0.415834,2.998107,-0.067441,-0.013894,-0.032535,-0.011048,-0.403953,-0.914713,0.004838,0.004081,0.003336,-22.022818,-13.976923,-39.080383,,,,,,,
1504280160.583126,-0.011939,0.415154,2.997594,-0.067355,-0.011749,-0.046416,-0.010924,-0.403331,-0.914989,0.004134,0.001689,0.005413,-22.023794,-13.676615,-39.232635,,,,,,,
1504280160.593136,-0.011788,0.414620,2.997057,-0.044948,-0.010868,-0.045311,-0.010789,-0.402842,-0.915206,0.002961,0.001841,0.002486,-22.023794,-13.676615,-39.232635,,,,,,,
1504280160.603146,-0.011815,0.414465,2.996703,-0.003566,-0.026149,-0.023865,-0.010814,-0.402700,-0.915268,0.002879,0.002997,0.005585,-21.798605,-13.750605,-39.231506,,,,,,,
1504280160.613156,-0.012153,0.414744,2.996688,0.035603,-0.044620,0.008258,-0.011122,-0.402956,-0.915152,0.003157,0.004000,0.010199,-21.798605,-13.750605,-39.231506,,,,,,,
1504280160.623166,-0.012883,0.415260,2.996946,0.051247,-0.075674,0.030755,-0.011788,-0.403428,-0.914935,0.004402,0.004350,0.010867,-22.173941,-13.527597,-39.084137,,,,,,,
1504280160.633175,-0.013839,0.415817,2.997270,0.049985,-0.098044,0.033994,-0.012659,-0.403938,-0.914699,0.007593,0.003868,0.008388,-22.173941,-13.527597,-39.084137,,,,,,,
1504280160.643185,-0.014851,0.416040,2.997500,0.020053,-0.110574,0.025424,-0.013583,-0.404141,-0.914596,0.011020,0.003903,0.003341,-21.873266,-13.751398,-39.006683,,,,,,,
1504280160.653195,-0.015800,0.415944,2.997572,-0.022588,-0.113406,0.013613,-0.014452,-0.404053,-0.914621,0.014849,-0.000915,0.000894,-21.873266,-13.751398,-39.006683,,,,,,,
1504280160.663205,-0.016669,0.415440,2.997523,-0.064074,-0.104526,0.002850,-0.015250,-0.403593,-0.914812,0.013434,-0.003817,-0.001311,-22.248083,-13.828074,-39.007050,,,,,,,
1504280160.673214,-0.017387,0.414597,2.997464,-0.095931,-0.085083,0.003827,-0.015913,-0.402821,-0.915140,0.011229,-0.005855,-0.004202,-22.248083,-13.828074,-39.007050,,,,,,,
1504280160.683224,-0.017884,0.413532,2.997429,-0.110567,-0.048729,0.001603,-0.016376,-0.401846,-0.915561,0.004733,-0.004740,-0.005978,-22.398260,-13.753748,-39.007996,,,,,,,
1504280160.693234,-0.018011,0.412421,2.997490,-0.107003,0.001317,0.008992,-0.016500,-0.400828,-0.916005,0.000508,-0.002385,-0.005123,-22.398260,-13.753748,-39.007996,,,,,,,
1504280160.703244,-0.017756,0.411435,2.997640,-0.086390,0.048027,0.015350,-0.016274,-0.399925,-0.916403,-0.003563,-0.000420,-0.005670,-22.174139,-13.452585,-39.084686,,,,,,,
1504280160.713253,-0.017137,0.410644,2.997945,-0.064768,0.091524,0.028120,-0.015711,-0.399200,-0.916729,-0.005422,0.002136,-0.003956,-22.174139,-13.452585,-39.084686,,,,,,,
1504280160.723263,-0.016258,0.410112,2.998373,-0.032581,0.120020,0.037733,-0.014909,-0.398712,-0.916955,-0.007979,0.005478,-0.003745,-22.249166,-13.527628,-39.234314,,,,,,,
1504280160.733273,-0.015392,0.409831,2.998940,-0.013504,0.113453,0.052722,-0.014116,-0.398454,-0.917080,-0.005720,0.005098,-0.000996,-22.249166,-13.527628,-39.234314,,,,,,,
1504280160.743283,-0.014816,0.409767,2.999591,0.002087,0.068558,0.063502,-0.013589,-0.398396,-0.917113,0.001168,0.002995,0.000441,-22.023977,-13.601618,-39.233185,,,,,,,
1504280160.753293,-0.014743,0.409907,3.000256,0.014345,0.002388,0.066841,-0.013521,-0.398524,-0.917058,0.008883,-0.000005,0.004216,-22.023977,-13.601618,-39.233185,,,,,,,
1504280160.763302,-0.015225,0.410254,3.000820,0.026658,-0.063771,0.059506,-0.013961,-0.398842,-0.916913,0.015823,-0.003257,0.008374,-22.023077,-13.827066,-39.006500,,,,,,,
1504280160.773312,-0.016055,0.410658,3.001241,0.029661,-0.097877,0.044627,-0.014719,-0.399213,-0.916740,0.017588,-0.003070,0.010231,-22.023077,-13.827066,-39.006500,,,,,,,
1504280160.783322,-0.016910,0.410983,3.001544,0.013742,-0.093472,0.034984,-0.015501,-0.399511,-0.916597,0.015333,-0.004237,0.010683,-21.948797,-13.676279,-39.232452,,,,,,,
1504280160.793332,-0.017594,0.411002,3.001814,-0.019008,-0.056964,0.028458,-0.016128,-0.399528,-0.916579,0.007644,-0.004555,0.007750,-21.948797,-13.676279,-39.232452,,,,,,,
1504280160.803311,-0.017860,0.410685,3.002153,-0.041961,0.009290,0.030436,-0.016374,-0.399237,-0.916701,-0.003218,-0.004754,-0.000901,-22.024359,-13.451624,-39.234314,,,,,,,
1504280160.813321,-0.017672,0.410238,3.002591,-0.045758,0.070056,0.033526,-0.016205,-0.398828,-0.916883,-0.013031,-0.004569,-0.007235,-22.024359,-13.451624,-39.234314,,,,,,,
1504280160.823330,-0.017154,0.409775,3.003169,-0.033767,0.109370,0.045220,-0.015733,-0.398403,-0.917076,-0.017378,0.000667,-0.008217,-22.249365,-13.452631,-39.234863,,,,,,,
1504280160.833340,-0.016480,0.409496,3.003861,-0.001731,0.119749,0.055932,-0.015117,-0.398147,-0.917197,-0.016454,0.005905,-0.012185,-22.249365,-13.452631,-39.234863,,,,,,,
1504280160.843350,-0.015866,0.409446,3.004603,0.022651,0.103557,0.061341,-0.014554,-0.398101,-0.917226,-0.012866,0.009246,-0.008921,-22.024618,-13.301767,-39.160431,,,,,,,
1504280160.853360,-0.015400,0.409547,3.005276,0.035261,0.075753,0.055008,-0.014126,-0.398194,-0.917193,-0.006642,0.010910,-0.007536,-22.024618,-13.301767,-39.160431,,,,,,,
1504280160.863369,-0.015042,0.409781,3.005776,0.044726,0.050115,0.041193,-0.013796,-0.398409,-0.917104,-0.000013,0.008181,-0.010310,-21.875006,-13.151087,-39.161194,,,,,,,
1504280160.873379,-0.014803,0.409932,3.006085,0.018985,0.024768,0.027317,-0.013576,-0.398547,-0.917047,0.002666,0.003589,-0.006247,-21.875006,-13.151087,-39.161194,,,,,,,
1504280160.883389,-0.014750,0.410105,3.006236,0.018894,0.003473,0.011343,-0.013527,-0.398705,-0.916979,0.002220,0.000863,-0.003065,-21.650351,-13.149637,-39.385681,,,,,,,
1504280160.893399,-0.014787,0.410313,3.006299,0.017800,-0.003970,0.004950,-0.013559,-0.398896,-0.916896,0.000772,-0.002791,-0.002278,-21.650351,-13.149637,-39.385681,,,,,,,
1504280160.903408,-0.014893,0.410570,3.006341,0.017839,-0.001835,0.000677,-0.013655,-0.399132,-0.916792,-0.003389,-0.003288,0.003584,-21.725607,-13.000116,-39.311951,,,,,,,
1504280160.913418,-0.014895,0.410840,3.006376,0.021240,0.020518,-0.003626,-0.013655,-0.399380,-0.916684,-0.008028,-0.002430,0.004086,-21.725607,-13.000116,-39.311951,,,,,,,
1504280160.923428,-0.014598,0.411058,3.006443,0.017267,0.059972,0.000568,-0.013382,-0.399580,-0.916601,-0.011231,-0.000475,0.004537,-22.099890,-13.152246,-39.086761,,,,,,,
1504280160.933438,-0.014019,0.411263,3.006672,0.013255,0.100481,0.014367,-0.012850,-0.399767,-0.916527,-0.016218,-0.000501,0.007927,-22.099890,-13.152246,-39.086761,,,,,,,
1504280160.943448,-0.013318,0.411397,3.007107,0.006911,0.117564,0.030338,-0.012206,-0.399890,-0.916482,-0.019288,0.000309,0.008477,-21.800222,-13.150461,-39.311035,,,,,,,
1504280160.953457,-0.012619,0.411512,3.007606,0.007909,0.112220,0.035687,-0.011566,-0.399996,-0.916444,-0.016862,0.000078,0.007646,-21.800222,-13.150461,-39.311035,,,,,,,
1504280160.963467,-0.012100,0.411690,3.008039,0.013017,0.079150,0.028284,-0.011089,-0.400159,-0.916379,-0.013035,0.000775,0.009015,-21.724508,-13.300562,-39.084717,,,,,,,
1504280160.973477,-0.011855,0.411904,3.008249,0.014872,0.032267,0.009157,-0.010863,-0.400355,-0.916296,-0.006852,0.001811,0.013494,-21.724508,-13.300562,-39.084717,,,,,,,
1504280160.983487,-0.011929,0.412104,3.008171,0.012430,-0.020968,-0.014236,-0.010930,-0.400538,-0.916215,-0.001277,0.001719,0.013490,-21.574514,-13.299891,-39.084351,,,,,,,
1504280160.993496,-0.012361,0.412274,3.007869,0.007860,-0.068866,-0.030171,-0.011325,-0.400694,-0.916142,0.003162,0.000593,0.012211,-21.574514,-13.299891,-39.084351,,,,,,,
1504280161.003506,-0.013117,0.412369,3.007490,0.006514,-0.105082,-0.032245,-0.012017,-0.400781,-0.916095,0.004601,0.003106,0.010440,-21.799810,-13.225748,-39.160431,,,,,,,
1504280161.013516,-0.014110,0.412474,3.007149,0.017033,-0.121157,-0.027929,-0.012926,-0.400877,-0.916041,0.004595,0.005567,0.006052,-21.799810,-13.225748,-39.160431,,,,,,,
1504280161.023526,-0.015233,0.412692,3.006929,0.034085,-0.118109,-0.019365,-0.013954,-0.401077,-0.915938,0.000572,0.008773,0.007262,-21.650305,-13.074930,-39.236206,,,,,,,
1504280161.033535,-0.016280,0.413047,3.006850,0.045873,-0.102238,-0.004429,-0.014910,-0.401402,-0.915781,0.000643,0.009358,0.008172,-21.650305,-13.074930,-39.236206,,,,,,,
1504280161.043545,-0.017227,0.413482,3.007026,0.048133,-0.072444,0.017938,-0.015775,-0.401800,-0.915592,-0.003650,0.008047,0.009189,-22.174429,-13.377436,-39.160248,,,,,,,
1504280161.053555,-0.018039,0.413911,3.007449,0.037551,-0.048935,0.038159,-0.016514,-0.402193,-0.915406,-0.005046,0.003969,0.010545,-22.174429,-13.377436,-39.160248,,,,,,,
1504280161.063565,-0.018665,0.414155,3.008010,0.017437,-0.023206,0.047686,-0.017086,-0.402416,-0.915297,-0.005635,0.002285,0.008437,-21.950003,-13.151423,-39.161377,,,,,,,
1504280161.073544,-0.018991,0.414135,3.008541,-0.006827,0.007901,0.042253,-0.017385,-0.402398,-0.915300,-0.005824,0.002511,0.004945,-21.950003,-13.151423,-39.161377,,,,,,,
1504280161.083554,-0.018929,0.413898,3.008935,-0.031110,0.032622,0.030426,-0.017330,-0.402181,-0.915396,-0.003376,0.000600,0.003745,-22.249548,-13.377634,-39.235443,,,,,,,
1504280161.093564,-0.018585,0.413508,3.009157,-0.042618,0.051913,0.015428,-0.017018,-0.401824,-0.915559,-0.003032,0.000655,0.005387,-22.249548,-13.377634,-39.235443,,,,,,,
1504280161.103573,-0.018078,0.412935,3.009254,-0.067084,0.056384,0.007906,-0.016558,-0.401299,-0.915797,-0.001829,0.000634,0.005809,-22.099997,-13.152109,-39.161743,,,,,,,
1504280161.113583,-0.017732,0.412339,3.009318,-0.058717,0.033939,0.005826,-0.016245,-0.400753,-0.916042,-0.002645,0.000836,0.007824,-22.099997,-13.152109,-39.161743,,,,,,,
1504280161.123593,-0.017743,0.411983,3.009445,-0.027016,-0.000428,0.012346,-0.016258,-0.400427,-0.916184,-0.002236,0.001486,0.005998,-22.099554,-13.376963,-39.235077,,,,,,,
1504280161.133603,-0.018135,0.411992,3.009640,0.011103,-0.034845,0.015675,-0.016616,-0.400435,-0.916174,-0.002808,0.002852,0.007529,-22.099554,-13.376963,-39.235077,,,,,,,
1504280161.143612,-0.018794,0.412396,3.009790,0.047190,-0.061777,0.010448,-0.017217,-0.400805,-0.916001,-0.001399,0.004962,0.013154,-22.025534,-13.076319,-39.387146,,,,,,,
1504280161.153622,-0.019551,0.413033,3.009872,0.065296,-0.070443,0.003023,-0.017906,-0.401389,-0.915732,-0.000725,0.004524,0.011344,-22.025534,-13.076319,-39.387146,,,,,,,
1504280161.163632,-0.020289,0.413779,3.009924,0.070583,-0.066228,0.000942,-0.018575,-0.402072,-0.915419,-0.001261,0.002307,0.009307,-22.174780,-13.152735,-39.011932,,,,,,,
1504280161.173642,-0.020888,0.414528,3.009958,0.063301,-0.044853,-0.002310,-0.019117,-0.402758,-0.915107,-0.003618,0.000399,0.006766,-22.174780,-13.152735,-39.011932,,,,,,,
1504280161.183651,-0.021247,0.415079,3.009940,0.045376,-0.022322,-0.008785,-0.019441,-0.403263,-0.914878,-0.005309,0.000003,0.008246,-22.024206,-13.377069,-39.009857,,,,,,,
1504280161.193661,-0.021332,0.415388,3.009813,0.021046,-0.000802,-0.016336,-0.019517,-0.403545,-0.914752,-0.004333,0.000927,0.005267,-22.024206,-13.377069,-39.009857,,,,,,,
1504280161.203671,-0.021196,0.415418,3.009626,-0.001214,0.015368,-0.019606,-0.019391,-0.403572,-0.914742,-0.003695,0.001488,0.001137,-22.324514,-13.303263,-39.086182,,,,,,,
1504280161.213681,-0.020914,0.415210,3.009440,-0.029886,0.031589,-0.020751,-0.019135,-0.403382,-0.914832,-0.005614,-0.001312,0.001776,-22.324514,-13.303263,-39.086182,,,,,,,
1504280161.223690,-0.020585,0.414798,3.009255,-0.051225,0.032827,-0.018655,-0.018838,-0.403005,-0.915004,-0.005042,-0.001948,0.003902,-22.399282,-13.303904,-38.936340,,,,,,,
1504280161.233700,-0.020187,0.414286,3.009070,-0.054433,0.033916,-0.015460,-0.018478,-0.402536,-0.915217,-0.000672,-0.002508,0.001567,-22.399282,-13.303904,-38.936340,,,,,,,
1504280161.243710,-0.019693,0.413876,3.008902,-0.040528,0.040192,-0.012245,-0.018030,-0.402161,-0.915391,0.002160,-0.002059,0.003206,-22.099249,-13.452112,-39.159485,,,,,,,
1504280161.253720,-0.019223,0.413663,3.008782,-0.017059,0.041062,-0.010071,-0.017600,-0.401966,-0.915485,0.000419,0.001789,0.007542,-22.099249,-13.452112,-39.159485,,,,,,,
1504280161.263730,-0.018840,0.413742,3.008706,0.015910,0.031195,-0.004660,-0.017249,-0.402039,-0.915460,0.000983,0.003464,0.008203,-21.949179,-13.302027,-38.860260,,,,,,,
1504280161.273739,-0.018579,0.413997,3.008657,0.034944,0.011855,-0.001391,-0.017009,-0.402272,-0.915362,0.003642,0.006688,0.005908,-21.949179,-13.302027,-38.860260,,,,,,,
1504280161.283749,-0.018655,0.414279,3.008637,0.033576,-0.024366,0.000805,-0.017076,-0.402530,-0.915247,0.004335,0.008075,0.007227,-22.249060,-13.303522,-38.785980,,,,,,,
1504280161.293759,-0.018953,0.414458,3.008582,0.024903,-0.043471,-0.002378,-0.017347,-0.402694,-0.915170,0.005765,0.006423,0.000360,-22.249060,-13.303522,-38.785980,,,,,,,
1504280161.303761,-0.019212,0.414579,3.008459,0.014331,-0.035916,-0.009882,-0.017584,-0.402805,-0.915117,0.005941,0.002597,-0.002714,-22.023840,-13.302820,-38.635437,,,,,,,
1504280161.313770,-0.019357,0.414614,3.008324,-0.006887,-0.020823,-0.009946,-0.017716,-0.402837,-0.915100,0.003677,-0.000468,0.003617,-22.023840,-13.302820,-38.635437,,,,,,,
1504280161.323780,-0.019395,0.414431,3.008227,-0.027054,-0.005741,-0.006805,-0.017752,-0.402669,-0.915174,0.000952,-0.001597,0.004804,-22.323874,-13.378870,-38.785614,,,,,,,
1504280161.333759,-0.019336,0.414208,3.008229,-0.029054,0.015579,0.000626,-0.017700,-0.402465,-0.915264,-0.002533,-0.002839,0.000378,-22.323874,-13.378870,-38.785614,,,,,,,
1504280161.343769,-0.019089,0.414047,3.008278,-0.019308,0.034677,0.002744,-0.017475,-0.402318,-0.915333,-0.003383,-0.004756,0.003239,-21.949179,-13.302027,-38.860260,,,,,,,
1504280161.353779,-0.018857,0.414072,3.008346,0.002021,0.033435,0.002783,-0.017263,-0.402341,-0.915327,-0.005320,-0.000339,0.007918,-21.949179,-13.302027,-38.860260,,,,,,,
1504280161.363789,-0.018669,0.414198,3.008356,0.013722,0.023757,-0.005718,-0.017090,-0.402456,-0.915280,-0.004685,0.004033,0.010296,-22.248755,-13.602930,-39.083740,,,,,,,
1504280161.373798,-0.018621,0.414322,3.008233,0.013579,-0.000741,-0.016349,-0.017044,-0.402570,-0.915231,-0.003906,0.005719,0.009896,-22.248755,-13.602930,-39.083740,,,,,,,
1504280161.383808,-0.018773,0.414388,3.008026,0.009103,-0.029471,-0.020576,-0.017183,-0.402630,-0.915202,-0.001082,0.005352,0.006785,-22.024252,-13.451761,-39.159302,,,,,,,
1504280161.393818,-0.019197,0.414483,3.007814,0.006698,-0.061422,-0.017321,-0.017570,-0.402717,-0.915156,0.002189,0.001990,0.006983,-22.024252,-13.451761,-39.159302,,,,,,,
1504280161.403828,-0.019921,0.414620,3.007606,-0.001017,-0.092260,-0.017281,-0.018232,-0.402842,-0.915088,0.004240,-0.002203,0.011737,-22.323599,-13.752970,-39.232819,,,,,,,
1504280161.413837,-0.020922,0.414724,3.007388,-0.006619,-0.125248,-0.016165,-0.019147,-0.402937,-0.915027,0.007368,-0.003572,0.014377,-22.323599,-13.752970,-39.232819,,,,,,,
1504280161.423847,-0.022080,0.414776,3.007120,-0.014153,-0.136901,-0.021495,-0.020206,-0.402985,-0.914984,0.007069,-0.004684,0.013754,-22.323721,-13.528559,-38.934479,,,,,,,
1504280161.433857,-0.023287,0.414745,3.006841,-0.025886,-0.136804,-0.021516,-0.021311,-0.402957,-0.914971,0.005793,-0.004163,0.017785,-22.323721,-13.528559,-38.934479,,,,,,,
1504280161.443867,-0.024497,0.414604,3.006631,-0.035470,-0.131402,-0.016205,-0.022419,-0.402827,-0.915001,0.003239,-0.003804,0.019158,-22.473608,-13.529383,-38.859863,,,,,,,
1504280161.453877,-0.025719,0.414324,3.006505,-0.036500,-0.122876,-0.009818,-0.023540,-0.402572,-0.915086,0.001064,-0.000093,0.013490,-22.473608,-13.529383,-38.859863,,,,,,,
1504280161.463886,-0.026637,0.414072,3.006407,-0.019146,-0.086789,-0.008784,-0.024383,-0.402340,-0.915165,0.001159,0.004040,0.008473,-22.248724,-13.528223,-38.934296,,,,,,,
1504280161.473896,-0.027081,0.413948,3.006275,-0.004825,-0.033622,-0.014190,-0.024790,-0.402227,-0.915204,-0.001119,0.007452,0.008939,-22.248724,-13.528223,-38.934296,,,,,,,
1504280161.483906,-0.027056,0.413828,3.006152,-0.008687,0.016494,-0.015352,-0.024770,-0.402117,-0.915253,-0.004451,0.008181,0.010605,-22.474279,-13.304239,-38.936523,,,,,,,
1504280161.493916,-0.026652,0.413517,3.006071,-0.035039,0.059329,-0.011203,-0.024402,-0.401833,-0.915388,-0.008373,0.005058,0.005415,-22.474279,-13.304239,-38.936523,,,,,,,
1504280161.503925,-0.026056,0.412908,3.006062,-0.065914,0.072362,-0.003807,-0.023864,-0.401275,-0.915647,-0.008836,0.001189,-0.000140,-22.473837,-13.304834,-38.636536,,,,,,,
1504280161.513935,-0.025489,0.412076,3.006097,-0.086276,0.065063,0.002576,-0.023353,-0.400512,-0.915994,-0.007180,-0.001954,-0.000800,-22.473837,-13.304834,-38.636536,,,,,,,
1504280161.523945,-0.025088,0.411266,3.006121,-0.075829,0.037271,0.002643,-0.022994,-0.399770,-0.916327,-0.002931,-0.001780,-0.003183,-22.474615,-13.303797,-39.161530,,,,,,,
1504280161.533955,-0.024870,0.410632,3.006025,-0.055738,0.007281,-0.009011,-0.022800,-0.399188,-0.916585,0.001209,0.001178,0.001989,-22.474615,-13.303797,-39.161530,,,,,,,
1504280161.543964,-0.024878,0.410236,3.005798,-0.033511,-0.021661,-0.019596,-0.022811,-0.398826,-0.916743,0.003738,0.003989,0.008296,-22.549627,-13.304132,-39.161713,,,,,,,
1504280161.553974,-0.025110,0.410043,3.005527,-0.013401,-0.043136,-0.021658,-0.023026,-0.398648,-0.916815,0.003571,0.003965,0.006979,-22.549627,-13.304132,-39.161713,,,,,,,
1504280161.563984,-0.025463,0.410035,3.005282,0.003643,-0.046473,-0.021623,-0.023350,-0.398642,-0.916809,0.000950,0.001959,0.005097,-22.474691,-13.228937,-39.087128,,,,,,,
1504280161.573994,-0.025718,0.410063,3.005052,-0.000434,-0.024060,-0.023804,-0.023583,-0.398667,-0.916793,-0.003074,-0.000320,0.003188,-22.474691,-13.228937,-39.087128,,,,,,,
1504280161.584004,-0.025801,0.410129,3.004821,0.000881,0.003639,-0.029187,-0.023659,-0.398727,-0.916764,-0.009209,-0.000122,0.000993,-22.399588,-13.228754,-39.011932,,,,,,,
1504280161.594013,-0.025664,0.410006,3.004603,-0.016054,0.024018,-0.023914,-0.023534,-0.398615,-0.916816,-0.009791,0.000040,-0.001030,-22.399588,-13.228754,-39.011932,,,,,,,
1504280161.603993,-0.025444,0.409743,3.004474,-0.025613,0.034742,-0.015410,-0.023335,-0.398373,-0.916927,-0.009990,-0.001102,-0.005788,-22.398718,-13.528894,-38.934662,,,,,,,
1504280161.614002,-0.025209,0.409431,3.004440,-0.024606,0.032593,-0.006865,-0.023123,-0.398087,-0.917056,-0.008722,0.000092,-0.007413,-22.398718,-13.528894,-38.934662,,,,,,,
1504280161.624012,-0.024990,0.409184,3.004392,-0.020424,0.021902,-0.006838,-0.022925,-0.397861,-0.917159,-0.004053,-0.000302,-0.003388,-22.474508,-13.303934,-39.086548,,,,,,,
1504280161.634022,-0.024820,0.409092,3.004264,-0.007675,0.011147,-0.013202,-0.022770,-0.397777,-0.917200,-0.000424,-0.002202,-0.001929,-22.474508,-13.303934,-39.086548,,,,,,,
1504280161.644032,-0.024672,0.409144,3.004051,-0.002385,0.001520,-0.019580,-0.022633,-0.397824,-0.917182,0.002354,-0.001941,0.001197,-22.550528,-12.854425,-39.015106,,,,,,,
1504280161.654041,-0.024549,0.409365,3.003757,0.016783,-0.007155,-0.025936,-0.022518,-0.398027,-0.917098,0.004391,-0.003524,0.006209,-22.550528,-12.854425,-39.015106,,,,,,,
1504280161.664051,-0.024414,0.409634,3.003431,0.018919,-0.008235,-0.028066,-0.022391,-0.398274,-0.916993,0.005012,-0.002865,0.004411,-22.700155,-13.005106,-39.014343,,,,,,,
1504280161.674061,-0.024313,0.409856,3.003095,0.011437,-0.011368,-0.030208,-0.022297,-0.398477,-0.916907,0.003895,-0.001837,0.005378,-22.700155,-13.005106,-39.014343,,,,,,,
1504280161.684071,-0.024240,0.409936,3.002701,-0.003511,-0.015502,-0.034497,-0.022229,-0.398551,-0.916877,0.004041,-0.001825,0.004355,-22.399435,-13.378458,-39.160797,,,,,,,
1504280161.694080,-0.024184,0.409828,3.002301,-0.015257,-0.015407,-0.032383,-0.022179,-0.398451,-0.916921,0.004281,-0.001741,-0.001627,-22.399435,-13.378458,-39.160797,,,,,,,
1504280161.704090,-0.024137,0.409712,3.001990,-0.015260,-0.011151,-0.024919,-0.022138,-0.398345,-0.916969,0.003201,-0.003236,-0.002633,-22.474173,-13.528635,-39.234863,,,,,,,
1504280161.714100,-0.024081,0.409633,3.001732,-0.015216,-0.003696,-0.021730,-0.022087,-0.398272,-0.917001,0.000785,-0.003476,0.003168,-22.474173,-13.528635,-39.234863,,,,,,,
1504280161.724110,-0.023877,0.409595,3.001507,-0.003343,0.015384,-0.018541,-0.021900,-0.398238,-0.917021,0.001087,-0.000962,0.002195,-22.400106,-13.153299,-39.237488,,,,,,,
1504280161.734119,-0.023586,0.409652,3.001399,0.013770,0.028018,-0.006792,-0.021633,-0.398290,-0.917004,0.000026,0.002996,-0.000079,-22.400106,-13.153299,-39.237488,,,,,,,
1504280161.744129,-0.023343,0.409813,3.001407,0.015836,0.024796,0.001757,-0.021408,-0.398438,-0.916946,-0.001129,0.004089,0.009292,-22.473791,-13.678644,-39.233734,,,,,,,
1504280161.754139,-0.023179,0.409918,3.001454,0.010397,0.013117,0.003903,-0.021257,-0.398534,-0.916907,0.000581,0.004034,0.007773,-22.473791,-13.678644,-39.233734,,,,,,,
1504280161.764149,-0.023060,0.409947,3.001408,0.000744,0.001484,-0.004633,-0.021147,-0.398561,-0.916898,0.003554,0.003251,0.004819,-22.473272,-13.754084,-39.008179,,,,,,,
1504280161.774159,-0.022937,0.409927,3.001264,-0.009962,-0.005882,-0.008909,-0.021035,-0.398543,-0.916909,0.007104,0.001112,0.009300,-22.473272,-13.754084,-39.008179,,,,,,,
1504280161.784168,-0.022823,0.409855,3.001088,-0.019553,-0.005799,-0.011061,-0.020931,-0.398476,-0.916940,0.007122,-0.001563,0.011239,-22.474508,-13.303934,-39.086548,,,,,,,
