timestamp(unix),attitude_roll(radians),attitude_pitch(radians),attitude_yaw(radians),rotation_rate_x(radians/s),rotation_rate_y(radians/s),rotation_rate_z(radians/s),gravity_x(G),gravity_y(G),gravity_z(G),user_acc_x(G),user_acc_y(G),user_acc_z(G),magnetic_field_x(microteslas),magnetic_field_y(microteslas),magnetic_field_z(microteslas),latitude(degree),longitude(degree),altitude(meter),speed(m/s),course(degree),timestamp(unix),User Mark
1504280469.198794,0.012194,0.475093,-2.958843,-0.118802,0.231298,0.016391,0.010844,-0.457422,-0.889184,-0.014994,0.013833,0.007104,-22.615133,-16.456568,-38.088287,,,,,,,
1504280469.208804,0.013392,0.474121,-2.958793,-0.045068,0.097517,-0.007793,0.011914,-0.456556,-0.889615,-0.006879,0.016874,0.000134,-22.615133,-16.456568,-38.088287,,,,,,,
1504280469.218813,0.013573,0.474247,-2.959060,0.033035,-0.021387,-0.027729,0.012075,-0.456669,-0.889555,0.004970,0.017368,-0.010210,-22.465841,-16.305445,-38.314026,,,,,,,
1504280469.228823,0.012877,0.475065,-2.959484,0.095360,-0.106072,-0.038145,0.011450,-0.457396,-0.889189,0.008142,0.019072,-0.004792,-22.465841,-16.305445,-38.314026,,,,,,,
1504280469.238833,0.011670,0.476252,-2.959881,0.124885,-0.145749,-0.031620,0.010371,-0.458452,-0.888659,0.002904,0.019304,0.000979,-22.390356,-16.455256,-38.237701,,,,,,,
1504280469.248843,0.010215,0.477277,-2.960074,0.121677,-0.138277,-0.018828,0.009073,-0.459362,-0.888203,-0.004938,0.012936,0.000553,-22.390356,-16.455256,-38.237701,,,,,,,
1504280469.258852,0.009160,0.478325,-2.960148,0.096317,-0.097592,-0.002933,0.008132,-0.460293,-0.887730,-0.012541,0.006573,0.003559,-22.539495,-16.531824,-37.787506,,,,,,,
1504280469.268862,0.008566,0.479019,-2.960129,0.060437,-0.044023,0.003315,0.007601,-0.460909,-0.887415,-0.017733,-0.000379,0.002481,-22.539495,-16.531824,-37.787506,,,,,,,
1504280469.278872,0.008579,0.479372,-2.960090,0.026795,0.019124,0.004213,0.007612,-0.461222,-0.887252,-0.020704,-0.001821,-0.000413,-22.764639,-16.607401,-38.012512,,,,,,,
1504280469.288882,0.008627,0.479383,-2.959819,-0.013396,0.063139,0.004067,0.007654,-0.461232,-0.887247,-0.020121,-0.000438,0.002511,-22.764639,-16.607401,-38.012512,,,,,,,
1504280469.298892,0.008964,0.478972,-2.959610,-0.047320,0.085799,-0.003501,0.007955,-0.460867,-0.887433,-0.021337,0.000754,0.000196,-22.688772,-16.907206,-37.935089,,,,,,,
1504280469.308901,0.009447,0.478193,-2.959524,-0.069717,0.081727,-0.012070,0.008387,-0.460175,-0.887789,-0.018397,0.001679,-0.007490,-22.688772,-16.907206,-37.935089,,,,,,,
1504280469.318911,0.009868,0.477304,-2.959605,-0.082616,0.060533,-0.026997,0.008765,-0.459386,-0.888194,-0.016180,0.000615,-0.005025,-22.690207,-16.606302,-38.387329,,,,,,,
1504280469.328890,0.010139,0.476473,-2.959915,-0.074247,0.028512,-0.045070,0.009009,-0.458648,-0.888572,-0.013694,0.000228,-0.002831,-22.690207,-16.606302,-38.387329,,,,,,,
1504280469.338900,0.010125,0.475835,-2.960363,-0.050019,-0.014307,-0.051356,0.009000,-0.458081,-0.888865,-0.010205,0.001614,-0.001775,-22.465094,-16.605448,-38.311798,,,,,,,
1504280469.348910,0.009783,0.475514,-2.960868,-0.016173,-0.051882,-0.052297,0.008698,-0.457796,-0.889015,-0.007538,0.003770,0.001762,-22.465094,-16.605448,-38.311798,,,,,,,
1504280469.358920,0.009271,0.475504,-2.961317,0.018922,-0.060706,-0.043681,0.008242,-0.457787,-0.889024,-0.006747,0.006493,0.002107,-22.690588,-16.456308,-38.388458,,,,,,,
1504280469.368929,0.008749,0.475752,-2.961619,0.044608,-0.043880,-0.032990,0.007778,-0.458007,-0.888914,-0.009075,0.009613,0.004210,-22.690588,-16.456308,-38.388458,,,,,,,
1504280469.378939,0.008313,0.476177,-2.961695,0.055415,-0.015220,-0.014875,0.007388,-0.458385,-0.888723,-0.013797,0.010219,0.007406,-22.465124,-16.455896,-38.087921,,,,,,,
1504280469.388949,0.008012,0.476551,-2.961597,0.048043,0.005072,-0.002112,0.007119,-0.458717,-0.888554,-0.014565,0.010872,0.005344,-22.465124,-16.455896,-38.087921,,,,,,,
1504280469.398959,0.007751,0.476738,-2.961415,0.031015,0.012665,0.001049,0.006886,-0.458883,-0.888470,-0.016942,0.011007,0.002194,-22.690130,-16.681162,-38.461761,,,,,,,
1504280469.408968,0.007590,0.476717,-2.961322,0.008624,0.010722,-0.005389,0.006744,-0.458865,-0.888480,-0.013534,0.008151,-0.000512,-22.690130,-16.681162,-38.461761,,,,,,,
1504280469.418978,0.007580,0.476580,-2.961415,-0.016997,0.002419,-0.016092,0.006735,-0.458743,-0.888544,-0.005713,0.002765,0.001077,-22.539572,-16.681238,-38.086395,,,,,,,
1504280469.428988,0.007734,0.476265,-2.961733,-0.042493,0.004778,-0.034286,0.006873,-0.458463,-0.888687,-0.001822,-0.001055,0.003937,-22.539572,-16.681238,-38.086395,,,,,,,
1504280469.438998,0.008002,0.475761,-2.962177,-0.059482,0.010254,-0.041797,0.007113,-0.458015,-0.888916,-0.000567,-0.003380,0.001450,-22.540091,-16.605783,-38.311981,,,,,,,
1504280469.449007,0.008332,0.475180,-2.962629,-0.063712,0.015615,-0.040747,0.007409,-0.457499,-0.889179,-0.001610,-0.003332,0.000843,-22.540091,-16.605783,-38.311981,,,,,,,
1504280469.459017,0.008569,0.474579,-2.962984,-0.057365,0.013423,-0.033260,0.007622,-0.456964,-0.889452,-0.004677,-0.002081,-0.001340,-22.315207,-16.604624,-38.386383,,,,,,,
1504280469.469027,0.008655,0.474108,-2.963158,-0.036125,0.011099,-0.017207,0.007700,-0.456545,-0.889667,-0.006037,-0.000089,-0.004758,-22.315207,-16.604624,-38.386383,,,,,,,
1504280469.479037,0.008615,0.473877,-2.963090,-0.004210,0.012944,0.004194,0.007665,-0.456339,-0.889773,-0.008306,0.003855,-0.005125,-22.539907,-16.456537,-37.938110,,,,,,,
1504280469.489047,0.008445,0.473894,-2.962823,0.022371,0.011641,0.020255,0.007514,-0.456354,-0.889766,-0.009101,0.007304,-0.002949,-22.539907,-16.456537,-37.938110,,,,,,,
1504280469.499056,0.008131,0.474099,-2.962424,0.043592,0.001867,0.027782,0.007234,-0.456537,-0.889675,-0.010423,0.010233,-0.001103,-22.540136,-16.456232,-38.088104,,,,,,,
1504280469.509066,0.007800,0.474341,-2.962108,0.047783,-0.012014,0.020344,0.006939,-0.456753,-0.889567,-0.006695,0.012127,-0.002355,-22.540136,-16.456232,-38.088104,,,,,,,
1504280469.519076,0.007443,0.474586,-2.962006,0.044472,-0.035412,0.004369,0.006620,-0.456970,-0.889457,-0.001264,0.010681,-0.003487,-22.389410,-16.830256,-38.234894,,,,,,,
1504280469.529086,0.007143,0.474749,-2.962152,0.029548,-0.044859,-0.013786,0.006353,-0.457115,-0.889385,0.004038,0.007439,-0.005299,-22.389410,-16.830256,-38.234894,,,,,,,
1504280469.539095,0.006910,0.474860,-2.962474,0.019988,-0.047961,-0.027673,0.006145,-0.457214,-0.889335,0.005680,0.003494,-0.006569,-22.240026,-16.679285,-38.385651,,,,,,,
1504280469.549105,0.006663,0.475049,-2.962822,0.019978,-0.047963,-0.025539,0.005926,-0.457382,-0.889250,0.004511,-0.000671,-0.002077,-22.240026,-16.679285,-38.385651,,,,,,,
1504280469.559115,0.006309,0.475269,-2.963048,0.021019,-0.045849,-0.017001,0.005610,-0.457577,-0.889152,0.000677,-0.000064,0.001838,-22.389715,-16.755106,-38.310486,,,,,,,
1504280469.569125,0.005885,0.475525,-2.963088,0.029548,-0.037410,-0.002058,0.005232,-0.457805,-0.889037,-0.001860,0.002757,0.003295,-22.389715,-16.755106,-38.310486,,,,,,,
1504280469.579134,0.005486,0.475798,-2.963010,0.027475,-0.025679,0.004323,0.004876,-0.458048,-0.888914,-0.004266,0.003687,0.005705,-22.690023,-16.457056,-38.013458,,,,,,,
1504280469.589144,0.005227,0.475959,-2.962896,0.020141,-0.007507,0.006414,0.004646,-0.458191,-0.888842,-0.005637,0.006577,0.005663,-22.690023,-16.457056,-38.013458,,,,,,,
1504280469.599123,0.005145,0.475980,-2.962745,0.009572,0.008559,0.011705,0.004573,-0.458210,-0.888832,-0.003383,0.007496,0.002556,-22.389944,-16.530558,-38.087158,,,,,,,
1504280469.609133,0.005157,0.475877,-2.962553,-0.007455,0.016154,0.014865,0.004584,-0.458118,-0.888880,-0.003882,0.005634,0.002588,-22.389944,-16.530558,-38.087158,,,,,,,
1504280469.619111,0.005177,0.475595,-2.962315,-0.026708,0.014175,0.021239,0.004602,-0.457867,-0.889009,-0.001795,0.003918,0.003144,-22.464941,-16.530893,-38.087341,,,,,,,
1504280469.629121,0.005169,0.475228,-2.962078,-0.032117,0.005694,0.022312,0.004596,-0.457541,-0.889177,0.001065,0.002478,-0.001220,-22.464941,-16.530893,-38.087341,,,,,,,
1504280469.639131,0.005092,0.474932,-2.961900,-0.025755,-0.003941,0.014869,0.004528,-0.457278,-0.889312,0.001102,0.000964,0.001037,-22.463888,-16.906046,-38.009521,,,,,,,
1504280469.649140,0.004985,0.474774,-2.961873,-0.011927,-0.017892,0.001041,0.004433,-0.457137,-0.889385,0.003013,0.002548,0.005138,-22.463888,-16.906046,-38.009521,,,,,,,
1504280469.659150,0.004835,0.474682,-2.961982,-0.001269,-0.026492,-0.010667,0.004300,-0.457055,-0.889428,0.002841,0.006418,0.006463,-22.614294,-16.831415,-38.160431,,,,,,,
1504280469.669160,0.004664,0.474647,-2.962140,0.006239,-0.023353,-0.013862,0.004148,-0.457024,-0.889445,0.001543,0.007622,0.003992,-22.614294,-16.831415,-38.160431,,,,,,,
1504280469.679170,0.004529,0.474625,-2.962219,0.006365,-0.004180,-0.008558,0.004028,-0.457005,-0.889455,-0.004379,0.006779,0.003041,-22.315023,-16.455378,-38.012512,,,,,,,
1504280469.689179,0.004555,0.474548,-2.962165,0.003340,0.024604,0.002061,0.004051,-0.456937,-0.889490,-0.008049,0.006680,-0.000280,-22.315023,-16.455378,-38.012512,,,,,,,
1504280469.699189,0.004650,0.474424,-2.961938,-0.001865,0.047012,0.011621,0.004136,-0.456826,-0.889546,-0.013993,0.005822,-0.003383,-22.614935,-16.531565,-38.087708,,,,,,,
1504280469.709199,0.004814,0.474327,-2.961625,0.001344,0.052305,0.018023,0.004283,-0.456740,-0.889590,-0.013636,0.003996,-0.004483,-22.614935,-16.531565,-38.087708,,,,,,,
1504280469.719209,0.005066,0.474274,-2.961375,0.002397,0.048037,0.013764,0.004507,-0.456692,-0.889613,-0.008871,0.002347,-0.004323,-22.390661,-16.380106,-38.313293,,,,,,,
1504280469.729218,0.005206,0.474253,-2.961222,0.002197,0.020336,0.009543,0.004631,-0.456674,-0.889622,-0.003868,0.002085,-0.000576,-22.390661,-16.380106,-38.313293,,,,,,,
1504280469.739228,0.005267,0.474282,-2.961183,0.006311,-0.002069,0.004252,0.004685,-0.456700,-0.889609,0.002883,0.001484,-0.000177,-22.315466,-16.454767,-38.312531,,,,,,,
1504280469.749238,0.005202,0.474354,-2.961203,0.007261,-0.018057,0.002147,0.004628,-0.456764,-0.889576,0.004878,0.000740,0.001942,-22.315466,-16.454767,-38.312531,,,,,,,
1504280469.759248,0.005040,0.474422,-2.961188,0.003974,-0.025494,0.007491,0.004483,-0.456825,-0.889545,0.005817,0.000877,0.003071,-22.315664,-16.379770,-38.313110,,,,,,,
1504280469.769257,0.004816,0.474376,-2.961083,-0.008884,-0.026462,0.017076,0.004284,-0.456784,-0.889567,0.005192,0.001980,0.004603,-22.315664,-16.379770,-38.313110,,,,,,,
1504280469.779267,0.004525,0.474171,-2.960825,-0.023809,-0.018890,0.026644,0.004025,-0.456601,-0.889663,0.002322,0.001294,0.002913,-22.690695,-16.456156,-38.463470,,,,,,,
1504280469.789277,0.004297,0.473892,-2.960444,-0.024765,0.000290,0.035148,0.003823,-0.456353,-0.889791,-0.000039,0.001076,-0.000636,-22.690695,-16.456156,-38.463470,,,,,,,
1504280469.799287,0.004164,0.473617,-2.959979,-0.015063,0.016188,0.040474,0.003705,-0.456108,-0.889917,-0.002866,0.005546,-0.000220,-22.315130,-16.455225,-38.087524,,,,,,,
1504280469.809297,0.004005,0.473445,-2.959449,0.001949,0.011781,0.044781,0.003565,-0.455955,-0.889996,-0.003519,0.009559,0.001659,-22.315130,-16.455225,-38.087524,,,,,,,
1504280469.819306,0.003670,0.473414,-2.958946,0.018828,-0.013929,0.041654,0.003267,-0.455928,-0.890011,-0.002382,0.011607,0.000500,-22.540655,-16.380777,-38.313660,,,,,,,
1504280469.829316,0.003121,0.473542,-2.958519,0.031421,-0.043863,0.035325,0.002778,-0.456041,-0.889954,0.000381,0.011217,0.001466,-22.540655,-16.380777,-38.313660,,,,,,,
1504280469.839326,0.002330,0.473718,-2.958265,0.030204,-0.073670,0.017230,0.002073,-0.456198,-0.889876,0.000536,0.009391,0.001555,-22.465124,-16.455896,-38.087921,,,,,,,
1504280469.849336,0.000941,0.474313,-2.958204,0.089418,-0.152992,-0.002808,0.000837,-0.456727,-0.889606,-0.000669,0.006425,0.001545,-22.465124,-16.455896,-38.087921,,,,,,,
1504280469.859345,-0.001158,0.475186,-2.958594,0.048358,-0.245316,-0.046480,-0.001029,-0.457504,-0.889207,0.000419,0.001114,0.030732,-22.464834,-16.531046,-38.012329,,,,,,,
1504280469.869325,-0.003412,0.476170,-2.959353,0.013068,-0.267385,-0.063583,-0.003033,-0.458379,-0.888752,0.008892,-0.011668,0.070682,-22.689413,-16.607355,-37.862335,,,,,,,
1504280469.879334,-0.005377,0.476226,-2.959952,-0.000361,-0.202290,-0.047710,-0.004779,-0.458429,-0.888718,0.001361,0.006128,0.013749,-22.689413,-16.607355,-37.862335,,,,,,,
1504280469.889344,-0.006780,0.476345,-2.960093,-0.027478,-0.103005,-0.012708,-0.006025,-0.458534,-0.888656,-0.009997,0.001412,0.040939,-22.689413,-16.607355,-37.862335,,,,,,,
1504280469.899354,-0.007953,0.475699,-2.959486,-0.077856,0.022040,0.020079,-0.007070,-0.457960,-0.888945,-0.028544,0.007215,0.004774,-22.689901,-16.457209,-37.938477,,,,,,,
1504280469.909364,-0.007035,0.474560,-2.959080,-0.123996,0.135353,0.040079,-0.006258,-0.456947,-0.889472,-0.029356,0.006203,0.005301,-22.689901,-16.457209,-37.938477,,,,,,,
1504280469.919373,-0.005449,0.472995,-2.958623,-0.165174,0.190037,0.040979,-0.004851,-0.455554,-0.890195,-0.046129,0.001239,-0.014407,-22.765539,-16.157694,-37.865906,,,,,,,
1504280469.929383,-0.003597,0.471128,-2.958323,-0.190620,0.198790,0.022774,-0.003205,-0.453892,-0.891051,-0.043701,0.002720,-0.012590,-22.765539,-16.157694,-37.865906,,,,,,,
1504280469.939393,-0.001734,0.469343,-2.958234,-0.170361,0.185855,0.004686,-0.001546,-0.452300,-0.891864,-0.041514,0.003921,-0.020031,-22.540472,-16.231531,-37.939789,,,,,,,
1504280469.949403,-0.000764,0.467740,-2.958055,-0.117240,0.144940,-0.016495,-0.000682,-0.450870,-0.892589,-0.034382,0.006244,-0.018177,-22.540472,-16.231531,-37.939789,,,,,,,
1504280469.959413,0.000272,0.467049,-2.958304,-0.051628,0.073013,-0.023726,0.000243,-0.450253,-0.892901,-0.029708,0.007962,-0.000562,-22.691183,-16.081751,-38.166260,,,,,,,
1504280469.969422,0.000493,0.467103,-2.958592,0.025591,-0.011804,-0.025577,0.000440,-0.450302,-0.892876,-0.022489,0.010010,0.006692,-22.691183,-16.081751,-38.166260,,,,,,,
1504280469.979432,-0.000018,0.467841,-2.958936,0.086932,-0.084761,-0.033882,-0.000016,-0.450960,-0.892544,-0.016265,0.006747,0.014813,-22.616262,-16.006571,-38.091644,,,,,,,
1504280469.989442,-0.001438,0.469133,-2.959292,0.112097,-0.148893,-0.047600,-0.001283,-0.452113,-0.891960,-0.012588,0.003642,0.029380,-22.616262,-16.006571,-38.091644,,,,,,,
1504280469.999452,-0.002913,0.470249,-2.959937,0.108679,-0.184017,-0.060353,-0.002597,-0.453108,-0.891452,-0.008908,0.002913,0.032855,-22.616186,-16.081415,-38.166077,,,,,,,
1504280470.009461,-0.004497,0.471147,-2.960749,0.080938,-0.195491,-0.078527,-0.004007,-0.453909,-0.891039,-0.005621,0.000341,0.032488,-22.616186,-16.081415,-38.166077,,,,,,,
1504280470.019471,-0.005878,0.471579,-2.961785,0.028871,-0.180125,-0.096790,-0.005236,-0.454293,-0.890837,-0.007749,-0.002677,0.036894,-22.541418,-16.080774,-38.315918,,,,,,,
1504280470.029481,-0.007073,0.471792,-2.962861,-0.037026,-0.151874,-0.101224,-0.006300,-0.454483,-0.890733,-0.003038,-0.005722,0.032014,-22.541418,-16.080774,-38.315918,,,,,,,
1504280470.039491,-0.007749,0.470935,-2.963947,-0.100691,-0.103405,-0.093948,-0.006905,-0.453719,-0.891118,-0.001914,-0.009476,0.029164,-22.915838,-16.307474,-38.315155,,,,,,,
1504280470.049500,-0.007902,0.469536,-2.964908,-0.151491,-0.044390,-0.082398,-0.007047,-0.452473,-0.891750,-0.007571,-0.009685,0.025036,-22.915838,-16.307474,-38.315155,,,,,,,
1504280470.059510,-0.007556,0.467836,-2.965723,-0.170348,0.009028,-0.066514,-0.006744,-0.450956,-0.892521,-0.014328,-0.007387,0.025455,-22.765692,-16.232248,-38.090332,,,,,,,
1504280470.069520,-0.007365,0.466440,-2.966161,-0.162726,0.037716,-0.050539,-0.006578,-0.449710,-0.893151,-0.017561,-0.002179,0.026436,-22.765692,-16.232248,-38.090332,,,,,,,
1504280470.079530,-0.006803,0.464996,-2.966648,-0.136154,0.031093,-0.040875,-0.006080,-0.448419,-0.893803,-0.019005,0.005990,0.029682,-22.916555,-15.932764,-38.167938,,,,,,,
1504280470.089539,-0.006830,0.463866,-2.966970,-0.104364,0.003123,-0.041836,-0.006108,-0.447409,-0.894309,-0.013942,0.014197,0.030554,-22.916555,-15.932764,-38.167938,,,,,,,
1504280470.099549,-0.006845,0.463052,-2.967455,-0.074760,-0.031219,-0.042792,-0.006124,-0.446681,-0.894672,-0.007517,0.016993,0.024052,-22.690161,-16.307352,-37.864594,,,,,,,
1504280470.109559,-0.007145,0.462402,-2.967974,-0.064291,-0.059006,-0.046994,-0.006395,-0.446099,-0.894961,-0.000258,0.014977,0.017947,-22.690161,-16.307352,-37.864594,,,,,,,
1504280470.119569,-0.007455,0.461680,-2.968598,-0.062232,-0.070739,-0.051240,-0.006675,-0.445453,-0.895280,0.005820,0.009693,0.010347,-22.841818,-16.006830,-38.467224,,,,,,,
1504280470.129579,-0.007685,0.460855,-2.969303,-0.069694,-0.071737,-0.054454,-0.006883,-0.444714,-0.895646,0.009569,0.007550,0.000627,-22.841818,-16.006830,-38.467224,,,,,,,
1504280470.139558,-0.007957,0.459923,-2.970006,-0.079240,-0.066325,-0.057683,-0.007131,-0.443879,-0.896058,0.005361,0.008225,0.000902,-22.916861,-15.857615,-38.243500,,,,,,,
1504280470.149568,-0.008078,0.458866,-2.970702,-0.094038,-0.048088,-0.056673,-0.007243,-0.442931,-0.896526,0.005534,0.006606,-0.000874,-22.916861,-15.857615,-38.243500,,,,,,,
1504280470.159577,-0.008087,0.457661,-2.971398,-0.109863,-0.028770,-0.062072,-0.007254,-0.441851,-0.897059,0.001700,0.006029,-0.001256,-22.691259,-16.006907,-38.091827,,,,,,,
1504280470.169587,-0.007835,0.456376,-2.972098,-0.116008,0.004313,-0.061073,-0.007033,-0.440698,-0.897628,0.000105,0.005090,-0.001511,-22.691259,-16.006907,-38.091827,,,,,,,
1504280470.179597,-0.007089,0.455143,-2.972831,-0.111415,0.045834,-0.060071,-0.006367,-0.439591,-0.898176,0.003544,0.001633,-0.006426,-22.841818,-15.782572,-38.093903,,,,,,,
1504280470.189607,-0.006203,0.453899,-2.973431,-0.116561,0.073575,-0.053724,-0.005574,-0.438473,-0.898727,-0.003901,0.002240,-0.003510,-22.841818,-15.782572,-38.093903,,,,,,,
1504280470.199616,-0.005302,0.452568,-2.973873,-0.130489,0.075805,-0.038808,-0.004768,-0.437277,-0.899314,-0.003685,0.002325,-0.000191,-22.766256,-16.007242,-38.092010,,,,,,,
1504280470.209626,-0.004520,0.451003,-2.974223,-0.149823,0.063171,-0.033482,-0.004068,-0.435868,-0.900001,-0.003332,0.000916,-0.006737,-22.766256,-16.007242,-38.092010,,,,,,,
1504280470.219636,-0.003967,0.449302,-2.974687,-0.151065,0.032294,-0.048373,-0.003573,-0.434337,-0.900744,-0.003522,0.002635,-0.012510,-22.542395,-15.556223,-38.094849,,,,,,,
1504280470.229646,-0.003535,0.447661,-2.975509,-0.138457,-0.010402,-0.078163,-0.003187,-0.432858,-0.901456,0.003431,0.004147,-0.012469,-22.542395,-15.556223,-38.094849,,,,,,,
1504280470.239655,-0.003336,0.446291,-2.976660,-0.103458,-0.052220,-0.103647,-0.003009,-0.431622,-0.902049,0.006503,0.005307,-0.013509,-22.466970,-15.855448,-38.317413,,,,,,,
1504280470.249665,-0.003359,0.445317,-2.977974,-0.059869,-0.077076,-0.113134,-0.003031,-0.430744,-0.902469,0.007975,0.008777,-0.012036,-22.466970,-15.855448,-38.317413,,,,,,,
1504280470.259675,-0.003470,0.444807,-2.979217,-0.018234,-0.068900,-0.105605,-0.003133,-0.430284,-0.902688,0.004659,0.009691,-0.008002,-22.617056,-15.781275,-38.243347,,,,,,,
1504280470.269685,-0.003445,0.444614,-2.980332,-0.005277,-0.043442,-0.096021,-0.003110,-0.430109,-0.902772,0.002866,0.006067,-0.002883,-22.617056,-15.781275,-38.243347,,,,,,,
1504280470.279694,-0.003346,0.444382,-2.981277,-0.024370,-0.021985,-0.084350,-0.003021,-0.429900,-0.902871,-0.003006,0.002181,-0.001502,-22.692160,-15.781458,-38.318542,,,,,,,
1504280470.289704,-0.003210,0.443838,-2.982112,-0.064914,-0.017397,-0.076956,-0.002899,-0.429409,-0.903106,-0.002930,-0.002964,-0.005418,-22.692160,-15.781458,-38.318542,,,,,,,
1504280470.299714,-0.003200,0.442917,-2.982852,-0.104610,-0.036265,-0.063116,-0.002891,-0.428577,-0.903501,0.000129,-0.007550,-0.010318,-22.842459,-15.706980,-38.394440,,,,,,,
1504280470.309724,-0.003413,0.441692,-2.983434,-0.117612,-0.051093,-0.047101,-0.003085,-0.427470,-0.904024,0.001178,-0.006109,-0.017057,-22.842459,-15.706980,-38.394440,,,,,,,
1504280470.319734,-0.003842,0.440409,-2.983831,-0.108083,-0.053314,-0.036406,-0.003475,-0.426309,-0.904571,-0.003650,-0.001105,-0.021012,-22.692434,-15.631601,-38.244659,,,,,,,
1504280470.329743,-0.004331,0.439304,-2.984143,-0.088892,-0.051348,-0.031039,-0.003920,-0.425310,-0.905039,-0.005815,0.000826,-0.016286,-22.692434,-15.631601,-38.244659,,,,,,,
1504280470.339753,-0.004692,0.438406,-2.984493,-0.064240,-0.040889,-0.037418,-0.004248,-0.424497,-0.905420,-0.004862,0.002561,-0.015647,-22.618856,-15.106119,-38.323425,,,,,,,
1504280470.349763,-0.004822,0.437690,-2.984948,-0.043740,-0.018670,-0.048095,-0.004367,-0.423849,-0.905722,-0.005048,0.003164,-0.020639,-22.618856,-15.106119,-38.323425,,,,,,,
1504280470.359773,-0.004645,0.437206,-2.985510,-0.031869,-0.002781,-0.050237,-0.004208,-0.423410,-0.905928,-0.000370,-0.000403,-0.019288,-22.693670,-15.181452,-38.323029,,,,,,,
1504280470.369782,-0.004281,0.436799,-2.986075,-0.029669,0.008918,-0.044917,-0.003879,-0.423041,-0.906102,0.003361,-0.003427,-0.020290,-22.693670,-15.181452,-38.323029,,,,,,,
1504280470.379792,-0.004008,0.436425,-2.986461,-0.031932,0.003592,-0.027833,-0.003632,-0.422702,-0.906261,0.002579,-0.007306,-0.023579,-22.693289,-15.331461,-38.321899,,,,,,,
1504280470.389802,-0.003947,0.436023,-2.986659,-0.041744,-0.011264,-0.009679,-0.003577,-0.422338,-0.906432,0.003471,-0.010936,-0.024843,-22.693289,-15.331461,-38.321899,,,,,,,
1504280470.399812,-0.004173,0.435558,-2.986695,-0.046244,-0.033615,0.001027,-0.003783,-0.421916,-0.906627,0.002700,-0.013081,-0.028706,-22.468817,-15.254999,-38.546906,,,,,,,
1504280470.409791,-0.004664,0.435101,-2.986686,-0.037916,-0.058194,0.003219,-0.004230,-0.421502,-0.906818,0.002567,-0.012702,-0.032422,-22.468817,-15.254999,-38.546906,,,,,,,
1504280470.419801,-0.005340,0.434809,-2.986629,-0.010334,-0.074410,0.008632,-0.004843,-0.421237,-0.906938,0.003577,-0.008344,-0.031112,-22.693213,-15.406305,-38.396332,,,,,,,
1504280470.429810,-0.006116,0.434859,-2.986544,0.026912,-0.084309,0.011916,-0.005547,-0.421283,-0.906913,0.005653,-0.004041,-0.025277,-22.693213,-15.406305,-38.396332,,,,,,,
1504280470.439820,-0.006896,0.435281,-2.986483,0.063239,-0.080341,0.007702,-0.006253,-0.421665,-0.906730,0.004650,0.000355,-0.015435,-22.918447,-15.407022,-38.546875,,,,,,,
1504280470.449830,-0.007503,0.436005,-2.986483,0.095416,-0.063547,0.000257,-0.006801,-0.422322,-0.906421,0.004512,0.005055,-0.012143,-22.918447,-15.407022,-38.546875,,,,,,,
1504280470.459840,-0.007947,0.436949,-2.986577,0.112634,-0.050891,-0.009343,-0.007200,-0.423177,-0.906018,0.003889,0.007390,-0.007067,-22.842840,-15.556971,-38.395569,,,,,,,
1504280470.469850,-0.008270,0.437932,-2.986790,0.103132,-0.045472,-0.021110,-0.007489,-0.424067,-0.905600,0.003217,0.006007,-0.000284,-22.842840,-15.556971,-38.395569,,,,,,,
1504280470.479859,-0.008438,0.438753,-2.987198,0.079772,-0.042064,-0.038236,-0.007639,-0.424811,-0.905250,0.005045,0.002265,-0.002160,-23.142721,-15.558481,-38.321320,,,,,,,
1504280470.489869,-0.008452,0.439360,-2.987790,0.048976,-0.033268,-0.053249,-0.007649,-0.425360,-0.904992,0.005925,-0.003762,-0.005104,-23.142721,-15.558481,-38.321320,,,,,,,
1504280470.499879,-0.008216,0.439748,-2.988567,0.022433,-0.024511,-0.065052,-0.007434,-0.425711,-0.904829,0.009875,-0.007547,-0.003161,-23.516897,-15.935007,-38.394440,,,,,,,
1504280470.509889,-0.007794,0.439960,-2.989461,0.004426,-0.013695,-0.073643,-0.007051,-0.425904,-0.904741,0.012789,-0.007919,-0.001478,-23.516897,-15.935007,-38.394440,,,,,,,
1504280470.519898,-0.007194,0.440067,-2.990494,0.003496,-0.004081,-0.085404,-0.006509,-0.426000,-0.904700,0.013634,-0.003336,0.002035,-22.691931,-15.781748,-38.168518,,,,,,,
1504280470.529908,-0.006551,0.440150,-2.991607,0.017410,-0.003120,-0.092855,-0.005926,-0.426075,-0.904669,0.011908,0.004948,0.002248,-22.691931,-15.781748,-38.168518,,,,,,,
1504280470.539918,-0.005967,0.440266,-2.992755,0.039789,-0.008625,-0.097077,-0.005398,-0.426180,-0.904622,0.009365,0.014299,0.000539,-22.916601,-16.007471,-38.317413,,,,,,,
1504280470.549928,-0.005606,0.440587,-2.993828,0.066300,-0.023768,-0.089533,-0.005071,-0.426470,-0.904487,0.005757,0.017901,0.000541,-22.916601,-16.007471,-38.317413,,,,,,,
1504280470.559937,-0.005430,0.441091,-2.994776,0.078951,-0.035604,-0.078816,-0.004910,-0.426926,-0.904273,0.005826,0.018418,0.001624,-23.066854,-15.858286,-38.243896,,,,,,,
1504280470.569947,-0.005367,0.441535,-2.995682,0.061911,-0.033328,-0.082052,-0.004852,-0.427328,-0.904084,0.001617,0.016912,0.002671,-23.066854,-15.858286,-38.243896,,,,,,,
1504280470.579957,-0.005085,0.441702,-2.996629,0.029033,-0.009611,-0.084286,-0.004597,-0.427479,-0.904014,0.002445,0.013325,-0.000314,-22.615927,-16.007013,-37.866638,,,,,,,
1504280470.589967,-0.004467,0.441543,-2.997567,-0.007036,0.020517,-0.077997,-0.004039,-0.427335,-0.904084,0.004894,0.009306,-0.003539,-22.615927,-16.007013,-37.866638,,,,,,,
1504280470.599976,-0.003668,0.441145,-2.998347,-0.034643,0.047369,-0.062082,-0.003317,-0.426975,-0.904257,0.002508,0.006580,-0.000940,-22.691153,-16.007059,-38.016815,,,,,,,
1504280470.609986,-0.002822,0.440676,-2.998890,-0.041050,0.060187,-0.040767,-0.002552,-0.426551,-0.904460,0.001682,0.005653,0.003749,-22.691153,-16.007059,-38.016815,,,,,,,
1504280470.619982,-0.002084,0.440215,-2.999203,-0.037992,0.053750,-0.022605,-0.001885,-0.426134,-0.904658,0.001855,0.007586,0.007746,-22.992239,-15.707956,-38.244812,,,,,,,
1504280470.629992,-0.001506,0.439761,-2.999386,-0.044602,0.035678,-0.009776,-0.001363,-0.425723,-0.904852,0.004766,0.007938,0.014655,-22.992239,-15.707956,-38.244812,,,,,,,
1504280470.640002,-0.001103,0.439283,-2.999559,-0.052276,0.011232,-0.007613,-0.000999,-0.425291,-0.905056,0.010245,0.005491,0.015881,-22.466146,-16.006037,-38.016266,,,,,,,
1504280470.650011,-0.000807,0.438707,-2.999748,-0.054464,0.003794,-0.008672,-0.000730,-0.424769,-0.905301,0.010297,0.003932,0.008390,-22.466146,-16.006037,-38.016266,,,,,,,
1504280470.660021,-0.000498,0.438189,-2.999931,-0.046954,0.009063,-0.008669,-0.000451,-0.424300,-0.905521,0.008935,0.003051,0.005573,-22.692358,-15.706461,-38.319092,,,,,,,
1504280470.670031,-0.000391,0.437831,-2.999976,-0.023645,-0.003928,0.003136,-0.000354,-0.423976,-0.905673,0.004520,0.006939,0.008639,-22.692358,-15.706461,-38.319092,,,,,,,
1504280470.680010,-0.000612,0.437675,-2.999794,0.001687,-0.025469,0.023498,-0.000555,-0.423834,-0.905740,0.003118,0.011099,0.009270,-22.691717,-15.782053,-38.018524,,,,,,,
1504280470.690020,-0.001249,0.437760,-2.999436,0.025917,-0.056583,0.035336,-0.001131,-0.423912,-0.905703,0.000964,0.014091,0.012255,-22.691717,-15.782053,-38.018524,,,,,,,
1504280470.700030,-0.002109,0.438013,-2.999092,0.035374,-0.077967,0.030053,-0.001910,-0.424140,-0.905594,0.002291,0.012550,0.014847,-22.391409,-15.855860,-37.942230,,,,,,,
1504280470.710039,-0.002934,0.438280,-2.998920,0.031213,-0.075782,0.011896,-0.002656,-0.424383,-0.905479,0.003191,0.010274,0.013954,-22.391409,-15.855860,-37.942230,,,,,,,
1504280470.720049,-0.003451,0.438488,-2.998991,0.013343,-0.054302,-0.007386,-0.003125,-0.424571,-0.905389,0.004330,0.006129,0.014749,-22.466482,-15.781336,-37.867981,,,,,,,
1504280470.730059,-0.003627,0.438489,-2.999184,-0.019461,-0.025252,-0.014966,-0.003284,-0.424572,-0.905388,0.004337,0.001095,0.015770,-22.466482,-15.781336,-37.867981,,,,,,,
1504280470.740069,-0.003606,0.438154,-2.999337,-0.058749,0.000642,-0.010811,-0.003265,-0.424269,-0.905530,0.001663,-0.003359,0.014142,-22.692160,-15.557199,-37.945221,,,,,,,
1504280470.750078,-0.003383,0.437400,-2.999431,-0.103445,0.018055,-0.005582,-0.003064,-0.423586,-0.905851,0.002072,-0.007612,0.009244,-22.692160,-15.557199,-37.945221,,,,,,,
1504280470.760088,-0.003053,0.436246,-2.999482,-0.133313,0.022558,0.000762,-0.002767,-0.422540,-0.906340,0.005026,-0.006385,0.004897,-22.692053,-15.781610,-38.243530,,,,,,,
1504280470.770098,-0.002705,0.434879,-2.999534,-0.133344,0.019362,0.001835,-0.002454,-0.421300,-0.906918,0.008191,-0.001292,0.000393,-22.692053,-15.781610,-38.243530,,,,,,,
1504280470.780108,-0.002410,0.433731,-2.999584,-0.097078,0.016936,-0.000234,-0.002187,-0.420260,-0.907401,0.006063,0.002398,-0.001672,-22.692541,-15.407206,-37.946350,,,,,,,
1504280470.790118,-0.002183,0.433040,-2.999609,-0.044854,0.012241,0.003067,-0.001981,-0.419632,-0.907692,0.004743,0.007187,0.002113,-22.692541,-15.407206,-37.946350,,,,,,,
1504280470.800127,-0.002131,0.432734,-2.999533,-0.003363,0.002301,0.010628,-0.001934,-0.419354,-0.907821,0.002117,0.015256,0.008773,-22.693670,-15.181452,-38.323029,,,,,,,
1504280470.810137,-0.002272,0.432714,-2.999301,0.015656,-0.010659,0.026695,-0.002062,-0.419336,-0.907829,0.002078,0.013666,0.009818,-22.693670,-15.181452,-38.323029,,,,,,,
1504280470.820147,-0.002562,0.432639,-2.998953,-0.001502,-0.017982,0.032015,-0.002326,-0.419268,-0.907860,0.000906,0.008822,0.004387,-22.767721,-15.332544,-37.947083,,,,,,,
1504280470.830157,-0.002954,0.432325,-2.998575,-0.031392,-0.019867,0.031966,-0.002682,-0.418983,-0.907990,-0.001529,0.004310,-0.000106,-22.767721,-15.332544,-37.947083,,,,,,,
1504280470.840166,-0.003310,0.431684,-2.998264,-0.063350,-0.017466,0.025503,-0.003006,-0.418401,-0.908258,-0.002258,0.000386,-0.009787,-22.916708,-15.783060,-38.019073,,,,,,,
1504280470.850176,-0.003631,0.430815,-2.997963,-0.079268,-0.007744,0.023324,-0.003299,-0.417611,-0.908620,-0.005719,-0.000281,-0.014369,-22.916708,-15.783060,-38.019073,,,,,,,
1504280470.860186,-0.003926,0.429874,-2.997576,-0.074947,0.003932,0.030783,-0.003569,-0.416757,-0.909011,-0.008714,0.002740,-0.015610,-22.843512,-15.107569,-38.098969,,,,,,,
1504280470.870196,-0.004258,0.429007,-2.996956,-0.055746,0.016538,0.051076,-0.003873,-0.415968,-0.909371,-0.013736,0.007750,-0.015510,-22.843512,-15.107569,-38.098969,,,,,,,
1504280470.880205,-0.004683,0.428351,-2.996069,-0.026976,0.025865,0.072459,-0.004260,-0.415371,-0.909642,-0.018476,0.012768,-0.014339,-22.918325,-15.182917,-38.098572,,,,,,,
1504280470.890215,-0.005161,0.427936,-2.995000,0.002909,0.035192,0.084237,-0.004695,-0.414994,-0.909812,-0.022740,0.016693,-0.013421,-22.918325,-15.182917,-38.098572,,,,,,,
1504280470.900225,-0.005549,0.427722,-2.993810,0.023294,0.054193,0.090646,-0.005049,-0.414799,-0.909899,-0.025331,0.020146,-0.012495,-22.918142,-15.257914,-38.098022,,,,,,,
1504280470.910235,-0.005781,0.427687,-2.992654,0.029819,0.066927,0.085299,-0.005261,-0.414767,-0.909912,-0.025654,0.015368,-0.012100,-22.918142,-15.257914,-38.098022,,,,,,,
1504280470.920244,-0.005941,0.427673,-2.991621,0.027718,0.063755,0.072495,-0.005406,-0.414755,-0.909917,-0.025814,0.012701,-0.014414,-22.993521,-15.108255,-38.099335,,,,,,,
1504280470.930254,-0.006061,0.427674,-2.990810,0.024480,0.048877,0.055438,-0.005515,-0.414755,-0.909916,-0.020745,0.007437,-0.017406,-22.768850,-15.106791,-38.323792,,,,,,,
1504280470.940264,-0.006263,0.427820,-2.990163,0.029672,0.025397,0.045883,-0.005699,-0.414888,-0.909855,-0.016152,0.000719,-0.017010,-22.768850,-15.106791,-38.323792,,,,,,,
1504280470.950243,-0.006639,0.428162,-2.989636,0.035841,-0.007683,0.039549,-0.006040,-0.415200,-0.909710,-0.009905,-0.004142,-0.009571,-22.843298,-15.332132,-38.322296,,,,,,,
1504280470.960253,-0.007190,0.428643,-2.989200,0.041021,-0.031163,0.033195,-0.006539,-0.415637,-0.909507,-0.006065,-0.007046,-0.004678,-22.843298,-15.332132,-38.322296,,,,,,,
1504280470.970263,-0.007747,0.429228,-2.988829,0.046392,-0.030138,0.027866,-0.007044,-0.416169,-0.909260,-0.005086,-0.008789,-0.002407,-22.843069,-15.332422,-38.172272,,,,,,,
1504280470.980273,-0.008199,0.429865,-2.988479,0.046564,-0.010957,0.024631,-0.007453,-0.416748,-0.908992,-0.009225,-0.009125,0.001689,-22.843069,-15.332422,-38.172272,,,,,,,
1504280470.990282,-0.008442,0.430427,-2.988122,0.032930,0.016860,0.022424,-0.007672,-0.417259,-0.908755,-0.012668,-0.010124,0.003924,-22.843863,-15.107126,-38.323975,,,,,,,
1504280471.000292,-0.008461,0.430767,-2.987762,0.012902,0.045795,0.020205,-0.007688,-0.417568,-0.908613,-0.016741,-0.009647,0.001707,-22.843863,-15.107126,-38.323975,,,,,,,
1504280471.010302,-0.008240,0.430960,-2.987443,0.001335,0.064006,0.015884,-0.007486,-0.417743,-0.908534,-0.017263,-0.011959,-0.002858,-22.993521,-15.108255,-38.099335,,,,,,,
1504280471.020312,-0.007897,0.431099,-2.987179,-0.001807,0.068296,0.011603,-0.007174,-0.417869,-0.908479,-0.015805,-0.012032,-0.003890,-22.993521,-15.108255,-38.099335,,,,,,,
1504280471.030321,-0.007523,0.431228,-2.987041,0.005599,0.054390,0.002034,-0.006834,-0.417987,-0.908427,-0.011568,-0.007855,-0.002324,-22.693853,-15.106455,-38.323608,,,,,,,
1504280471.040331,-0.007258,0.431414,-2.987099,0.015088,0.028754,-0.016049,-0.006593,-0.418156,-0.908351,-0.008559,-0.002742,0.002162,-22.693853,-15.106455,-38.323608,,,,,,,
1504280471.050341,-0.007142,0.431671,-2.987394,0.029917,0.002013,-0.037324,-0.006487,-0.418389,-0.908245,-0.005720,0.001290,0.002681,-22.693747,-15.106607,-38.248596,,,,,,,
1504280471.060351,-0.007156,0.432031,-2.987869,0.048000,-0.014106,-0.052207,-0.006499,-0.418716,-0.908094,-0.006425,0.004791,-0.000414,-22.693747,-15.106607,-38.248596,,,,,,,
1504280471.070360,-0.007231,0.432533,-2.988444,0.058625,-0.022714,-0.057510,-0.006565,-0.419172,-0.907883,-0.006069,0.005827,0.000519,-22.468527,-15.105890,-38.098053,,,,,,,
1504280471.080370,-0.007415,0.433053,-2.988978,0.056449,-0.025898,-0.054305,-0.006730,-0.419644,-0.907664,-0.009093,0.005658,0.002665,-22.468527,-15.105890,-38.098053,,,,,,,
1504280471.090380,-0.007556,0.433459,-2.989452,0.044757,-0.016220,-0.047937,-0.006857,-0.420013,-0.907492,-0.009333,0.006057,0.000571,-22.767721,-15.332544,-37.947083,,,,,,,
1504280471.100390,-0.007539,0.433720,-2.989856,0.027816,0.004158,-0.041597,-0.006841,-0.420249,-0.907383,-0.008937,0.002464,-0.002651,-22.767721,-15.332544,-37.947083,,,,,,,
1504280471.110399,-0.007293,0.433856,-2.990151,0.016237,0.031944,-0.028857,-0.006617,-0.420372,-0.907328,-0.008321,0.001793,-0.004248,-22.692953,-15.331903,-38.096893,,,,,,,
1504280471.120409,-0.006829,0.433903,-2.990280,0.010999,0.055410,-0.010761,-0.006196,-0.420416,-0.907310,-0.005751,0.003454,-0.003029,-22.692953,-15.331903,-38.096893,,,,,,,
1504280471.130419,-0.006427,0.434029,-2.990170,0.023676,0.053151,0.010613,-0.005831,-0.420529,-0.907260,-0.006849,0.005063,0.000980,-22.693182,-15.331598,-38.246887,,,,,,,
1504280471.140429,-0.006235,0.434290,-2.989942,0.039441,0.027439,0.017091,-0.005656,-0.420767,-0.907151,-0.005620,0.007559,0.001557,-22.693182,-15.331598,-38.246887,,,,,,,
1504280471.150439,-0.006353,0.434719,-2.989777,0.054115,-0.009971,0.009711,-0.005762,-0.421156,-0.906970,-0.003806,0.007566,0.004840,-22.617208,-15.631571,-38.094482,,,,,,,
1504280471.160448,-0.006736,0.435282,-2.989785,0.066656,-0.050553,-0.003005,-0.006108,-0.421666,-0.906731,0.002202,0.007344,0.003532,-22.617208,-15.631571,-38.094482,,,,,,,
1504280471.170458,-0.007397,0.435929,-2.989922,0.073885,-0.085767,-0.011470,-0.006705,-0.422253,-0.906453,0.004844,0.005917,0.000280,-22.767721,-15.556787,-38.320404,,,,,,,
1504280471.180468,-0.008261,0.436675,-2.990097,0.073790,-0.099616,-0.014648,-0.007486,-0.422928,-0.906132,0.003274,0.001984,0.003285,-22.767721,-15.556787,-38.320404,,,,,,,
1504280471.190478,-0.009124,0.437428,-2.990287,0.071724,-0.093201,-0.017865,-0.008265,-0.423611,-0.905806,0.002222,-0.000156,0.001967,-22.917120,-15.707773,-38.169617,,,,,,,
1504280471.200487,-0.009868,0.438192,-2.990428,0.071860,-0.072962,-0.012563,-0.008935,-0.424303,-0.905476,-0.000983,-0.001249,0.002354,-22.917120,-15.707773,-38.169617,,,,,,,
1504280471.210497,-0.010439,0.438913,-2.990451,0.069829,-0.052711,-0.000861,-0.009450,-0.424955,-0.905165,-0.000530,0.001036,0.002791,-22.692160,-15.781458,-38.318542,,,,,,,
1504280471.220476,-0.010855,0.439597,-2.990382,0.062500,-0.031346,0.005493,-0.009823,-0.425575,-0.904870,-0.001881,0.000419,0.004601,-22.692160,-15.781458,-38.318542,,,,,,,
1504280471.230486,-0.011186,0.440227,-2.990284,0.055074,-0.024894,0.007604,-0.010119,-0.426145,-0.904598,-0.001218,-0.000842,0.006313,-22.541830,-15.781229,-38.093170,,,,,,,
1504280471.240496,-0.011435,0.440781,-2.990216,0.042346,-0.018391,0.003301,-0.010342,-0.426646,-0.904360,-0.000659,-0.002675,0.006761,-22.541830,-15.781229,-38.093170,,,,,,,
1504280471.250506,-0.011533,0.441176,-2.990291,0.020055,-0.012865,-0.010624,-0.010429,-0.427003,-0.904190,0.000465,-0.004881,0.006698,-23.141714,-15.784082,-38.019623,,,,,,,
1504280471.260515,-0.011554,0.441301,-2.990578,-0.007575,-0.012615,-0.032020,-0.010447,-0.427116,-0.904136,-0.001638,-0.004311,0.009071,-23.141714,-15.784082,-38.019623,,,,,,,
1504280471.270525,-0.011495,0.441210,-2.991012,-0.024625,-0.015663,-0.040584,-0.010394,-0.427034,-0.904176,0.000674,-0.005278,0.006272,-22.767019,-15.707239,-38.094269,,,,,,,
1504280471.280535,-0.011416,0.441055,-2.991506,-0.035315,-0.019834,-0.042730,-0.010323,-0.426893,-0.904243,0.002938,-0.008821,0.003975,-22.767019,-15.707239,-38.094269,,,,,,,
1504280471.290545,-0.011423,0.440863,-2.991987,-0.036444,-0.027285,-0.041652,-0.010330,-0.426720,-0.904325,0.003433,-0.006843,0.008451,-22.991705,-15.783396,-38.019257,,,,,,,
1504280471.300555,-0.011461,0.440700,-2.992452,-0.023670,-0.028459,-0.037358,-0.010366,-0.426572,-0.904394,0.003957,-0.003359,0.008016,-22.991705,-15.783396,-38.019257,,,,,,,
1504280471.310564,-0.011391,0.440702,-2.992839,-0.000130,-0.014808,-0.028803,-0.010303,-0.426575,-0.904394,0.005527,-0.001724,0.003774,-22.541143,-16.006372,-38.016449,,,,,,,
1504280471.320574,-0.011338,0.440766,-2.993118,0.007301,-0.014876,-0.021319,-0.010254,-0.426633,-0.904367,0.004104,0.004132,0.008416,-22.541143,-16.006372,-38.016449,,,,,,,
1504280471.330584,-0.011427,0.440793,-2.993267,0.006132,-0.020206,-0.009570,-0.010334,-0.426656,-0.904355,0.002018,0.007269,0.009518,-22.916708,-15.783060,-38.019073,,,,,,,
1504280471.340594,-0.011679,0.440761,-2.993309,0.005972,-0.034067,0.000061,-0.010563,-0.426628,-0.904366,0.003468,0.007164,0.000999,-22.916708,-15.783060,-38.019073,,,,,,,
1504280471.350603,-0.012109,0.440733,-2.993305,0.005815,-0.052182,0.002227,-0.010952,-0.426602,-0.904373,0.003780,0.004865,-0.002457,-23.217611,-15.558969,-38.246490,,,,,,,
1504280471.360613,-0.012706,0.440700,-2.993297,0.013175,-0.066094,0.001197,-0.011492,-0.426573,-0.904380,0.002840,0.007688,-0.002831,-23.217611,-15.558969,-38.246490,,,,,,,
1504280471.370623,-0.013190,0.440786,-2.993349,0.026070,-0.057668,-0.004133,-0.011929,-0.426651,-0.904338,0.006085,0.006134,-0.005651,-22.917242,-15.707621,-38.244629,,,,,,,
1504280471.380633,-0.013556,0.441050,-2.993456,0.042195,-0.045009,-0.008398,-0.012259,-0.426889,-0.904221,0.004217,0.005990,-0.004333,-22.917242,-15.707621,-38.244629,,,,,,,
1504280471.390642,-0.013882,0.441400,-2.993502,0.054007,-0.031260,-0.001997,-0.012551,-0.427206,-0.904067,0.000558,0.010015,-0.001603,-23.216818,-15.784266,-38.094818,,,,,,,
1504280471.400652,-0.014131,0.441815,-2.993416,0.054043,-0.018486,0.010790,-0.012774,-0.427581,-0.903887,0.000170,0.007308,-0.001432,-23.216818,-15.784266,-38.094818,,,,,,,
1504280471.410662,-0.014358,0.442263,-2.993178,0.048748,-0.006732,0.021434,-0.012976,-0.427986,-0.903692,-0.001855,0.003624,-0.000650,-22.991827,-15.783258,-38.094269,,,,,,,
1504280471.420672,-0.014558,0.442610,-2.992883,0.031733,0.000865,0.022459,-0.013154,-0.428299,-0.903541,-0.004103,0.002167,0.002388,-22.991827,-15.783258,-38.094269,,,,,,,
1504280471.430681,-0.014665,0.442789,-2.992659,0.013628,0.001020,0.016023,-0.013250,-0.428462,-0.903463,-0.002329,0.001353,0.002202,-22.916677,-15.708368,-37.869629,,,,,,,
1504280471.440691,-0.014806,0.442910,-2.992532,0.008215,-0.012781,0.009633,-0.013377,-0.428571,-0.903409,0.000758,-0.000903,0.001172,-22.916677,-15.708368,-37.869629,,,,,,,
1504280471.450701,-0.015035,0.443042,-2.992522,0.008091,-0.033018,0.002197,-0.013583,-0.428690,-0.903349,0.004413,-0.001806,0.002944,-23.142309,-15.633768,-38.170746,,,,,,,
1504280471.460711,-0.015421,0.443193,-2.992591,0.014371,-0.052243,-0.004163,-0.013931,-0.428826,-0.903280,0.004989,-0.000541,0.001485,-23.142309,-15.633768,-38.170746,,,,,,,
1504280471.470721,-0.015883,0.443409,-2.992668,0.027072,-0.063005,-0.000921,-0.014347,-0.429021,-0.903180,0.007923,0.001684,-0.001773,-23.141973,-15.634226,-37.945770,,,,,,,
1504280471.480730,-0.016393,0.443664,-2.992713,0.028164,-0.059816,-0.000925,-0.014806,-0.429252,-0.903063,0.006108,0.002296,-0.000272,-23.141973,-15.634226,-37.945770,,,,,,,
1504280471.490710,-0.016856,0.443867,-2.992736,0.027181,-0.049151,-0.000946,-0.015222,-0.429435,-0.902970,0.003442,0.004951,-0.000458,-23.066336,-15.933741,-38.018311,,,,,,,
1504280471.500719,-0.017148,0.443994,-2.992761,0.020957,-0.026722,-0.000996,-0.015485,-0.429549,-0.902911,0.001782,0.005416,-0.001859,-23.066336,-15.933741,-38.018311,,,,,,,
1504280471.510729,-0.017288,0.444062,-2.992753,0.017903,-0.007517,0.000032,-0.015610,-0.429611,-0.902879,-0.000442,0.006546,-0.003142,-23.065130,-16.234339,-37.716064,,,,,,,
1504280471.520739,-0.017301,0.444133,-2.992702,0.016933,0.007405,0.004274,-0.015622,-0.429675,-0.902848,-0.001544,0.004977,-0.001723,-23.065130,-16.234339,-37.716064,,,,,,,
1504280471.530749,-0.017179,0.444289,-2.992615,0.027664,0.017968,0.008544,-0.015510,-0.429816,-0.902783,-0.000054,0.005317,-0.000507,-23.215918,-16.009714,-37.868134,,,,,,,
1504280471.540758,-0.017006,0.444562,-2.992485,0.035149,0.022166,0.011751,-0.015352,-0.430063,-0.902669,0.000689,0.005380,0.002995,-23.215918,-16.009714,-37.868134,,,,,,,
1504280471.550768,-0.016809,0.444890,-2.992374,0.035106,0.016839,0.011760,-0.015172,-0.430358,-0.902531,0.003911,0.006011,0.007358,-22.990347,-16.233698,-37.865875,,,,,,,
1504280471.560778,-0.016652,0.445164,-2.992283,0.026463,0.004123,0.012834,-0.015028,-0.430606,-0.902415,0.007750,0.005313,0.008967,-22.990347,-16.233698,-37.865875,,,,,,,
1504280471.570788,-0.016501,0.445290,-2.992240,0.009334,-0.003192,0.012817,-0.014891,-0.430720,-0.902363,0.011839,0.004557,0.006565,-23.065847,-16.083887,-37.942200,,,,,,,
1504280471.580797,-0.016348,0.445216,-2.992194,-0.010953,-0.003025,0.015982,-0.014754,-0.430652,-0.902397,0.014006,0.004871,0.007927,-23.065847,-16.083887,-37.942200,,,,,,,
1504280471.590807,-0.016207,0.444982,-2.992061,-0.025951,-0.003975,0.026631,-0.014629,-0.430441,-0.902500,0.015987,0.004279,0.008930,-22.991446,-15.933252,-38.093140,,,,,,,
1504280471.600817,-0.016117,0.444691,-2.991816,-0.030254,-0.001816,0.037292,-0.014549,-0.430179,-0.902627,0.015174,0.003100,0.007790,-22.991446,-15.933252,-38.093140,,,,,,,
1504280471.610827,-0.016147,0.444427,-2.991404,-0.019675,-0.005111,0.050124,-0.014578,-0.429940,-0.902740,0.012411,0.004418,0.007323,-23.291601,-15.784906,-37.945007,,,,,,,
1504280471.620815,-0.016424,0.444303,-2.990758,0.002552,-0.015967,0.068327,-0.014828,-0.429829,-0.902789,0.008069,0.006245,0.004382,-23.291601,-15.784906,-37.945007,,,,,,,
1504280471.630825,-0.017000,0.444429,-2.989927,0.029094,-0.026850,0.076931,-0.015348,-0.429942,-0.902726,0.002378,0.007487,0.004639,-23.066778,-15.708887,-37.945007,,,,,,,
1504280471.640835,-0.017691,0.444803,-2.989085,0.048293,-0.030201,0.072701,-0.015969,-0.430280,-0.902554,-0.000648,0.006558,0.005521,-23.066778,-15.708887,-37.945007,,,,,,,
1504280471.650845,-0.018317,0.445269,-2.988363,0.052676,-0.024894,0.057756,-0.016530,-0.430700,-0.902344,-0.002971,0.006460,0.005707,-23.141562,-15.709528,-37.795197,,,,,,,
1504280471.660855,-0.018800,0.445731,-2.987806,0.040003,-0.017317,0.043844,-0.016962,-0.431118,-0.902136,-0.002585,0.002941,0.008292,-23.141562,-15.709528,-37.795197,,,,,,,
1504280471.670864,-0.019206,0.445997,-2.987362,0.011251,-0.016006,0.035253,-0.017326,-0.431358,-0.902015,-0.002647,-0.000756,0.009665,-23.141592,-15.784220,-37.944641,,,,,,,
1504280471.680874,-0.019558,0.446053,-2.986972,-0.013266,-0.014737,0.033074,-0.017643,-0.431408,-0.901984,-0.002544,-0.004352,0.008781,-23.141592,-15.784220,-37.944641,,,,,,,
1504280471.690884,-0.019939,0.445944,-2.986586,-0.027128,-0.014622,0.031983,-0.017988,-0.431310,-0.902024,-0.004061,-0.006220,0.006227,-22.991491,-15.783701,-37.869263,,,,,,,
1504280471.700894,-0.020333,0.445784,-2.986271,-0.031348,-0.015643,0.021304,-0.018344,-0.431166,-0.902086,-0.005825,-0.006838,0.006578,-22.991491,-15.783701,-37.869263,,,,,,,
1504280471.710903,-0.020706,0.445608,-2.986070,-0.031315,-0.017766,0.011702,-0.018682,-0.431006,-0.902156,-0.007029,-0.006051,0.007807,-23.141516,-15.859079,-38.019073,,,,,,,
1504280471.720913,-0.020948,0.445480,-2.985946,-0.024786,-0.006093,0.005289,-0.018902,-0.430891,-0.902206,-0.006336,-0.006014,0.006134,-23.141516,-15.859079,-38.019073,,,,,,,
1504280471.730923,-0.021062,0.445424,-2.985881,-0.015040,0.007684,-0.001122,-0.019006,-0.430841,-0.902228,-0.008506,-0.005408,0.005026,-22.916143,-16.008066,-38.017395,,,,,,,
1504280471.740933,-0.021108,0.445447,-2.985848,-0.007520,0.011886,-0.004318,-0.019047,-0.430861,-0.902217,-0.009381,-0.003923,0.006801,-22.916143,-16.008066,-38.017395,,,,,,,
1504280471.750942,-0.021069,0.445516,-2.985851,0.001044,0.013948,-0.006441,-0.019011,-0.430923,-0.902188,-0.007051,-0.002426,0.005780,-22.916677,-15.708368,-37.869629,,,,,,,
1504280471.760922,-0.021028,0.445660,-2.985885,0.009475,0.002154,-0.004271,-0.018973,-0.431053,-0.902127,0.000586,0.001015,0.003766,-22.916677,-15.708368,-37.869629,,,,,,,
1504280471.770931,-0.021107,0.445760,-2.985936,0.009344,-0.014894,-0.005308,-0.019043,-0.431144,-0.902082,0.000656,0.001105,0.003721,-23.216330,-15.934412,-38.018677,,,,,,,
1504280471.780941,-0.021216,0.445780,-2.986042,0.000743,-0.024410,-0.007442,-0.019141,-0.431162,-0.902072,0.004661,0.002542,0.003039,-23.216330,-15.934412,-38.018677,,,,,,,
1504280471.790951,-0.021269,0.445729,-2.986184,-0.005602,-0.017961,-0.008532,-0.019189,-0.431116,-0.902093,0.006479,0.000406,-0.000175,-22.842047,-15.558023,-37.870575,,,,,,,
1504280471.800961,-0.021184,0.445696,-2.986357,-0.010772,-0.000863,-0.013909,-0.019113,-0.431086,-0.902108,0.004312,-0.003499,-0.000953,-22.842047,-15.558023,-37.870575,,,,,,,
1504280471.810971,-0.020972,0.445613,-2.986559,-0.019174,0.013064,-0.018217,-0.018923,-0.431011,-0.902148,0.001574,-0.004200,0.001452,-23.142050,-15.559366,-37.871307,,,,,,,
1504280471.820980,-0.020665,0.445435,-2.986803,-0.033019,0.015311,-0.019313,-0.018647,-0.430851,-0.902231,0.002686,-0.005612,0.003152,-23.142050,-15.559366,-37.871307,,,,,,,
1504280471.830990,-0.020270,0.445148,-2.987055,-0.040534,0.013238,-0.012919,-0.018294,-0.430592,-0.902362,0.005370,-0.005428,-0.006528,-23.066854,-15.634043,-37.870575,,,,,,,
1504280471.841000,-0.020075,0.444782,-2.987176,-0.034141,0.014247,-0.009707,-0.018121,-0.430261,-0.902523,0.005197,-0.005759,-0.006367,-23.066854,-15.634043,-37.870575,,,,,,,
1504280471.851010,-0.019774,0.444521,-2.987325,-0.019171,0.018387,-0.009689,-0.017851,-0.430025,-0.902640,0.004148,-0.000761,-0.006463,-23.291861,-15.635050,-37.871124,,,,,,,
1504280471.861019,-0.019463,0.444336,-2.987446,-0.001084,0.015038,-0.005383,-0.017572,-0.429858,-0.902725,0.005624,0.006473,-0.005707,-23.291861,-15.635050,-37.871124,,,,,,,
1504280471.871029,-0.019227,0.444216,-2.987560,0.007366,0.005379,-0.004284,-0.017360,-0.429750,-0.902781,0.006618,0.009188,-0.004980,-23.067389,-15.558588,-38.096130,,,,,,,
1504280471.881039,-0.019177,0.444062,-2.987599,0.010456,-0.005306,0.000009,-0.017316,-0.429611,-0.902848,0.004087,0.012482,-0.006774,-23.067389,-15.558588,-38.096130,,,,,,,
1504280471.891049,-0.019169,0.443957,-2.987617,0.018973,-0.006442,0.001093,-0.017310,-0.429516,-0.902893,0.004035,0.012387,-0.010696,-22.991827,-15.783258,-38.094269,,,,,,,
1504280471.901058,-0.019204,0.443957,-2.987570,0.024277,-0.006491,0.006439,-0.017341,-0.429516,-0.902893,0.003516,0.010555,-0.009690,-22.991827,-15.783258,-38.094269,,,,,,,
1504280471.911068,-0.019174,0.444042,-2.987513,0.029696,0.005186,0.007495,-0.017313,-0.429593,-0.902857,0.003168,0.010816,-0.005575,-23.141333,-15.934076,-38.018494,,,,,,,
1504280471.921078,-0.019004,0.444190,-2.987437,0.039422,0.021090,0.007483,-0.017159,-0.429727,-0.902796,0.002236,0.010827,-0.009069,-23.141333,-15.934076,-38.018494,,,,,,,
1504280471.931088,-0.018766,0.444393,-2.987389,0.038373,0.021103,0.003212,-0.016943,-0.429910,-0.902713,0.001379,0.010125,-0.006253,-23.366629,-15.859934,-38.094635,,,,,,,
1504280471.941097,-0.018597,0.444544,-2.987426,0.030834,0.007322,-0.005317,-0.016789,-0.430046,-0.902651,0.001576,0.011070,-0.001646,-23.366629,-15.859934,-38.094635,,,,,,,
1504280471.951107,-0.018561,0.444616,-2.987499,0.025400,-0.005419,-0.006371,-0.016756,-0.430111,-0.902621,0.001589,0.009197,-0.006880,-23.216253,-16.009256,-38.093140,,,,,,,
1504280471.961117,-0.018611,0.444557,-2.987532,0.024276,-0.008612,-0.001030,-0.016801,-0.430058,-0.902645,-0.000228,0.008015,-0.000889,-23.216253,-16.009256,-38.093140,,,,,,,
1504280471.971127,-0.018626,0.444805,-2.987450,0.025426,0.008417,0.009616,-0.016813,-0.430281,-0.902538,-0.000216,0.008239,-0.000996,-23.290686,-16.234598,-38.091644,,,,,,,
1504280471.981137,-0.018569,0.444979,-2.987220,0.028716,0.026493,0.020264,-0.016760,-0.430439,-0.902464,-0.004389,0.006672,0.000303,-23.290686,-16.234598,-38.091644,,,,,,,
1504280471.991146,-0.018447,0.445164,-2.986844,0.025608,0.043558,0.028768,-0.016648,-0.430606,-0.902386,-0.007766,0.007358,0.004086,-23.216146,-16.009409,-38.018127,,,,,,,
1504280472.001156,-0.018290,0.445315,-2.986432,0.015990,0.043632,0.031954,-0.016505,-0.430742,-0.902324,-0.007329,0.005067,0.006267,-23.216146,-16.009409,-38.018127,,,,,,,
1504280472.011166,-0.018304,0.445298,-2.986014,-0.001162,0.030988,0.027678,-0.016519,-0.430727,-0.902331,-0.005103,0.003770,0.004428,-23.141226,-15.934229,-37.943512,,,,,,,
1504280472.021176,-0.018247,0.445233,-2.985773,-0.007693,0.010802,0.021298,-0.016467,-0.430668,-0.902360,-0.005155,0.003712,0.004457,-23.141226,-15.934229,-37.943512,,,,,,,
1504280472.031155,-0.018424,0.445175,-2.985517,-0.000303,-0.000978,0.018130,-0.016627,-0.430616,-0.902382,-0.005163,0.003583,0.002892,-23.216452,-15.934259,-38.093689,,,,,,,
1504280472.041165,-0.018699,0.445240,-2.985304,0.006062,-0.009550,0.011752,-0.016875,-0.430675,-0.902349,-0.006639,0.002467,0.008291,-23.216452,-15.934259,-38.093689,,,,,,,
1504280472.051174,-0.019096,0.445379,-2.985128,0.011386,-0.014918,0.005367,-0.017232,-0.430799,-0.902283,-0.011088,0.004164,0.013459,-23.215948,-16.084421,-38.017548,,,,,,,
1504280472.061184,-0.019487,0.445509,-2.984947,0.010337,-0.010653,0.008561,-0.017584,-0.430917,-0.902220,-0.010889,0.005212,0.013197,-23.215948,-16.084421,-38.017548,,,,,,,
1504280472.071194,-0.019870,0.445666,-2.984739,0.008163,-0.013837,0.011766,-0.017928,-0.431059,-0.902146,-0.010027,0.001951,0.012177,-22.916113,-15.933359,-37.867950,,,,,,,
1504280472.081204,-0.020359,0.445777,-2.984477,-0.000454,-0.022297,0.014969,-0.018368,-0.431159,-0.902089,-0.010242,-0.000710,0.011571,-22.916113,-15.933359,-37.867950,,,,,,,
1504280472.091213,-0.020870,0.445723,-2.984241,-0.015396,-0.024305,0.012813,-0.018829,-0.431110,-0.902103,-0.009705,-0.000286,0.007785,-23.215353,-16.234720,-37.866425,,,,,,,
1504280472.101223,-0.021265,0.445558,-2.984103,-0.021765,-0.024247,0.006398,-0.019187,-0.430962,-0.902166,-0.006264,-0.001548,0.004003,-23.215353,-16.234720,-37.866425,,,,,,,
1504280472.111233,-0.021590,0.445325,-2.984019,-0.027107,-0.025269,0.006391,-0.019483,-0.430752,-0.902260,-0.002749,-0.001728,0.001595,-23.291067,-16.084604,-38.092743,,,,,,,
1504280472.121243,-0.021949,0.445032,-2.983957,-0.028178,-0.028453,0.002126,-0.019810,-0.430487,-0.902380,-0.003078,0.000952,0.001272,-23.291067,-16.084604,-38.092743,,,,,,,
1504280472.131253,-0.022333,0.444727,-2.983931,-0.022832,-0.029560,-0.002132,-0.020159,-0.430211,-0.902503,-0.005018,0.004048,0.000282,-23.291967,-15.634897,-37.946136,,,,,,,
1504280472.141262,-0.022679,0.444485,-2.983951,-0.012146,-0.028581,-0.004250,-0.020474,-0.429993,-0.902600,-0.003543,0.004578,-0.002536,-23.291967,-15.634897,-37.946136,,,,,,,
1504280472.151272,-0.023068,0.444277,-2.983963,-0.006831,-0.030757,-0.004236,-0.020826,-0.429806,-0.902681,-0.004976,0.006344,-0.003111,-23.515875,-15.936365,-37.719452,,,,,,,
1504280472.161282,-0.023542,0.444162,-2.983893,0.010227,-0.028774,0.001128,-0.021256,-0.429701,-0.902721,-0.009506,0.009596,-0.002583,-23.515875,-15.936365,-37.719452,,,,,,,
1504280472.171292,-0.023959,0.444191,-2.983755,0.028388,-0.021473,0.007551,-0.021632,-0.429727,-0.902700,-0.008016,0.011026,-0.004802,-23.366110,-15.935389,-37.869049,,,,,,,
1504280472.181301,-0.024359,0.444370,-2.983595,0.031586,-0.021501,0.007558,-0.021991,-0.429889,-0.902614,-0.007138,0.010409,0.001766,-23.366110,-15.935389,-37.869049,,,,,,,
1504280472.191311,-0.024761,0.444556,-2.983495,0.029345,-0.035334,0.006511,-0.022352,-0.430057,-0.902525,-0.001970,0.009464,0.005186,-23.366476,-15.785395,-37.870178,,,,,,,
1504280472.201321,-0.025076,0.444668,-2.983449,0.023969,-0.039553,0.007576,-0.022635,-0.430158,-0.902470,0.005087,0.008283,-0.002483,-23.366476,-15.785395,-37.870178,,,,,,,
1504280472.211331,-0.025439,0.444733,-2.983375,0.016454,-0.043754,0.009705,-0.022962,-0.430217,-0.902434,0.005811,0.006679,-0.002489,-23.516592,-15.785913,-37.945557,,,,,,,
1504280472.221340,-0.025785,0.444656,-2.983294,0.001579,-0.035107,0.010731,-0.023275,-0.430147,-0.902459,0.004354,0.006808,-0.002327,-23.516592,-15.785913,-37.945557,,,,,,,
1504280472.231350,-0.025984,0.444466,-2.983201,-0.001463,-0.014835,0.010690,-0.023457,-0.429976,-0.902536,0.003056,0.006331,-0.009360,-23.216711,-15.784418,-38.019806,,,,,,,
1504280472.241360,-0.026039,0.444268,-2.983058,0.001920,0.009644,0.012788,-0.023509,-0.429797,-0.902619,-0.002614,0.007617,-0.009978,-23.216711,-15.784418,-38.019806,,,,,,,
1504280472.251370,-0.026059,0.444187,-2.982839,0.007291,0.017053,0.017054,-0.023527,-0.429723,-0.902654,-0.005724,0.007040,-0.004100,-23.366476,-15.785395,-37.870178,,,,,,,
1504280472.261379,-0.026231,0.444128,-2.982577,0.009289,0.001050,0.018154,-0.023683,-0.429670,-0.902675,-0.007231,0.008604,-0.001042,-23.366476,-15.785395,-37.870178,,,,,,,
1504280472.271389,-0.026496,0.444123,-2.982348,0.016649,-0.012863,0.017124,-0.023923,-0.429666,-0.902671,-0.003436,0.008112,-0.003503,-23.740728,-16.087076,-37.868866,,,,,,,
1504280472.281399,-0.026757,0.444261,-2.982188,0.030464,-0.021498,0.013961,-0.024157,-0.429790,-0.902606,0.001253,0.006374,-0.005064,-23.740728,-16.087076,-37.868866,,,,,,,
1504280472.291378,-0.026978,0.444560,-2.982077,0.040080,-0.021574,0.010776,-0.024353,-0.430061,-0.902471,0.002548,0.005012,-0.002314,-23.216253,-15.785013,-37.719818,,,,,,,
1504280472.301388,-0.027165,0.444857,-2.981978,0.031625,-0.014040,0.006478,-0.024518,-0.430329,-0.902339,0.000424,0.005478,0.003307,-23.216253,-15.785013,-37.719818,,,,,,,
1504280472.311398,-0.027290,0.445028,-2.981894,0.018930,-0.001148,0.005366,-0.024629,-0.430483,-0.902262,-0.002776,0.004153,0.002497,-23.366140,-16.010096,-38.018494,,,,,,,
1504280472.321408,-0.027267,0.445114,-2.981791,0.007333,0.017061,0.006382,-0.024607,-0.430561,-0.902226,-0.003713,0.000217,-0.001308,-23.366140,-16.010096,-38.018494,,,,,,,
1504280472.331417,-0.027110,0.445174,-2.981671,0.001038,0.030963,0.007414,-0.024464,-0.430615,-0.902204,-0.004604,-0.001483,0.001844,-23.740576,-16.012522,-37.644409,,,,,,,
1504280472.341427,-0.026894,0.445255,-2.981563,-0.008553,0.032107,0.007396,-0.024269,-0.430688,-0.902175,-0.004128,-0.004523,0.008986,-23.740576,-16.012522,-37.644409,,,,,,,
1504280472.351437,-0.026725,0.445277,-2.981457,-0.019331,0.019406,0.009534,-0.024116,-0.430708,-0.902169,-0.001229,-0.006181,0.012368,-23.216452,-15.934259,-38.093689,,,,,,,
1504280472.361447,-0.026654,0.445188,-2.981347,-0.026932,0.004548,0.012749,-0.024053,-0.430627,-0.902209,0.002538,-0.005377,0.011615,-23.216452,-15.934259,-38.093689,,,,,,,
1504280472.371456,-0.026659,0.445026,-2.981224,-0.034467,-0.002851,0.014884,-0.024059,-0.430482,-0.902279,0.003597,-0.005523,0.012005,-23.365683,-16.010691,-37.718506,,,,,,,
1504280472.381466,-0.026802,0.444855,-2.981110,-0.036659,-0.012420,0.011694,-0.024190,-0.430327,-0.902349,0.001104,-0.005770,0.014501,-23.365683,-16.010691,-37.718506,,,,,,,
1504280472.391476,-0.027018,0.444642,-2.981011,-0.031327,-0.015656,0.007440,-0.024388,-0.430134,-0.902435,-0.001308,-0.002422,0.010910,-23.441336,-15.711176,-37.645935,,,,,,,
1504280472.401486,-0.027340,0.444433,-2.980981,-0.019598,-0.023202,-0.003200,-0.024681,-0.429946,-0.902517,-0.004845,0.002379,0.008230,-23.441336,-15.711176,-37.645935,,,,,,,
1504280472.411495,-0.027734,0.444297,-2.980952,-0.001426,-0.020155,-0.005308,-0.025038,-0.429823,-0.902566,-0.010576,0.007323,0.005761,-23.515921,-16.011057,-37.868866,,,,,,,
1504280472.421505,-0.028143,0.444288,-2.980864,0.020983,-0.016086,0.000062,-0.025408,-0.429815,-0.902560,-0.012785,0.011220,0.000368,-23.515921,-16.011057,-37.868866,,,,,,,
1504280472.431515,-0.028655,0.444419,-2.980651,0.029495,-0.014036,0.007547,-0.025868,-0.429933,-0.902490,-0.016796,0.010073,0.001306,-23.441473,-15.785730,-37.870361,,,,,,,
1504280472.441525,-0.029150,0.444576,-2.980425,0.028395,-0.017229,0.008619,-0.026312,-0.430075,-0.902410,-0.015375,0.008719,0.000447,-23.441473,-15.785730,-37.870361,,,,,,,
1504280472.451534,-0.029550,0.444638,-2.980281,0.016675,-0.018194,0.003265,-0.026673,-0.430131,-0.902372,-0.010039,0.007844,-0.002703,-23.441824,-15.785273,-38.095367,,,,,,,
1504280472.461544,-0.029846,0.444591,-2.980260,0.002788,-0.023403,-0.002087,-0.026940,-0.430089,-0.902385,-0.003623,0.005162,-0.003743,-23.441824,-15.785273,-38.095367,,,,,,,
1504280472.471554,-0.030088,0.444462,-2.980289,-0.010055,-0.027561,-0.001034,-0.027161,-0.429972,-0.902434,0.001190,0.002177,-0.002901,-23.366858,-15.635386,-37.871307,,,,,,,
1504280472.481564,-0.030336,0.444306,-2.980287,-0.013285,-0.028604,0.003232,-0.027386,-0.429832,-0.902494,0.001675,-0.000344,-0.002765,-23.366858,-15.635386,-37.871307,,,,,,,
1504280472.491574,-0.030622,0.444198,-2.980204,-0.012247,-0.027554,0.010703,-0.027646,-0.429734,-0.902532,0.001935,-0.001754,0.000311,-23.666891,-15.487177,-37.648163,,,,,,,
1504280472.501583,-0.030897,0.444230,-2.979996,-0.002620,-0.018054,0.021377,-0.027893,-0.429763,-0.902511,0.001328,-0.006013,-0.000855,-23.666891,-15.487177,-37.648163,,,,,,,
1504280472.511593,-0.031126,0.444307,-2.979682,0.006011,-0.002148,0.027768,-0.028100,-0.429833,-0.902471,-0.002494,-0.002037,0.001348,-23.516897,-15.710764,-38.021118,,,,,,,
1504280472.521603,-0.031246,0.444387,-2.979343,0.005100,0.015976,0.025601,-0.028207,-0.429905,-0.902434,-0.005179,-0.001827,0.000593,-23.516897,-15.710764,-38.021118,,,,,,,
1504280472.531613,-0.031203,0.444417,-2.979051,0.000984,0.030933,0.019163,-0.028168,-0.429931,-0.902422,-0.007614,-0.000977,-0.000471,-23.440725,-16.085718,-37.868134,,,,,,,
1504280472.541622,-0.031005,0.444366,-2.978831,-0.006350,0.043786,0.012724,-0.027989,-0.429886,-0.902449,-0.007350,-0.000458,-0.001024,-23.440725,-16.085718,-37.868134,,,,,,,
1504280472.551632,-0.030688,0.444247,-2.978686,-0.019060,0.051355,0.006285,-0.027705,-0.429778,-0.902509,-0.008077,-0.002473,0.000440,-23.665945,-16.086435,-38.018677,,,,,,,
1504280472.561611,-0.030396,0.444155,-2.978591,-0.021180,0.048181,-0.001184,-0.027442,-0.429695,-0.902557,-0.011010,-0.006432,0.004272,-23.665945,-16.086435,-38.018677,,,,,,,
1504280472.571621,-0.030231,0.444160,-2.978562,-0.020193,0.034322,-0.006494,-0.027294,-0.429700,-0.902559,-0.012730,-0.011157,0.006090,-23.292013,-15.709604,-38.095581,,,,,,,
1504280472.581631,-0.030191,0.444273,-2.978528,-0.017123,0.019373,-0.003259,-0.027256,-0.429801,-0.902512,-0.011379,-0.013924,0.010407,-23.292013,-15.709604,-38.095581,,,,,,,
1504280472.591641,-0.030257,0.444424,-2.978437,-0.022583,0.007687,0.004224,-0.027313,-0.429938,-0.902445,-0.007965,-0.015374,0.015848,-23.517080,-15.635767,-38.021667,,,,,,,
1504280472.601650,-0.030403,0.444473,-2.978313,-0.038678,-0.001777,0.008483,-0.027445,-0.429982,-0.902420,-0.005896,-0.015773,0.019486,-23.517080,-15.635767,-38.021667,,,,,,,
1504280472.611660,-0.030609,0.444264,-2.978202,-0.063334,-0.016494,0.009534,-0.027633,-0.429794,-0.902504,-0.001557,-0.015397,0.017998,-23.517385,-15.560602,-38.097260,,,,,,,
1504280472.621680,-0.030932,0.443752,-2.978079,-0.087004,-0.036554,0.018067,-0.027932,-0.429331,-0.902715,0.003167,-0.013860,0.014409,-23.517385,-15.560602,-38.097260,,,,,,,
