timestamp(unix),attitude_roll(radians),attitude_pitch(radians),attitude_yaw(radians),rotation_rate_x(radians/s),rotation_rate_y(radians/s),rotation_rate_z(radians/s),gravity_x(G),gravity_y(G),gravity_z(G),user_acc_x(G),user_acc_y(G),user_acc_z(G),magnetic_field_x(microteslas),magnetic_field_y(microteslas),magnetic_field_z(microteslas),latitude(degree),longitude(degree),altitude(meter),speed(m/s),course(degree),timestamp(unix),User Mark
1504281062.478249,0.080249,0.058945,1.916786,0.317700,-0.034923,-0.114415,0.080023,-0.058911,-0.995051,-0.033515,-0.419284,0.126185,-18.952978,-12.909800,-40.730713,,,,,,,
1504281062.488231,0.079607,0.061451,1.915433,0.236199,-0.085403,-0.112332,0.079373,-0.061412,-0.994952,-0.049664,-0.398564,0.123080,-18.952978,-12.909800,-40.730713,,,,,,,
1504281062.498241,0.078270,0.062923,1.914283,0.127780,-0.159116,-0.098514,0.078036,-0.062881,-0.994966,-0.054720,-0.396439,0.100556,-18.951727,-13.359949,-40.652313,,,,,,,
1504281062.508251,0.076261,0.063382,1.913465,0.028982,-0.221203,-0.069756,0.076034,-0.063340,-0.995091,-0.054473,-0.410262,0.083501,-18.951727,-13.359949,-40.652313,,,,,,,
1504281062.518261,0.073593,0.063207,1.913024,-0.026101,-0.283655,-0.035584,0.073380,-0.063165,-0.995302,-0.048966,-0.411887,0.075670,-18.951468,-13.285547,-40.352875,,,,,,,
1504281062.528240,0.070496,0.062693,1.913003,-0.057501,-0.316471,0.003913,0.070299,-0.062652,-0.995556,-0.042269,-0.397782,0.090726,-18.951468,-13.285547,-40.352875,,,,,,,
1504281062.538250,0.067332,0.062024,1.913309,-0.069299,-0.306812,0.031628,0.067151,-0.061984,-0.995816,-0.039854,-0.380139,0.112667,-19.101095,-13.436228,-40.352142,,,,,,,
1504281062.548259,0.065008,0.061591,1.913697,-0.038629,-0.202644,0.038970,0.064839,-0.061552,-0.995996,-0.036992,-0.374956,0.128015,-19.101095,-13.436228,-40.352142,,,,,,,
1504281062.558269,0.064016,0.061610,1.914060,0.015936,-0.054967,0.031332,0.063851,-0.061571,-0.996058,-0.042779,-0.363753,0.167979,-19.251165,-13.362055,-40.278046,,,,,,,
1504281062.568279,0.064662,0.062352,1.914138,0.094156,0.102128,0.002371,0.064491,-0.062312,-0.995971,-0.062584,-0.368459,0.188705,-19.251165,-13.362055,-40.278046,,,,,,,
1504281062.578289,0.066733,0.063747,1.913672,0.155186,0.228488,-0.052184,0.066548,-0.063704,-0.995748,-0.058202,-0.376375,0.193944,-19.400488,-13.587870,-40.201752,,,,,,,
1504281062.588298,0.069345,0.065576,1.912491,0.202691,0.252682,-0.125795,0.069140,-0.065529,-0.995452,-0.051654,-0.360619,0.170028,-19.400488,-13.587870,-40.201752,,,,,,,
1504281062.598308,0.071450,0.067932,1.910321,0.268684,0.171256,-0.224806,0.071225,-0.067880,-0.995148,-0.051663,-0.358726,0.114533,-19.776007,-13.514109,-40.428223,,,,,,,
1504281062.608318,0.072324,0.070968,1.907156,0.342634,0.024751,-0.311946,0.072079,-0.070908,-0.994875,-0.045742,-0.374419,0.088976,-19.776007,-13.514109,-40.428223,,,,,,,
1504281062.618328,0.071792,0.074508,1.903463,0.388669,-0.110923,-0.346851,0.071531,-0.074439,-0.994657,-0.040037,-0.390680,0.096418,-19.175406,-13.885965,-40.648926,,,,,,,
1504281062.628338,0.070258,0.078284,1.899774,0.406040,-0.199523,-0.334924,0.069986,-0.078204,-0.994478,-0.060083,-0.390821,0.098421,-19.323751,-14.412088,-40.420349,,,,,,,
1504281062.638347,0.068344,0.082095,1.896407,0.400326,-0.222959,-0.296466,0.068061,-0.082002,-0.994305,-0.085075,-0.366362,0.097104,-19.323751,-14.412088,-40.420349,,,,,,,
1504281062.648357,0.066263,0.085815,1.893477,0.385088,-0.236727,-0.258041,0.065971,-0.085709,-0.994134,-0.097999,-0.343993,0.105462,-19.097998,-14.486826,-40.044220,,,,,,,
1504281062.658367,0.063791,0.089146,1.890785,0.335548,-0.286415,-0.245231,0.063495,-0.089028,-0.994003,-0.101947,-0.323784,0.111313,-19.097998,-14.486826,-40.044220,,,,,,,
1504281062.668377,0.060335,0.091826,1.888036,0.265358,-0.401970,-0.262227,0.060044,-0.091697,-0.993975,-0.090287,-0.320108,0.105074,-19.396765,-14.938334,-39.966614,,,,,,,
1504281062.678386,0.055360,0.093680,1.884966,0.179982,-0.565323,-0.305850,0.055089,-0.093543,-0.994090,-0.075124,-0.344033,0.086894,-19.396765,-14.938334,-39.966614,,,,,,,
1504281062.688396,0.049158,0.094652,1.881514,0.095009,-0.677533,-0.348496,0.048918,-0.094510,-0.994321,-0.062971,-0.381015,0.073575,-19.770330,-15.465158,-39.888580,,,,,,,
1504281062.698406,0.042693,0.094931,1.877773,0.029056,-0.669502,-0.375309,0.042488,-0.094788,-0.994590,-0.063225,-0.407821,0.080314,-19.770330,-15.465158,-39.888580,,,,,,,
1504281062.708416,0.037217,0.094751,1.873937,-0.011534,-0.546616,-0.383068,0.037042,-0.094609,-0.994825,-0.067574,-0.414088,0.105726,-20.069677,-15.542109,-39.588776,,,,,,,
1504281062.718425,0.033236,0.094408,1.870083,-0.021026,-0.399485,-0.383344,0.033082,-0.094268,-0.994997,-0.076143,-0.408753,0.141771,-20.069677,-15.542109,-39.588776,,,,,,,
1504281062.728435,0.030347,0.094142,1.866283,-0.012868,-0.307919,-0.374952,0.030208,-0.094003,-0.995113,-0.074596,-0.408591,0.161266,-20.369452,-15.543756,-39.439514,,,,,,,
1504281062.738445,0.027780,0.093921,1.862739,-0.013914,-0.286630,-0.345104,0.027654,-0.093783,-0.995209,-0.065907,-0.421109,0.164062,-20.369452,-15.543756,-39.439514,,,,,,,
1504281062.748455,0.025123,0.093544,1.859455,-0.035477,-0.301392,-0.323767,0.025011,-0.093408,-0.995314,-0.056063,-0.420401,0.154051,-20.594030,-15.620066,-39.289490,,,,,,,
1504281062.758464,0.022111,0.092818,1.856292,-0.076372,-0.339427,-0.314165,0.022014,-0.092685,-0.995452,-0.049220,-0.421155,0.145110,-20.594030,-15.620066,-39.289490,,,,,,,
1504281062.768474,0.018649,0.091619,1.853148,-0.124737,-0.384847,-0.316303,0.018570,-0.091491,-0.995633,-0.037613,-0.442781,0.142728,-20.592886,-16.070078,-39.286102,,,,,,,
1504281062.778484,0.015181,0.089980,1.849888,-0.168259,-0.366358,-0.331355,0.015119,-0.089859,-0.995840,-0.031965,-0.449661,0.151037,-20.592886,-16.070078,-39.286102,,,,,,,
1504281062.788494,0.012432,0.088127,1.846486,-0.179259,-0.281008,-0.342198,0.012383,-0.088013,-0.996042,-0.020272,-0.448593,0.167612,-21.043005,-15.847696,-38.988892,,,,,,,
1504281062.798504,0.010772,0.086514,1.843146,-0.148502,-0.161929,-0.328479,0.010732,-0.086407,-0.996202,-0.011693,-0.450077,0.194215,-21.043005,-15.847696,-38.988892,,,,,,,
1504281062.808513,0.010465,0.085378,1.840168,-0.098511,-0.020661,-0.284878,0.010427,-0.085274,-0.996303,-0.009099,-0.437111,0.216701,-20.892935,-15.921869,-39.062958,,,,,,,
1504281062.818523,0.011225,0.084759,1.837785,-0.047933,0.072630,-0.221978,0.011184,-0.084658,-0.996347,-0.002960,-0.421125,0.231363,-20.892935,-15.921869,-39.062958,,,,,,,
1504281062.828533,0.012421,0.084526,1.836045,-0.015954,0.109595,-0.156876,0.012377,-0.084426,-0.996353,0.013304,-0.418458,0.236679,-20.893347,-15.846567,-39.213531,,,,,,,
1504281062.838543,0.013387,0.084396,1.834879,-0.013309,0.073287,-0.103437,0.013339,-0.084296,-0.996351,0.023908,-0.411996,0.218489,-20.893347,-15.846567,-39.213531,,,,,,,
1504281062.848552,0.013785,0.084019,1.834194,-0.048099,0.020247,-0.058573,0.013736,-0.083920,-0.996378,0.029874,-0.416416,0.198969,-20.667898,-16.070414,-39.286285,,,,,,,
1504281062.858562,0.013615,0.082925,1.833851,-0.132985,-0.036626,-0.029800,0.013568,-0.082830,-0.996471,0.030392,-0.415720,0.183453,-20.667898,-16.070414,-39.286285,,,,,,,
1504281062.868541,0.012459,0.080683,1.833694,-0.259850,-0.149613,-0.017012,0.012418,-0.080595,-0.996670,0.028018,-0.415224,0.172817,-20.519033,-15.619730,-39.289307,,,,,,,
1504281062.878551,0.009509,0.076820,1.833582,-0.431101,-0.350667,-0.016954,0.009481,-0.076744,-0.997006,0.038234,-0.429848,0.149716,-20.519033,-15.619730,-39.289307,,,,,,,
1504281062.888561,0.004553,0.070960,1.833416,-0.634213,-0.535470,-0.020182,0.004541,-0.070900,-0.997473,0.055136,-0.451744,0.115393,-20.670263,-15.170252,-39.368073,,,,,,,
1504281062.898571,0.000054,0.063787,1.832938,-0.722958,-0.448388,-0.056781,0.000054,-0.063744,-0.997966,0.076774,-0.481850,0.080684,-20.670263,-15.170252,-39.368073,,,,,,,
1504281062.908580,-0.003468,0.056615,1.832129,-0.716375,-0.310948,-0.086900,-0.003463,-0.056585,-0.998392,0.081069,-0.543589,0.069925,-21.270971,-15.022501,-39.595673,,,,,,,
1504281062.918590,-0.005454,0.049751,1.831359,-0.669455,-0.170692,-0.071055,-0.005447,-0.049730,-0.998748,0.091797,-0.565764,0.088882,-21.270971,-15.022501,-39.595673,,,,,,,
1504281062.928600,-0.005711,0.043633,1.830557,-0.595317,0.023709,-0.077673,-0.005706,-0.043619,-0.999032,0.065993,-0.470908,0.181466,-21.346884,-14.573145,-39.449249,,,,,,,
1504281062.938610,-0.004195,0.038265,1.829810,-0.518329,0.182907,-0.070349,-0.004192,-0.038255,-0.999259,0.049877,-0.475798,0.151176,-21.346884,-14.573145,-39.449249,,,,,,,
1504281062.948620,-0.001414,0.033540,1.829208,-0.456584,0.309188,-0.054453,-0.001413,-0.033533,-0.999437,0.031229,-0.480001,0.173753,-20.898245,-14.120813,-39.601501,,,,,,,
1504281062.958629,0.002588,0.029420,1.828707,-0.395912,0.428030,-0.049221,0.002587,-0.029416,-0.999564,0.029456,-0.474491,0.159369,-20.898245,-14.120813,-39.601501,,,,,,,
1504281062.968639,0.007519,0.025861,1.828328,-0.341934,0.514952,-0.036472,0.007516,-0.025858,-0.999637,0.022162,-0.467291,0.156559,-20.675238,-13.593912,-40.054871,,,,,,,
1504281062.978649,0.013233,0.022868,1.828148,-0.283850,0.586912,-0.015150,0.013229,-0.022866,-0.999651,0.000442,-0.433189,0.154665,-20.675238,-13.593912,-40.054871,,,,,,,
1504281062.988659,0.019652,0.020415,1.828180,-0.235428,0.651492,0.006168,0.019647,-0.020414,-0.999599,-0.022226,-0.415957,0.153697,-20.226004,-13.516138,-40.429321,,,,,,,
1504281062.998668,0.025904,0.018096,1.828547,-0.237040,0.604584,0.040405,0.025897,-0.018095,-0.999501,-0.027804,-0.393038,0.186146,-20.226004,-13.516138,-40.429321,,,,,,,
1504281063.008678,0.030671,0.015332,1.829293,-0.294105,0.427064,0.073709,0.030662,-0.015331,-0.999412,-0.024330,-0.384327,0.189293,-19.401388,-13.362421,-40.428406,,,,,,,
1504281063.018688,0.033355,0.012111,1.830282,-0.329980,0.221680,0.092154,0.033347,-0.012111,-0.999370,-0.007498,-0.410481,0.134930,-19.401388,-13.362421,-40.428406,,,,,,,
1504281063.028698,0.034584,0.009209,1.831343,-0.273340,0.101863,0.095666,0.034575,-0.009209,-0.999360,0.003007,-0.412391,0.085373,-19.777487,-13.063669,-40.656586,,,,,,,
1504281063.038707,0.035753,0.007404,1.832275,-0.150362,0.129633,0.084089,0.035745,-0.007404,-0.999334,-0.012872,-0.393017,0.085439,-19.777487,-13.063669,-40.656586,,,,,,,
1504281063.048717,0.037469,0.006925,1.833077,-0.016504,0.187145,0.077815,0.037459,-0.006925,-0.999274,-0.034316,-0.371860,0.130103,-19.553427,-12.687647,-40.658875,,,,,,,
1504281063.058727,0.039638,0.007624,1.833969,0.087187,0.224632,0.098209,0.039626,-0.007624,-0.999186,-0.043609,-0.374853,0.137537,-19.553427,-12.687647,-40.658875,,,,,,,
1504281063.068737,0.041594,0.008894,1.835303,0.127060,0.177356,0.157069,0.041581,-0.008894,-0.999096,-0.032914,-0.384950,0.133815,-19.627966,-12.912836,-40.732361,,,,,,,
1504281063.078746,0.042349,0.010325,1.837545,0.136156,0.041848,0.255524,0.042334,-0.010325,-0.999050,-0.020545,-0.405294,0.130169,-19.627966,-12.912836,-40.732361,,,,,,,
1504281063.088756,0.041882,0.011527,1.840648,0.088810,-0.087855,0.342131,0.041867,-0.011526,-0.999057,-0.019040,-0.416910,0.104281,-19.402594,-13.061823,-40.730682,,,,,,,
1504281063.098766,0.039914,0.012105,1.844219,0.021451,-0.229042,0.358274,0.039900,-0.012104,-0.999130,0.001466,-0.405910,0.107422,-19.402594,-13.061823,-40.730682,,,,,,,
1504281063.108776,0.036428,0.011665,1.847391,-0.081884,-0.382636,0.294322,0.036418,-0.011664,-0.999269,0.014440,-0.417291,0.102220,-19.553732,-12.612497,-40.734436,,,,,,,
1504281063.118786,0.031405,0.009947,1.849574,-0.213796,-0.538075,0.181223,0.031399,-0.009947,-0.999457,0.007664,-0.410341,0.108054,-19.553732,-12.612497,-40.734436,,,,,,,
1504281063.128795,0.024852,0.006569,1.850297,-0.383860,-0.689956,0.022153,0.024849,-0.006569,-0.999670,-0.016243,-0.425331,0.109029,-20.078451,-12.764704,-40.809570,,,,,,,
1504281063.138805,0.017161,0.001473,1.849652,-0.546176,-0.785459,-0.102846,0.017160,-0.001473,-0.999852,-0.010034,-0.450034,0.106236,-20.078451,-12.764704,-40.809570,,,,,,,
1504281063.148815,0.009444,-0.004867,1.848411,-0.653571,-0.755776,-0.128702,0.009444,0.004867,-0.999944,-0.004057,-0.460540,0.084950,-20.753469,-12.618189,-40.587402,,,,,,,
1504281063.158825,0.002704,-0.011644,1.847252,-0.675111,-0.641589,-0.119334,0.002704,0.011643,-0.999929,-0.030841,-0.465638,0.094182,-20.753469,-12.618189,-40.587402,,,,,,,
1504281063.168834,-0.002776,-0.018071,1.845821,-0.625942,-0.516221,-0.150425,-0.002775,0.018070,-0.999833,-0.069262,-0.474979,0.122102,-21.355429,-11.796030,-40.520050,,,,,,,
1504281063.178844,-0.007256,-0.023691,1.844201,-0.539787,-0.422082,-0.160048,-0.007254,0.023688,-0.999693,-0.030344,-0.460029,0.139708,-21.355429,-11.796030,-40.520050,,,,,,,
1504281063.188854,-0.011091,-0.028359,1.842568,-0.443318,-0.366400,-0.159979,-0.011087,0.028355,-0.999536,-0.029044,-0.457646,0.131327,-21.731100,-11.572565,-40.597687,,,,,,,
1504281063.198864,-0.014370,-0.032112,1.840779,-0.354190,-0.307439,-0.180209,-0.014362,0.032107,-0.999381,-0.051602,-0.449832,0.116050,-21.731100,-11.572565,-40.597687,,,,,,,
1504281063.208873,-0.016998,-0.034963,1.838727,-0.264945,-0.237817,-0.206862,-0.016987,0.034956,-0.999244,-0.044948,-0.430479,0.088661,-21.806738,-11.273050,-40.525116,,,,,,,
1504281063.218853,-0.019037,-0.036952,1.836502,-0.183351,-0.183064,-0.220694,-0.019023,0.036943,-0.999136,-0.040349,-0.411654,0.065405,-21.806738,-11.273050,-40.525116,,,,,,,
1504281063.228862,-0.020544,-0.038356,1.834317,-0.136003,-0.128050,-0.213237,-0.020527,0.038347,-0.999054,-0.040248,-0.396730,0.047043,-21.881964,-11.273096,-40.675293,,,,,,,
1504281063.238872,-0.021517,-0.039744,1.832364,-0.149621,-0.077886,-0.183462,-0.021499,0.039734,-0.998979,-0.032029,-0.393234,0.028398,-21.881964,-11.273096,-40.675293,,,,,,,
1504281063.248882,-0.021965,-0.041648,1.830745,-0.209123,-0.025218,-0.148433,-0.021944,0.041636,-0.998892,-0.020323,-0.393077,0.016485,-21.881292,-11.273996,-40.225311,,,,,,,
1504281063.258892,-0.021828,-0.044157,1.829544,-0.265427,0.033807,-0.102737,-0.021805,0.044142,-0.998787,-0.012024,-0.397002,-0.002556,-21.881292,-11.273996,-40.225311,,,,,,,
1504281063.268901,-0.021141,-0.047107,1.828845,-0.303717,0.082019,-0.049518,-0.021116,0.047090,-0.998667,-0.001315,-0.405488,-0.004827,-22.031622,-11.274210,-40.450653,,,,,,,
1504281063.278911,-0.020167,-0.050231,1.828696,-0.311303,0.101205,0.004873,-0.020140,0.050209,-0.998536,0.009505,-0.409264,0.007142,-22.031622,-11.274210,-40.450653,,,,,,,
1504281063.288921,-0.019179,-0.053183,1.828970,-0.286984,0.095641,0.040149,-0.019150,0.053158,-0.998402,0.017457,-0.407147,0.011205,-21.807425,-11.047907,-40.601807,,,,,,,
1504281063.298931,-0.018305,-0.055734,1.829429,-0.244368,0.080469,0.051272,-0.018276,0.055705,-0.998280,0.026287,-0.405543,0.016591,-21.807425,-11.047907,-40.601807,,,,,,,
1504281063.308941,-0.017499,-0.057961,1.829764,-0.213353,0.077037,0.031051,-0.017469,0.057929,-0.998168,0.037168,-0.404090,0.028197,-21.433630,-10.745615,-40.903137,,,,,,,
1504281063.318950,-0.016721,-0.059915,1.829807,-0.189722,0.076876,-0.000930,-0.016691,0.059879,-0.998066,0.047101,-0.410083,0.027744,-21.433630,-10.745615,-40.903137,,,,,,,
1504281063.328960,-0.016074,-0.061761,1.829548,-0.183316,0.060867,-0.027576,-0.016043,0.061722,-0.997964,0.051917,-0.416504,0.030420,-21.583822,-10.671289,-40.904053,,,,,,,
1504281063.338970,-0.015729,-0.063586,1.829174,-0.181423,0.026759,-0.033917,-0.015696,0.063543,-0.997856,0.051219,-0.415564,0.029518,-21.583822,-10.671289,-40.904053,,,,,,,
1504281063.348980,-0.015926,-0.065324,1.829000,-0.171387,-0.035157,-0.006038,-0.015891,0.065277,-0.997741,0.049888,-0.415940,0.027068,-21.434576,-10.370615,-40.905945,,,,,,,
1504281063.358989,-0.016732,-0.066846,1.829263,-0.143316,-0.097243,0.042154,-0.016694,0.066797,-0.997627,0.042176,-0.419915,0.025612,-21.434576,-10.370615,-40.905945,,,,,,,
1504281063.368999,-0.018018,-0.067895,1.830130,-0.086403,-0.145730,0.105315,-0.017976,0.067843,-0.997534,0.034638,-0.421237,0.024084,-21.810278,-10.221857,-41.133026,,,,,,,
1504281063.379009,-0.019565,-0.068257,1.831567,-0.017481,-0.168726,0.154575,-0.019518,0.068204,-0.997480,0.024767,-0.421322,0.027845,-21.810278,-10.221857,-41.133026,,,,,,,
1504281063.389019,-0.021152,-0.068034,1.833267,0.038974,-0.170273,0.170687,-0.021102,0.067982,-0.997463,0.010054,-0.420857,0.038738,-21.809301,-10.297907,-40.607452,,,,,,,
1504281063.399028,-0.022607,-0.067338,1.834937,0.085051,-0.151462,0.161127,-0.022554,0.067287,-0.997479,-0.000593,-0.415202,0.042202,-21.809301,-10.297907,-40.607452,,,,,,,
1504281063.409038,-0.023769,-0.066187,1.836441,0.130250,-0.115583,0.140861,-0.023715,0.066139,-0.997529,-0.008023,-0.413581,0.036942,-22.034979,-10.073771,-40.684662,,,,,,,
1504281063.419048,-0.024540,-0.064644,1.837731,0.165887,-0.075361,0.119504,-0.024486,0.064599,-0.997611,-0.013966,-0.412530,0.042945,-22.034979,-10.073771,-40.684662,,,,,,,
1504281063.429058,-0.025053,-0.062822,1.838852,0.189599,-0.055293,0.103499,-0.025001,0.062781,-0.997714,-0.023537,-0.412985,0.049853,-22.184866,-10.074594,-40.610046,,,,,,,
1504281063.439068,-0.025646,-0.060838,1.839871,0.204461,-0.071389,0.092879,-0.025596,0.060801,-0.997822,-0.028924,-0.417200,0.052738,-22.184866,-10.074594,-40.610046,,,,,,,
1504281063.449077,-0.026603,-0.058650,1.840738,0.228755,-0.112065,0.076982,-0.026554,0.058616,-0.997927,-0.030651,-0.426887,0.048617,-21.884222,-10.373087,-40.682037,,,,,,,
1504281063.459087,-0.027950,-0.056107,1.841409,0.266998,-0.147520,0.053627,-0.027902,0.056078,-0.998036,-0.031531,-0.436067,0.048284,-21.884222,-10.373087,-40.682037,,,,,,,
1504281063.469097,-0.029659,-0.053130,1.841771,0.308522,-0.180858,0.017467,-0.029613,0.053105,-0.998150,-0.026585,-0.441960,0.058437,-22.033209,-10.599360,-40.380737,,,,,,,
1504281063.479107,-0.031679,-0.049758,1.841778,0.346897,-0.207777,-0.018711,-0.031634,0.049737,-0.998261,-0.025998,-0.432504,0.069413,-22.033209,-10.599360,-40.380737,,,,,,,
1504281063.489106,-0.033972,-0.046098,1.841460,0.369271,-0.232435,-0.051718,-0.033929,0.046082,-0.998361,-0.018775,-0.431915,0.069666,-22.482412,-10.826685,-40.230164,,,,,,,
1504281063.499116,-0.036484,-0.042304,1.840867,0.377777,-0.252724,-0.078353,-0.036444,0.042292,-0.998440,-0.015512,-0.435053,0.075085,-22.482412,-10.826685,-40.230164,,,,,,,
1504281063.509126,-0.039163,-0.038582,1.840062,0.364951,-0.267517,-0.097562,-0.039123,0.038572,-0.998490,-0.011017,-0.434202,0.078430,-22.481054,-11.276987,-40.076752,,,,,,,
1504281063.519136,-0.041805,-0.034993,1.839096,0.350221,-0.253523,-0.116826,-0.041767,0.034985,-0.998515,-0.004711,-0.435971,0.072810,-22.481054,-11.276987,-40.076752,,,,,,,
1504281063.529145,-0.044128,-0.031667,1.837939,0.317529,-0.217004,-0.135093,-0.044092,0.031662,-0.998526,-0.005850,-0.442886,0.072180,-22.930380,-11.504160,-40.001190,,,,,,,
1504281063.539155,-0.045815,-0.028820,1.836567,0.264842,-0.145157,-0.152389,-0.045780,0.028816,-0.998536,-0.009899,-0.440391,0.081696,-22.930380,-11.504160,-40.001190,,,,,,,
1504281063.549165,-0.046590,-0.026506,1.835129,0.210160,-0.046669,-0.154792,-0.046557,0.026503,-0.998564,-0.011167,-0.436873,0.078840,-22.779181,-11.804087,-39.698578,,,,,,,
1504281063.559144,-0.046289,-0.024841,1.833706,0.141626,0.059383,-0.148694,-0.046259,0.024838,-0.998621,-0.015723,-0.444058,0.080286,-22.779181,-11.804087,-39.698578,,,,,,,
1504281063.569154,-0.045064,-0.023882,1.832295,0.072935,0.145192,-0.143627,-0.045036,0.023879,-0.998700,-0.018425,-0.446655,0.083051,-23.153723,-12.030619,-39.772797,,,,,,,
1504281063.579164,-0.043196,-0.023506,1.830973,0.021046,0.202083,-0.131008,-0.043171,0.023504,-0.998791,-0.014080,-0.441976,0.079709,-23.153723,-12.030619,-39.772797,,,,,,,
1504281063.589173,-0.040966,-0.023495,1.829772,-0.010793,0.233231,-0.115107,-0.040943,0.023492,-0.998885,-0.007855,-0.440820,0.079253,-22.628195,-12.327967,-39.919250,,,,,,,
1504281063.599183,-0.038533,-0.023604,1.828742,-0.013961,0.249221,-0.095928,-0.038512,0.023602,-0.998979,-0.004975,-0.441708,0.082109,-22.628195,-12.327967,-39.919250,,,,,,,
1504281063.609193,-0.035992,-0.023659,1.828031,-0.005537,0.256576,-0.061769,-0.035974,0.023657,-0.999073,-0.003348,-0.438788,0.083133,-22.478231,-12.401987,-40.068329,,,,,,,
1504281063.619203,-0.033535,-0.023592,1.827666,0.008031,0.239380,-0.028626,-0.033520,0.023590,-0.999160,-0.004978,-0.434799,0.090163,-22.478231,-12.401987,-40.068329,,,,,,,
1504281063.629213,-0.032103,0.008562,1.827508,0.018584,0.194506,-0.012510,-0.032096,-0.008562,-0.999448,-0.006722,-0.400587,0.088300,-22.328909,-12.176172,-40.144653,,,,,,,
1504281063.639222,-0.030873,0.036342,1.827377,0.029074,0.134739,-0.016654,-0.030847,-0.036334,-0.998864,-0.002325,-0.367917,0.084770,-22.328909,-12.176172,-40.144653,,,,,,,
1504281063.649232,-0.029610,0.060478,1.827107,0.046040,0.082390,-0.031482,-0.029552,-0.060441,-0.997734,0.003719,-0.336547,0.082009,-22.254065,-12.026133,-39.995605,,,,,,,
1504281063.659242,-0.028449,0.081976,1.826587,0.082407,0.052271,-0.055924,-0.028350,-0.081884,-0.996239,0.006209,-0.310923,0.080925,-22.254065,-12.026133,-39.995605,,,,,,,
1504281063.669252,-0.027603,0.101777,1.825882,0.162309,0.003672,-0.072785,-0.027457,-0.101601,-0.994446,0.006736,-0.290916,0.077668,-22.103872,-12.324717,-40.367981,,,,,,,
1504281063.679261,-0.027411,0.120608,1.824895,0.216379,-0.080928,-0.105639,-0.027209,-0.120316,-0.992363,0.009295,-0.270019,0.090965,-22.103872,-12.324717,-40.367981,,,,,,,
1504281063.689271,-0.028873,0.122716,1.823729,0.203913,-0.184169,-0.124692,-0.028652,-0.122408,-0.992066,0.013012,-0.276243,0.168381,-22.178122,-12.400797,-39.992584,,,,,,,
1504281063.699281,-0.030861,0.124541,1.822494,0.167388,-0.217962,-0.128965,-0.030617,-0.124219,-0.991782,0.018944,-0.275805,0.116599,-22.178122,-12.400797,-39.992584,,,,,,,
1504281063.709291,-0.032580,0.125724,1.821261,0.094131,-0.169412,-0.123841,-0.032317,-0.125393,-0.991581,0.006926,-0.278919,0.115680,-22.402517,-12.552103,-39.842041,,,,,,,
1504281063.719300,-0.033291,0.126158,1.820168,0.024549,-0.051645,-0.102821,-0.033021,-0.125824,-0.991503,-0.001876,-0.276474,0.097963,-22.402517,-12.552103,-39.842041,,,,,,,
1504281063.729310,-0.032718,0.126077,1.819281,-0.022533,0.076595,-0.083915,-0.032453,-0.125743,-0.991532,-0.020648,-0.269795,0.057404,-22.478155,-12.252588,-39.769470,,,,,,,
1504281063.739320,-0.031091,0.125593,1.818519,-0.060211,0.175993,-0.071347,-0.030841,-0.125263,-0.991644,-0.014844,-0.282009,0.061514,-22.478155,-12.252588,-39.769470,,,,,,,
1504281063.749330,-0.028688,0.124817,1.817834,-0.083149,0.247569,-0.064041,-0.028461,-0.124493,-0.991812,-0.014294,-0.274860,0.056784,-22.027105,-12.849970,-40.063843,,,,,,,
1504281063.759339,-0.025801,0.123935,1.817206,-0.091386,0.288124,-0.058790,-0.025601,-0.123617,-0.992000,-0.011768,-0.272882,0.062266,-22.027105,-12.849970,-40.063843,,,,,,,
1504281063.769349,-0.022766,0.123002,1.816622,-0.094540,0.296671,-0.054541,-0.022592,-0.122692,-0.992188,-0.005729,-0.280735,0.070343,-21.952902,-12.400080,-39.842041,,,,,,,
1504281063.779359,-0.019803,0.122041,1.816019,-0.098883,0.283925,-0.059863,-0.019654,-0.121739,-0.992368,-0.004104,-0.286098,0.076367,-21.952902,-12.400080,-39.842041,,,,,,,
1504281063.789369,-0.017171,0.121105,1.815329,-0.092766,0.242326,-0.069386,-0.017044,-0.120809,-0.992529,-0.000152,-0.289500,0.082678,-21.803915,-12.173807,-40.143341,,,,,,,
1504281063.799379,-0.015091,0.120426,1.814549,-0.057995,0.182375,-0.077759,-0.014981,-0.120135,-0.992644,0.007153,-0.291745,0.086379,-21.803915,-12.173807,-40.143341,,,,,,,
1504281063.809388,-0.013674,0.120227,1.813748,-0.006245,0.114818,-0.079685,-0.013575,-0.119937,-0.992689,0.014383,-0.293362,0.090986,-21.504293,-12.022455,-40.143738,,,,,,,
1504281063.819398,-0.013022,0.120581,1.812930,0.047534,0.033393,-0.082650,-0.012927,-0.120289,-0.992655,0.014956,-0.289226,0.100183,-21.504293,-12.022455,-40.143738,,,,,,,
1504281063.829408,-0.013163,0.121389,1.812119,0.089609,-0.040482,-0.080312,-0.013066,-0.121091,-0.992555,0.016941,-0.286700,0.098970,-21.579153,-12.172495,-40.292786,,,,,,,
1504281063.839418,-0.013868,0.122501,1.811374,0.114782,-0.090780,-0.073776,-0.013764,-0.122194,-0.992411,0.018937,-0.287565,0.097818,-21.579153,-12.172495,-40.292786,,,,,,,
1504281063.849427,-0.014920,0.123715,1.810713,0.120893,-0.121741,-0.065171,-0.014806,-0.123400,-0.992247,0.017216,-0.286894,0.099256,-21.353476,-12.396631,-40.215576,,,,,,,
1504281063.859437,-0.016168,0.124885,1.810133,0.112216,-0.133401,-0.055559,-0.016041,-0.124561,-0.992082,0.016194,-0.286374,0.096834,-21.353476,-12.396631,-40.215576,,,,,,,
1504281063.869447,-0.017335,0.125974,1.809687,0.106949,-0.116323,-0.041722,-0.017197,-0.125641,-0.991927,0.014801,-0.284668,0.094481,-21.803122,-12.623362,-40.364990,,,,,,,
1504281063.879457,-0.018302,0.126993,1.809317,0.097488,-0.096003,-0.037505,-0.018154,-0.126652,-0.991781,0.013256,-0.279552,0.101415,-21.803122,-12.623362,-40.364990,,,,,,,
1504281063.889436,-0.019043,0.127823,1.808894,0.075297,-0.074499,-0.046120,-0.018886,-0.127476,-0.991662,0.014843,-0.279965,0.103524,-21.802145,-12.923655,-40.212738,,,,,,,
1504281063.899446,-0.019616,0.128401,1.808391,0.049835,-0.060430,-0.052594,-0.019453,-0.128048,-0.991577,0.017576,-0.279850,0.096832,-21.802145,-12.923655,-40.212738,,,,,,,
1504281063.909455,-0.020020,0.128673,1.807795,0.018013,-0.043108,-0.062286,-0.019853,-0.128318,-0.991534,0.014756,-0.278146,0.093280,-21.802221,-12.848810,-40.138275,,,,,,,
1504281063.919465,-0.020159,0.128616,1.807153,-0.014810,-0.012998,-0.064531,-0.019991,-0.128262,-0.991539,0.013094,-0.283725,0.090935,-21.802221,-12.848810,-40.138275,,,,,,,
1504281063.929475,-0.019452,0.145829,1.806458,-0.049635,0.016051,-0.059305,-0.019245,-0.145313,-0.989199,0.009921,-0.269833,0.089067,-21.427572,-12.622431,-39.989044,,,,,,,
1504281063.939485,-0.018947,0.160683,1.805897,-0.075033,0.029034,-0.048693,-0.018702,-0.159992,-0.986941,0.006785,-0.252224,0.081286,-21.427572,-12.622431,-39.989044,,,,,,,
1504281063.949495,-0.018361,0.173644,1.805434,-0.093030,0.034500,-0.040191,-0.018084,-0.172773,-0.984796,0.006518,-0.235949,0.078012,-21.652563,-12.623438,-39.989624,,,,,,,
1504281063.959504,-0.017389,0.185195,1.804889,-0.100389,0.030298,-0.043402,-0.017091,-0.184138,-0.982752,0.009370,-0.221837,0.080027,-21.652563,-12.623438,-39.989624,,,,,,,
1504281063.969514,-0.016329,0.195400,1.804258,-0.100483,0.003656,-0.044430,-0.016018,-0.194159,-0.980839,0.011760,-0.207590,0.075978,-21.577902,-12.622644,-40.214447,,,,,,,
1504281063.979524,-0.016071,0.204437,1.803743,-0.077228,-0.032774,-0.038989,-0.015735,-0.203016,-0.979049,0.008503,-0.191592,0.067230,-21.577902,-12.622644,-40.214447,,,,,,,
1504281063.989534,-0.016561,0.212744,1.803419,-0.036843,-0.057625,-0.029264,-0.016187,-0.211143,-0.977321,0.004758,-0.177132,0.062099,-21.728430,-12.323618,-40.067047,,,,,,,
1504281063.999543,-0.017478,0.220752,1.803255,0.012150,-0.071892,-0.018473,-0.017053,-0.218964,-0.975584,0.002283,-0.165802,0.063078,-21.728430,-12.323618,-40.067047,,,,,,,
1504281064.009553,-0.018725,0.228664,1.803258,0.051592,-0.079684,-0.008775,-0.018236,-0.226676,-0.973799,-0.000013,-0.158578,0.064894,-21.653845,-12.247980,-40.217438,,,,,,,
1504281064.019563,-0.019925,0.236345,1.803364,0.067672,-0.072367,0.001922,-0.019370,-0.234150,-0.972007,-0.000253,-0.154277,0.063591,-21.653845,-12.247980,-40.217438,,,,,,,
1504281064.029573,-0.020870,0.243572,1.803543,0.059284,-0.056323,0.011492,-0.020252,-0.241171,-0.970271,0.000324,-0.151056,0.059505,-21.802374,-12.699106,-39.989410,,,,,,,
1504281064.039582,-0.021434,0.250371,1.803762,0.037010,-0.041233,0.022103,-0.020765,-0.247763,-0.968598,0.002576,-0.151971,0.056840,-21.802374,-12.699106,-39.989410,,,,,,,
1504281064.049592,-0.021509,0.256712,1.804008,0.012640,-0.021864,0.031631,-0.020803,-0.253901,-0.967006,0.006124,-0.151097,0.057476,-21.803808,-12.173960,-40.068329,,,,,,,
1504281064.059602,-0.021239,0.262600,1.804281,-0.004285,-0.005753,0.040108,-0.020509,-0.259593,-0.965500,0.008485,-0.146581,0.062958,-21.803808,-12.173960,-40.068329,,,,,,,
1504281064.069612,-0.020904,0.268081,1.804555,-0.014900,-0.006734,0.039019,-0.020156,-0.264882,-0.964070,0.009307,-0.142070,0.065663,-21.802557,-12.624109,-39.989990,,,,,,,
1504281064.079621,-0.020632,0.273170,1.804752,-0.016978,-0.013102,0.028348,-0.019865,-0.269785,-0.962716,0.009108,-0.137121,0.062172,-21.802557,-12.624109,-39.989990,,,,,,,
1504281064.089631,-0.020695,0.277982,1.804824,-0.013683,-0.021632,0.005953,-0.019899,-0.274416,-0.961405,0.005281,-0.132017,0.061182,-21.503057,-12.472605,-40.065338,,,,,,,
1504281064.099641,-0.020852,0.282569,1.804684,-0.016823,-0.033306,-0.015380,-0.020023,-0.278823,-0.960134,0.004765,-0.128876,0.060491,-21.503057,-12.472605,-40.065338,,,,,,,
1504281064.109651,-0.021192,0.286886,1.804476,-0.027510,-0.043870,-0.019649,-0.020325,-0.282967,-0.958914,0.003372,-0.128410,0.056036,-21.802374,-12.699106,-39.989410,,,,,,,
1504281064.119661,-0.021782,0.290924,1.804323,-0.041325,-0.042690,-0.019670,-0.020865,-0.286837,-0.957752,-0.000360,-0.130094,0.050968,-21.802374,-12.699106,-39.989410,,,,,,,
1504281064.129670,-0.022405,0.294787,1.804233,-0.039155,-0.039516,-0.013264,-0.021436,-0.290536,-0.956624,-0.001070,-0.129569,0.046987,-21.727331,-12.848322,-40.213104,,,,,,,
1504281064.139680,-0.023167,0.298521,1.804298,-0.026260,-0.027907,-0.004716,-0.022140,-0.294107,-0.955516,-0.004700,-0.124427,0.046871,-21.727331,-12.848322,-40.213104,,,,,,,
1504281064.149690,-0.023970,0.302194,1.804470,-0.011205,-0.015246,-0.000434,-0.022881,-0.297615,-0.954412,-0.007575,-0.118065,0.049749,-21.652563,-12.623438,-39.989624,,,,,,,
1504281064.159700,-0.024587,0.305714,1.804604,-0.001587,-0.018519,-0.001473,-0.023445,-0.300974,-0.953344,-0.005318,-0.112982,0.045965,-21.652563,-12.623438,-39.989624,,,,,,,
1504281064.169709,-0.025436,0.309022,1.804702,-0.001607,-0.031293,-0.011050,-0.024228,-0.304127,-0.952323,-0.008395,-0.109219,0.039543,-21.877035,-12.699900,-39.764587,,,,,,,
1504281064.179719,-0.026486,0.312078,1.804608,-0.014372,-0.047141,-0.037721,-0.025204,-0.307037,-0.951364,-0.011188,-0.107407,0.035119,-21.877035,-12.699900,-39.764587,,,,,,,
1504281064.189729,-0.027373,0.314929,1.804081,-0.027135,-0.067245,-0.071859,-0.026024,-0.309749,-0.950462,-0.007118,-0.109089,0.029884,-21.652075,-12.773584,-39.913483,,,,,,,
1504281064.199739,-0.028179,0.317534,1.803223,-0.034527,-0.076749,-0.096401,-0.026767,-0.312224,-0.949631,-0.005658,-0.106187,0.025773,-21.652075,-12.773584,-39.913483,,,,,,,
1504281064.209748,-0.029148,0.320143,1.802276,-0.028030,-0.075722,-0.108126,-0.027663,-0.314702,-0.948787,-0.009874,-0.105372,0.029537,-21.877905,-12.624002,-40.215179,,,,,,,
1504281064.219758,-0.030195,0.322894,1.801248,-0.014126,-0.081152,-0.117692,-0.028631,-0.317312,-0.947889,-0.011469,-0.105570,0.033475,-21.877905,-12.624002,-40.215179,,,,,,,
1504281064.229737,-0.031069,0.325725,1.800060,0.001930,-0.085534,-0.129393,-0.029431,-0.319996,-0.946962,-0.008121,-0.104015,0.033815,-22.102072,-12.775614,-39.914581,,,,,,,
1504281064.239747,-0.031861,0.328606,1.798751,0.018048,-0.081392,-0.140042,-0.030151,-0.322724,-0.946013,-0.007874,-0.100768,0.032637,-22.102072,-12.775614,-39.914581,,,,,,,
1504281064.249757,-0.032566,0.331522,1.797310,0.030932,-0.082550,-0.152822,-0.030788,-0.325483,-0.945047,-0.007558,-0.096713,0.034814,-21.877295,-12.774302,-40.064026,,,,,,,
1504281064.259767,-0.033328,0.334348,1.795682,0.030886,-0.102776,-0.170928,-0.031477,-0.328154,-0.944100,-0.006899,-0.092836,0.034615,-21.877295,-12.774302,-40.064026,,,,,,,
1504281064.269777,-0.034197,0.336989,1.793781,0.025420,-0.136806,-0.194359,-0.032267,-0.330647,-0.943203,-0.003988,-0.089840,0.029278,-22.102606,-12.475901,-39.766846,,,,,,,
1504281064.279786,-0.035162,0.339542,1.791604,0.027394,-0.170904,-0.212440,-0.033148,-0.333055,-0.942325,-0.000422,-0.088683,0.026049,-22.102606,-12.475901,-39.766846,,,,,,,
1504281064.289796,-0.036285,0.342136,1.789251,0.034802,-0.191195,-0.228403,-0.034174,-0.335500,-0.941420,0.000056,-0.086832,0.029570,-22.101507,-13.000605,-39.912903,,,,,,,
1504281064.299806,-0.037631,0.344696,1.786785,0.049443,-0.207218,-0.240959,-0.035409,-0.337910,-0.940512,-0.001838,-0.079906,0.030249,-22.101507,-13.000605,-39.912903,,,,,,,
1504281064.309816,-0.039070,0.347272,1.784295,0.066591,-0.203091,-0.246271,-0.036728,-0.340334,-0.939587,-0.004501,-0.074522,0.028424,-22.475073,-13.303186,-39.461578,,,,,,,
1504281064.319825,-0.040397,0.349903,1.781854,0.077411,-0.182938,-0.240948,-0.037939,-0.342807,-0.938640,-0.005884,-0.069318,0.032573,-22.475073,-13.303186,-39.461578,,,,,,,
1504281064.329835,-0.041582,0.352428,1.779535,0.083975,-0.158492,-0.231369,-0.039015,-0.345177,-0.937726,-0.007921,-0.063071,0.029370,-22.250189,-13.302027,-39.536011,,,,,,,
1504281064.339845,-0.042508,0.354923,1.777247,0.081963,-0.142496,-0.227128,-0.039847,-0.347518,-0.936826,-0.005930,-0.062913,0.027052,-22.250189,-13.302027,-39.536011,,,,,,,
1504281064.349855,-0.043082,0.357260,1.774850,0.073458,-0.140295,-0.227147,-0.040349,-0.349708,-0.935989,0.001470,-0.060387,0.024734,-22.399511,-13.527857,-39.459717,,,,,,,
1504281064.359864,-0.043361,0.359318,1.772406,0.060755,-0.127408,-0.223992,-0.040579,-0.351636,-0.935257,0.006338,-0.056690,0.017624,-22.399511,-13.527857,-39.459717,,,,,,,
1504281064.369874,-0.043450,0.361273,1.770010,0.049184,-0.104943,-0.218716,-0.040632,-0.353465,-0.934565,0.006590,-0.057393,0.018595,-22.399618,-13.527704,-39.534698,,,,,,,
1504281064.379884,-0.043227,0.362953,1.767684,0.022735,-0.071704,-0.208149,-0.040398,-0.355036,-0.933979,0.007180,-0.055547,0.019734,-22.399618,-13.527704,-39.534698,,,,,,,
1504281064.389894,-0.042657,0.364178,1.765491,-0.018550,-0.024492,-0.195497,-0.039848,-0.356181,-0.933567,0.005714,-0.055059,0.014591,-22.774801,-13.454386,-39.536194,,,,,,,
1504281064.399903,-0.041625,0.364920,1.763410,-0.064036,0.029152,-0.186065,-0.038873,-0.356874,-0.933343,0.004311,-0.055891,0.010827,-22.774801,-13.454386,-39.536194,,,,,,,
1504281064.409913,-0.039995,0.365178,1.761339,-0.102157,0.069947,-0.176599,-0.037348,-0.357115,-0.933313,0.009638,-0.053377,0.009195,-22.173788,-13.677286,-39.233002,,,,,,,
1504281064.419923,-0.037896,0.365081,1.759319,-0.131799,0.104277,-0.166042,-0.035390,-0.357025,-0.933424,0.013860,-0.052979,0.008116,-22.173788,-13.677286,-39.233002,,,,,,,
1504281064.429933,-0.035505,0.364787,1.757402,-0.146616,0.126759,-0.152236,-0.033162,-0.356750,-0.933611,0.016606,-0.053299,0.008440,-22.324209,-13.602671,-39.383942,,,,,,,
1504281064.439943,-0.033020,0.364392,1.755518,-0.159440,0.124727,-0.149058,-0.030846,-0.356382,-0.933831,0.019021,-0.053149,0.013619,-22.324209,-13.602671,-39.383942,,,,,,,
1504281064.449952,-0.030577,0.363842,1.753557,-0.167001,0.106680,-0.157585,-0.028571,-0.355867,-0.934100,0.022224,-0.051024,0.012225,-22.324667,-13.377817,-39.310638,,,,,,,
1504281064.459962,-0.028205,0.363070,1.751501,-0.168087,0.099233,-0.163985,-0.026363,-0.355146,-0.934439,0.023159,-0.045657,0.004858,-22.324667,-13.377817,-39.310638,,,,,,,
1504281064.469972,-0.026055,0.362411,1.749537,-0.153102,0.105499,-0.161840,-0.024360,-0.354530,-0.934727,0.015922,-0.046349,0.004155,-22.025412,-13.300714,-39.685455,,,,,,,
1504281064.479982,-0.023961,0.361999,1.747683,-0.130662,0.112766,-0.155412,-0.022406,-0.354145,-0.934922,0.012304,-0.046383,0.008271,-22.025412,-13.300714,-39.685455,,,,,,,
1504281064.489958,-0.021978,0.361751,1.745937,-0.098841,0.094377,-0.145722,-0.020554,-0.353912,-0.935053,0.013596,-0.040695,0.006800,-21.949850,-13.525385,-39.683594,,,,,,,
1504281064.499968,-0.020208,0.361776,1.744244,-0.058558,0.066329,-0.137068,-0.018899,-0.353936,-0.935079,0.016915,-0.035865,0.003758,-21.949850,-13.525385,-39.683594,,,,,,,
1504281064.509978,-0.018672,0.362180,1.742655,-0.018319,0.036144,-0.123074,-0.017460,-0.354314,-0.934964,0.021412,-0.035732,0.002423,-21.575460,-13.373392,-39.833801,,,,,,,
1504281064.519988,-0.017442,0.362984,1.741225,0.023996,0.000610,-0.105866,-0.016304,-0.355065,-0.934699,0.025185,-0.034156,0.003257,-21.575460,-13.373392,-39.833801,,,,,,,
1504281064.529997,-0.016623,0.364080,1.740037,0.058849,-0.030605,-0.083341,-0.015533,-0.356090,-0.934323,0.025497,-0.029805,0.004284,-21.874731,-13.525202,-39.608398,,,,,,,
1504281064.540007,-0.016086,0.365480,1.739042,0.083238,-0.041479,-0.069409,-0.015023,-0.357397,-0.933832,0.024330,-0.030847,0.005884,-21.874731,-13.525202,-39.608398,,,,,,,
1504281064.550017,-0.015711,0.367130,1.738131,0.097038,-0.049057,-0.066175,-0.014664,-0.358939,-0.933246,0.022735,-0.034982,0.009189,-21.875601,-13.225046,-39.685638,,,,,,,
1504281064.559996,-0.015361,0.368917,1.737195,0.096014,-0.047979,-0.071520,-0.014327,-0.360605,-0.932608,0.021544,-0.038946,0.014396,-21.875601,-13.225046,-39.685638,,,,,,,
1504281064.570006,-0.014994,0.370650,1.736132,0.077992,-0.044618,-0.087572,-0.013975,-0.362222,-0.931987,0.019880,-0.041175,0.019908,-21.949591,-13.675241,-39.757477,,,,,,,
1504281064.580016,-0.014573,0.372135,1.734881,0.050344,-0.045438,-0.105768,-0.013575,-0.363605,-0.931454,0.019328,-0.042492,0.019559,-21.949591,-13.675241,-39.757477,,,,,,,
1504281064.590025,-0.014023,0.373418,1.733481,0.027060,-0.030316,-0.117580,-0.013057,-0.364800,-0.930994,0.018260,-0.045890,0.018549,-21.875448,-13.374750,-39.834534,,,,,,,
1504281064.600035,-0.013207,0.374649,1.732025,0.014505,-0.002504,-0.120856,-0.012291,-0.365946,-0.930555,0.017906,-0.047903,0.026594,-21.875448,-13.374750,-39.834534,,,,,,,
1504281064.610045,-0.012291,0.375754,1.730682,0.006217,0.030593,-0.115592,-0.011434,-0.366974,-0.930161,0.010075,-0.043869,0.030381,-21.874548,-13.600199,-39.607849,,,,,,,
1504281064.620055,-0.011203,0.376678,1.729404,0.003247,0.058323,-0.115647,-0.010417,-0.367833,-0.929834,0.005290,-0.037120,0.029931,-21.874548,-13.600199,-39.607849,,,,,,,
1504281064.630065,-0.009800,0.377525,1.728038,0.003440,0.077509,-0.122086,-0.009110,-0.368621,-0.929535,0.008667,-0.035035,0.025421,-21.874929,-13.450190,-39.608978,,,,,,,
1504281064.640074,-0.008248,0.378333,1.726519,-0.001720,0.087161,-0.140258,-0.007665,-0.369372,-0.929250,0.007024,-0.033949,0.026357,-21.874929,-13.450190,-39.608978,,,,,,,
1504281064.650084,-0.006662,0.378944,1.724820,-0.016567,0.086237,-0.158428,-0.006190,-0.369940,-0.929035,0.004587,-0.031519,0.024021,-21.425726,-13.222879,-39.759552,,,,,,,
1504281064.660094,-0.005160,0.379352,1.723009,-0.037926,0.076834,-0.168055,-0.004793,-0.370319,-0.928892,0.002230,-0.033307,0.019697,-21.425726,-13.222879,-39.759552,,,,,,,
1504281064.670104,-0.003765,0.379543,1.721145,-0.059355,0.062097,-0.172335,-0.003497,-0.370496,-0.928827,0.002246,-0.035525,0.017252,-21.574408,-13.748545,-39.755981,,,,,,,
1504281064.680113,-0.002551,0.379544,1.719283,-0.065936,0.040836,-0.169107,-0.002370,-0.370497,-0.928831,0.003392,-0.032915,0.013135,-21.574408,-13.748545,-39.755981,,,,,,,
1504281064.690123,-0.001539,0.379522,1.717519,-0.056532,0.022632,-0.157317,-0.001429,-0.370477,-0.928841,0.004664,-0.027228,0.016106,-21.725271,-13.673334,-40.206909,,,,,,,
1504281064.700133,-0.000817,0.379717,1.715874,-0.036509,-0.003117,-0.147631,-0.000759,-0.370658,-0.928769,0.004574,-0.024682,0.025144,-21.725271,-13.673334,-40.206909,,,,,,,
1504281064.710143,-0.000407,0.379983,1.714279,-0.027160,-0.034099,-0.145425,-0.000378,-0.370904,-0.928671,0.004437,-0.022498,0.024344,-21.574774,-13.598551,-39.757111,,,,,,,
1504281064.720152,-0.000207,0.380194,1.712566,-0.023062,-0.063956,-0.158175,-0.000192,-0.371101,-0.928593,0.006601,-0.020058,0.016865,-21.574774,-13.598551,-39.757111,,,,,,,
1504281064.730162,-0.000153,0.380363,1.710686,-0.026242,-0.072436,-0.175245,-0.000142,-0.371258,-0.928530,0.004751,-0.018406,0.015017,-21.349630,-13.747232,-39.905426,,,,,,,
1504281064.740172,0.000068,0.380437,1.708683,-0.045044,-0.033900,-0.193490,0.000063,-0.371326,-0.928503,-0.002932,-0.023327,0.010183,-21.349630,-13.747232,-39.905426,,,,,,,
1504281064.750182,0.000932,0.380210,1.706520,-0.090126,0.051743,-0.215064,0.000865,-0.371116,-0.928586,-0.010127,-0.028023,0.010358,-21.123648,-14.046534,-39.752625,,,,,,,
1504281064.760192,0.002937,0.379269,1.704064,-0.167992,0.166439,-0.248488,0.002728,-0.370241,-0.928932,-0.014905,-0.029325,0.007438,-21.123648,-14.046534,-39.752625,,,,,,,
1504281064.770201,0.006138,0.377500,1.701185,-0.249219,0.257725,-0.287213,0.005706,-0.368598,-0.929572,-0.013076,-0.037378,-0.005335,-21.349249,-13.897242,-39.904297,,,,,,,
1504281064.780211,0.009866,0.374945,1.697772,-0.311902,0.257232,-0.340689,0.009180,-0.366221,-0.930483,-0.010935,-0.034917,-0.005278,-21.349249,-13.897242,-39.904297,,,,,,,
1504281064.790221,0.013147,0.371782,1.693600,-0.337012,0.142427,-0.409911,0.012248,-0.363276,-0.931601,-0.002406,-0.022878,-0.010492,-21.124746,-13.746073,-39.979889,,,,,,,
1504281064.800231,0.015235,0.368375,1.688687,-0.334902,-0.031222,-0.469377,0.014212,-0.360100,-0.932806,0.014169,-0.014351,-0.022883,-21.124746,-13.746073,-39.979889,,,,,,,
1504281064.810240,0.015534,0.365480,1.683335,-0.260437,-0.216144,-0.507349,0.014508,-0.357398,-0.933840,0.007892,-0.018838,-0.030699,-20.900427,-13.519922,-40.056000,,,,,,,
1504281064.820250,0.014197,0.364429,1.677558,-0.090676,-0.367738,-0.559089,0.013264,-0.356416,-0.934233,-0.003544,-0.036696,0.000578,-20.900427,-13.519922,-40.056000,,,,,,,
1504281064.830260,0.012377,0.364648,1.670928,0.042637,-0.425228,-0.639879,0.011563,-0.356620,-0.934178,0.003162,-0.030465,0.057728,-20.825537,-13.519434,-40.130829,,,,,,,
1504281064.840270,0.010977,0.365188,1.663848,0.060196,-0.372080,-0.652751,0.010253,-0.357125,-0.934000,0.003053,-0.013419,0.049738,-20.825537,-13.519434,-40.130829,,,,,,,
1504281064.850279,0.010553,0.365516,1.657168,0.031174,-0.242940,-0.616738,0.009856,-0.357431,-0.933887,-0.064772,-0.011099,0.012516,-21.049932,-13.670740,-39.980255,,,,,,,
1504281064.860289,0.011714,0.365236,1.650576,-0.044403,-0.085678,-0.613944,0.010941,-0.357170,-0.933975,-0.098892,-0.065758,0.007431,-21.049932,-13.670740,-39.980255,,,,,,,
1504281064.870299,0.013122,0.364824,1.644297,-0.091101,-0.042689,-0.593816,0.012258,-0.356785,-0.934106,-0.065466,-0.106838,-0.012366,-21.049444,-13.820887,-39.904114,,,,,,,
1504281064.880309,0.014389,0.364413,1.637961,-0.008547,-0.125422,-0.592459,0.013444,-0.356401,-0.934236,-0.055131,-0.047194,-0.016813,-21.049444,-13.820887,-39.904114,,,,,,,
1504281064.890318,0.014175,0.365182,1.631583,0.121324,-0.296985,-0.594066,0.013240,-0.357120,-0.933965,-0.012767,-0.015469,0.012151,-20.899176,-13.970072,-39.977631,,,,,,,
1504281064.900298,0.011932,0.367518,1.625244,0.285009,-0.502938,-0.584880,0.011135,-0.359300,-0.933156,0.018116,-0.015898,-0.010341,-20.899176,-13.970072,-39.977631,,,,,,,
1504281064.910307,0.007778,0.371518,1.619045,0.449860,-0.689731,-0.565053,0.007247,-0.363031,-0.931749,0.021089,0.015451,0.001497,-21.048193,-14.046793,-39.452454,,,,,,,
1504281064.920317,0.001987,0.376988,1.613134,0.578806,-0.828279,-0.542170,0.001847,-0.368121,-0.929776,0.015715,0.043231,0.016888,-21.048193,-14.046793,-39.452454,,,,,,,
1504281064.930327,-0.004801,0.383305,1.607423,0.638909,-0.908708,-0.528047,-0.004453,-0.373988,-0.927423,0.011167,0.064540,0.005380,-21.421499,-14.723475,-39.448303,,,,,,,
1504281064.940337,-0.012153,0.389682,1.601839,0.626830,-0.950169,-0.525860,-0.011242,-0.379894,-0.924962,0.001583,0.071346,-0.026790,-21.421499,-14.723475,-39.448303,,,,,,,
1504281064.950347,-0.019410,0.396002,1.595888,0.627039,-0.953319,-0.572820,-0.017906,-0.385733,-0.922437,0.022484,0.091376,-0.063525,-22.093222,-15.627863,-38.768158,,,,,,,
1504281064.960356,-0.026409,0.402601,1.589144,0.652992,-0.965162,-0.661349,-0.024295,-0.391812,-0.919724,0.048206,0.082547,-0.071975,-22.093222,-15.627863,-38.768158,,,,,,,
1504281064.970366,-0.033039,0.409592,1.581122,0.679096,-0.983358,-0.790427,-0.030301,-0.398235,-0.916783,0.041577,0.062526,-0.079937,-22.616293,-16.081263,-38.241089,,,,,,,
1504281064.980376,-0.039457,0.416377,1.571831,0.626960,-1.031835,-0.897172,-0.036076,-0.404450,-0.913848,0.034886,0.049378,-0.097840,-22.616293,-16.081263,-38.241089,,,,,,,
1504281064.990386,-0.047065,0.422201,1.562173,0.508229,-1.205611,-0.901341,-0.042916,-0.409769,-0.911179,0.009362,0.007639,-0.155364,-22.837912,-16.983774,-37.484863,,,,,,,
1504281065.000395,-0.056979,0.426441,1.552649,0.330237,-1.438595,-0.884160,-0.051848,-0.413634,-0.908966,-0.002687,-0.075990,-0.203003,-22.837912,-16.983774,-37.484863,,,,,,,
1504281065.010405,-0.069284,0.428628,1.543637,0.109446,-1.652103,-0.811583,-0.062966,-0.415623,-0.907355,0.046319,-0.032589,-0.223825,-23.885229,-17.739542,-36.956818,,,,,,,
1504281065.020415,-0.083685,0.428586,1.535345,-0.116378,-1.824018,-0.732683,-0.076028,-0.415585,-0.906371,0.037835,0.047253,-0.213014,-23.885229,-17.739542,-36.956818,,,,,,,
1504281065.030425,-0.099319,0.426515,1.527435,-0.322054,-1.901221,-0.691275,-0.090273,-0.413700,-0.905927,0.025514,0.064442,-0.180041,-24.933493,-18.120310,-36.431610,,,,,,,
1504281065.040434,-0.114386,0.422549,1.519110,-0.522899,-1.821742,-0.725920,-0.104098,-0.410087,-0.906086,0.055346,0.061866,-0.118511,-24.933493,-18.120310,-36.431610,,,,,,,
1504281065.050444,-0.127600,0.416861,1.509524,-0.717547,-1.675114,-0.825785,-0.116357,-0.404892,-0.906931,0.101205,0.053055,-0.040487,-25.982946,-17.976236,-35.835266,,,,,,,
1504281065.060454,-0.138953,0.409702,1.498535,-0.881384,-1.544723,-0.925567,-0.127044,-0.398336,-0.908399,0.113036,-0.004573,0.027433,-25.982946,-17.976236,-35.835266,,,,,,,
1504281065.070464,-0.149074,0.401230,1.486337,-1.040534,-1.482591,-1.004940,-0.136727,-0.390551,-0.910371,0.084511,-0.078596,0.085725,-26.732641,-17.830500,-35.388245,,,,,,,
1504281065.080473,-0.159100,0.391325,1.473008,-1.215583,-1.537549,-1.078797,-0.146453,-0.381414,-0.912730,0.047377,-0.105204,0.099680,-26.732641,-17.830500,-35.388245,,,,,,,
1504281065.090483,-0.169814,0.379818,1.458643,-1.396377,-1.635099,-1.138713,-0.156955,-0.370752,-0.915373,0.020572,-0.069190,0.078398,-27.258169,-17.533152,-35.241791,,,,,,,
1504281065.100493,-0.181014,0.366824,1.443259,-1.571532,-1.693269,-1.196553,-0.168050,-0.358652,-0.918220,-0.003749,-0.027151,0.081367,-27.258169,-17.533152,-35.241791,,,,,,,
1504281065.110503,-0.192575,0.352635,1.427017,-1.707139,-1.732602,-1.238348,-0.179610,-0.345372,-0.921118,-0.017228,-0.014964,0.080252,-28.158911,-17.237207,-35.246277,,,,,,,
1504281065.120513,-0.204390,0.337839,1.410193,-1.779686,-1.747962,-1.264064,-0.191497,-0.331449,-0.923835,-0.004823,-0.042132,0.076392,-28.158911,-17.237207,-35.246277,,,,,,,
1504281065.130522,-0.216072,0.322843,1.393134,-1.806051,-1.709383,-1.264178,-0.203318,-0.317264,-0.926286,0.009730,-0.086499,0.095429,-28.984808,-16.566950,-34.728363,,,,,,,
1504281065.140532,-0.227215,0.308199,1.376105,-1.769037,-1.608470,-1.250415,-0.214651,-0.303343,-0.928390,0.008962,-0.110934,0.122986,-28.984808,-16.566950,-34.728363,,,,,,,
1504281065.150542,-0.236910,0.294454,1.359631,-1.671579,-1.397271,-1.199383,-0.224599,-0.290218,-0.930231,0.013112,-0.103291,0.167062,-29.660376,-16.120737,-34.358398,,,,,,,
1504281065.160552,-0.244614,0.281804,1.344105,-1.550480,-1.148998,-1.122758,-0.232629,-0.278089,-0.931961,0.009454,-0.066363,0.210556,-29.660376,-16.120737,-34.358398,,,,,,,
1504281065.170561,-0.250528,0.270298,1.329882,-1.416932,-0.926433,-1.016179,-0.238914,-0.267019,-0.933607,0.003181,-0.019526,0.215848,-30.186850,-15.448389,-34.214752,,,,,,,
1504281065.180571,-0.255217,0.259871,1.317057,-1.284946,-0.767788,-0.912692,-0.243979,-0.256956,-0.935119,-0.010248,0.002287,0.207794,-30.186850,-15.448389,-34.214752,,,,,,,
1504281065.190581,-0.259026,0.250469,1.305306,-1.169110,-0.650529,-0.846519,-0.248147,-0.247858,-0.936477,-0.027519,0.014688,0.185226,-30.637548,-15.299967,-34.441986,,,,,,,
1504281065.200591,-0.262157,0.242123,1.294062,-1.059631,-0.565124,-0.840076,-0.251605,-0.239765,-0.937661,-0.032773,0.022067,0.161828,-30.637548,-15.299967,-34.441986,,,,,,,
1504281065.210600,-0.264365,0.234973,1.282775,-0.946519,-0.459445,-0.888099,-0.254116,-0.232817,-0.938734,-0.032978,0.007826,0.142424,-30.488577,-14.849436,-34.369995,,,,,,,
1504281065.220610,-0.265284,0.229098,1.271038,-0.838360,-0.325987,-0.968202,-0.255333,-0.227099,-0.939804,-0.039787,-0.020658,0.139465,-30.488577,-14.849436,-34.369995,,,,,,,
1504281065.230589,-0.264817,0.225019,1.258842,-0.635264,-0.201825,-1.058799,-0.255134,-0.223125,-0.940809,-0.051934,-0.046909,0.133482,-30.639441,-14.549967,-34.447632,,,,,,,
1504281065.240599,-0.263888,0.222317,1.246203,-0.585291,-0.142475,-1.143141,-0.254416,-0.220490,-0.941624,-0.061242,-0.084076,0.081090,-30.639441,-14.549967,-34.447632,,,,,,,
1504281065.250609,-0.260779,0.219485,1.233013,-0.608212,0.037837,-1.178723,-0.251648,-0.217727,-0.943010,-0.050934,-0.010575,0.051576,-30.639669,-14.549662,-34.597656,,,,,,,
1504281065.260619,-0.257385,0.216508,1.219399,-0.643123,0.049888,-1.219366,-0.248609,-0.214821,-0.944481,-0.092363,-0.023552,0.090081,-30.639669,-14.549662,-34.597656,,,,,,,
1504281065.270629,-0.254298,0.212820,1.205004,-0.738362,-0.025983,-1.284509,-0.245890,-0.211217,-0.946005,-0.076772,-0.011821,0.034079,-29.964483,-14.845881,-34.968719,,,,,,,
1504281065.280638,-0.251956,0.208032,1.189431,-0.882644,-0.115273,-1.378533,-0.243924,-0.206535,-0.947547,-0.058612,0.005042,-0.002252,-29.964483,-14.845881,-34.968719,,,,,,,
1504281065.290648,-0.250349,0.201946,1.172365,-1.044968,-0.206522,-1.495000,-0.242707,-0.200576,-0.949138,-0.047713,-0.025300,-0.024541,-29.965002,-14.770426,-35.194275,,,,,,,
1504281065.300658,-0.249109,0.194533,1.153955,-1.201888,-0.246646,-1.584722,-0.241890,-0.193308,-0.950853,-0.040626,-0.080526,-0.031096,-29.515539,-14.692957,-35.418732,,,,,,,
1504281065.310668,-0.247925,0.185829,1.134643,-1.346721,-0.242207,-1.631947,-0.241168,-0.184761,-0.952734,-0.049344,-0.109809,-0.025538,-29.515539,-14.692957,-35.418732,,,,,,,
1504281065.320677,-0.246717,0.175786,1.114770,-1.485272,-0.234654,-1.650346,-0.240458,-0.174882,-0.954775,-0.046468,-0.096114,-0.021848,-29.515539,-14.692957,-35.418732,,,,,,,
1504281065.330687,-0.245752,0.164425,1.094749,-1.611415,-0.250688,-1.627053,-0.240005,-0.163685,-0.956872,-0.033021,-0.077297,-0.029883,-29.066595,-14.540033,-35.868774,,,,,,,
1504281065.340697,-0.245473,0.151892,1.074924,-1.712340,-0.299990,-1.579108,-0.240217,-0.151309,-0.958854,-0.038088,-0.073209,-0.041939,-29.066595,-14.540033,-35.868774,,,,,,,
1504281065.350707,-0.246508,0.139055,1.055996,-1.673275,-0.417640,-1.471025,-0.241663,-0.138608,-0.960410,-0.032659,-0.062946,-0.047662,-28.991751,-14.614252,-36.093048,,,,,,,
1504281065.360716,-0.251809,0.129250,1.040140,-1.192015,-0.925883,-1.229130,-0.247078,-0.128891,-0.960385,0.029320,-0.063416,-0.096240,-28.991751,-14.614252,-36.093048,,,,,,,
1504281065.370726,-0.264461,0.124585,1.027321,-0.656638,-1.525059,-1.073439,-0.259363,-0.124263,-0.957752,0.159891,-0.078236,-0.343914,-29.068319,-14.163996,-36.396606,,,,,,,
1504281065.380736,-0.278470,0.123767,1.017014,-0.250875,-1.518975,-0.914771,-0.272782,-0.123452,-0.954122,0.155259,-0.098365,-0.427561,-29.068319,-14.163996,-36.396606,,,,,,,
1504281065.390746,-0.292204,0.125905,1.009237,0.054262,-1.433188,-0.775632,-0.285783,-0.125573,-0.950031,0.125306,-0.110130,-0.233181,-29.742193,-14.168528,-35.648224,,,,,,,
1504281065.400755,-0.305312,0.129785,1.002193,0.186941,-1.399094,-0.796810,-0.298062,-0.129421,-0.945732,0.113935,-0.095524,-0.144188,-29.742193,-14.168528,-35.648224,,,,,,,
1504281065.410765,-0.318281,0.134551,0.994187,0.213210,-1.406618,-0.941918,-0.310106,-0.134145,-0.941190,0.102266,-0.029581,-0.056155,-30.264029,-15.072077,-35.042755,,,,,,,
1504281065.420775,-0.331833,0.139655,0.984414,0.154541,-1.516771,-1.121149,-0.322605,-0.139202,-0.936242,0.100559,-0.001148,0.010674,-30.264029,-15.072077,-35.042755,,,,,,,
1504281065.430785,-0.345876,0.142441,0.973503,-0.220425,-1.552083,-1.083310,-0.335588,-0.141960,-0.931251,0.088121,-0.033745,0.014945,-31.086340,-15.602579,-34.140839,,,,,,,
1504281065.440795,-0.358688,0.141817,0.961962,-0.514403,-1.460201,-1.035948,-0.347522,-0.141342,-0.926958,0.091983,-0.043426,0.095461,-31.086340,-15.602579,-34.140839,,,,,,,
1504281065.450804,-0.372957,0.138925,0.950263,-0.730448,-1.606628,-0.951740,-0.360860,-0.138478,-0.922282,0.042958,-0.115169,0.139369,-31.685369,-15.681330,-33.616760,,,,,,,
1504281065.460814,-0.389144,0.135329,0.940183,-0.660754,-1.826944,-0.731345,-0.375928,-0.134917,-0.916775,0.081677,-0.041094,0.042263,-32.583366,-15.987024,-32.791718,,,,,,,
1504281065.470824,-0.408510,0.133052,0.933276,-0.413249,-2.076458,-0.483907,-0.393732,-0.132659,-0.909603,0.129800,0.037231,-0.057347,-32.583366,-15.987024,-32.791718,,,,,,,
1504281065.480834,-0.428932,0.132335,0.929418,-0.173140,-2.073326,-0.274285,-0.412263,-0.131949,-0.901459,0.158800,0.004874,-0.137054,-32.583366,-15.987024,-32.791718,,,,,,,
1504281065.490826,-0.447474,0.132255,0.927087,-0.106382,-1.812888,-0.192439,-0.428911,-0.131870,-0.893670,0.172350,-0.082730,-0.072227,-33.631508,-16.143686,-31.818146,,,,,,,
1504281065.500836,-0.462340,0.132152,0.924873,-0.103223,-1.418641,-0.194196,-0.442154,-0.131768,-0.887207,0.119065,-0.202949,0.087586,-33.631508,-16.143686,-31.818146,,,,,,,
1504281065.510846,-0.473635,0.132415,0.922933,-0.048251,-1.070661,-0.176569,-0.452131,-0.132028,-0.882126,0.105101,-0.205847,0.200546,-34.755028,-16.150690,-30.845917,,,,,,,
1504281065.520856,-0.481966,0.132981,0.921764,0.012420,-0.781385,-0.111862,-0.459430,-0.132590,-0.878262,0.099658,-0.124109,0.201306,-34.755028,-16.150690,-30.845917,,,,,,,
1504281065.530865,-0.488254,0.133711,0.921098,0.037266,-0.598325,-0.093996,-0.464898,-0.133313,-0.875270,0.061379,-0.033130,0.143413,-35.128487,-16.453424,-30.319550,,,,,,,
1504281065.540875,-0.493535,0.134563,0.919893,0.008250,-0.536206,-0.166739,-0.469460,-0.134157,-0.872702,-0.006493,0.031191,0.062415,-35.578178,-16.306330,-29.871826,,,,,,,
1504281065.550885,-0.498948,0.135546,0.917571,-0.034303,-0.591149,-0.279861,-0.474113,-0.135131,-0.870032,-0.050026,0.088668,0.000083,-35.578178,-16.306330,-29.871826,,,,,,,
1504281065.560864,-0.505516,0.136230,0.913954,-0.074195,-0.724948,-0.412053,-0.479773,-0.135809,-0.866818,-0.057291,0.098319,-0.037479,-36.177467,-16.459482,-29.647156,,,,,,,
1504281065.570874,-0.512999,0.137661,0.908820,-0.141711,-0.846795,-0.547515,-0.486149,-0.137227,-0.863034,-0.033062,0.068272,-0.052798,-36.177467,-16.459482,-29.647156,,,,,,,
1504281065.580884,-0.521168,0.138931,0.902099,-0.246261,-0.921465,-0.669248,-0.493096,-0.138485,-0.858882,0.006478,0.011822,-0.024770,-36.551414,-16.612070,-29.196930,,,,,,,
1504281065.590894,-0.529917,0.140255,0.894495,-0.257394,-1.014023,-0.724609,-0.500499,-0.139795,-0.854376,0.040400,-0.047964,0.025961,-36.551414,-16.612070,-29.196930,,,,,,,
1504281065.600904,-0.539909,0.141958,0.886992,-0.230592,-1.129332,-0.721157,-0.508887,-0.141482,-0.849127,0.097205,-0.069684,0.014151,-36.698921,-17.288782,-28.667236,,,,,,,
1504281065.610914,-0.550889,0.143495,0.879962,-0.228647,-1.233865,-0.636645,-0.518065,-0.143003,-0.843302,0.127639,-0.084033,0.013132,-36.698921,-17.288782,-28.667236,,,,,,,
1504281065.620924,-0.563389,0.144435,0.873664,-0.263101,-1.368974,-0.576692,-0.528493,-0.143934,-0.836647,0.060857,-0.110949,0.049751,-37.371727,-17.668467,-27.841064,,,,,,,
1504281065.630933,-0.577534,0.144814,0.866981,-0.344589,-1.561162,-0.590370,-0.540245,-0.144308,-0.829042,0.049461,-0.063547,0.057527,-37.371727,-17.668467,-27.841064,,,,,,,
1504281065.640942,-0.593633,0.145283,0.858821,-0.425626,-1.784111,-0.743824,-0.553483,-0.144772,-0.820181,0.079561,0.038052,0.050482,-37.371727,-17.668467,-27.841064,,,,,,,
1504281065.650952,-0.612015,0.146652,0.848540,-0.477851,-2.056232,-0.977195,-0.568351,-0.146127,-0.809706,0.113563,0.113016,0.037215,-38.045753,-17.523294,-26.943817,,,,,,,
1504281065.660962,-0.632659,0.149309,0.835883,-0.521285,-2.312414,-1.236198,-0.584713,-0.148755,-0.797485,0.189861,0.132535,0.023880,-38.492805,-17.977716,-25.741547,,,,,,,
1504281065.670972,-0.655617,0.153790,0.820999,-0.527411,-2.584868,-1.514320,-0.602453,-0.153184,-0.783316,0.257147,0.092012,0.039313,-38.492805,-17.977716,-25.741547,,,,,,,
1504281065.680981,-0.680999,0.160486,0.804205,-0.489008,-2.885406,-1.780574,-0.621479,-0.159798,-0.766960,0.322239,0.025109,0.063698,-39.538063,-18.885721,-24.087372,,,,,,,
1504281065.690991,-0.710016,0.169486,0.785860,-0.465593,-3.311586,-2.024217,-0.642506,-0.168676,-0.747485,0.367512,-0.021174,0.072177,-39.538063,-18.885721,-24.087372,,,,,,,
1504281065.701001,-0.743479,0.180463,0.765961,-0.490933,-3.819433,-2.249655,-0.665861,-0.179485,-0.724164,0.388258,-0.046848,0.031278,-40.281914,-20.167978,-22.129608,,,,,,,
1504281065.711011,-0.781454,0.193264,0.743990,-0.596078,-4.322325,-2.510463,-0.691200,-0.192063,-0.696674,0.417106,-0.046096,0.013996,-40.281914,-20.167978,-22.129608,,,,,,,
1504281065.721020,-0.823302,0.208064,0.719878,-0.689092,-4.775234,-2.770272,-0.717577,-0.206566,-0.665141,0.446337,-0.033729,0.025874,-41.098183,-21.902536,-19.193634,,,,,,,
1504281065.731030,-0.868491,0.224599,0.694587,-0.775581,-5.135618,-2.906414,-0.744182,-0.222715,-0.629754,0.474132,0.003874,0.033029,-41.098183,-21.902536,-19.193634,,,,,,,
1504281065.741040,-0.914840,0.242174,0.668366,-0.919080,-5.248377,-2.981182,-0.769340,-0.239813,-0.592119,0.423744,0.004553,0.087893,-41.838310,-23.862497,-15.880768,,,,,,,
1504281065.751050,-0.960498,0.260455,0.641588,-1.034920,-5.210096,-3.011338,-0.791839,-0.257520,-0.553782,0.430114,0.011381,0.146876,-41.838310,-23.862497,-15.880768,,,,,,,
1504281065.761060,-1.004243,0.279656,0.614538,-1.124041,-5.039888,-3.053421,-0.810976,-0.276025,-0.515876,0.450762,0.041345,0.149589,-41.379509,-25.666147,-13.016083,,,,,,,
1504281065.771069,-1.044899,0.300179,0.587241,-1.180170,-4.768683,-3.130849,-0.826200,-0.295692,-0.479542,0.458997,0.050056,0.187550,-41.379509,-25.666147,-13.016083,,,,,,,
1504281065.781079,-1.081595,0.322091,0.559453,-1.281494,-4.419305,-3.220235,-0.837316,-0.316551,-0.445755,0.450963,0.021140,0.233933,-40.844826,-27.769632,-10.074005,,,,,,,
1504281065.791089,-1.112796,0.344877,0.530116,-1.465269,-3.974408,-3.311000,-0.844124,-0.338081,-0.416120,0.403389,-0.000893,0.217893,-40.844826,-27.769632,-10.074005,,,,,,,
1504281065.801099,-1.138943,0.368311,0.499745,-1.600557,-3.566203,-3.341841,-0.847285,-0.360041,-0.390485,0.337581,0.064249,0.097531,-39.787682,-29.717905,-8.556732,,,,,,,
1504281065.811108,-1.159744,0.391608,0.467706,-1.813026,-3.178715,-3.333286,-0.847304,-0.381675,-0.369325,0.304930,0.065864,0.081819,-39.787682,-29.717905,-8.556732,,,,,,,
1504281065.821118,-1.177269,0.414491,0.434309,-1.962651,-3.053911,-3.296407,-0.845356,-0.402724,-0.350979,0.283039,0.071669,0.103878,-37.981148,-31.736765,-7.562073,,,,,,,
1504281065.831128,-1.194763,0.437200,0.399876,-2.078277,-3.220286,-3.269629,-0.842641,-0.423404,-0.332693,0.276830,0.111789,0.063527,-37.981148,-31.736765,-7.562073,,,,,,,
1504281065.841138,-1.214650,0.459443,0.365668,-2.067852,-3.570024,-3.138771,-0.840055,-0.443449,-0.312508,0.267392,0.060163,0.072716,-36.476067,-33.530785,-7.169861,,,,,,,
1504281065.851147,-1.239065,0.480792,0.332931,-2.007477,-4.039585,-2.946773,-0.838290,-0.462481,-0.288758,0.253909,-0.025418,0.107545,-36.476067,-33.530785,-7.169861,,,,,,,
1504281065.861157,-1.268557,0.501555,0.301727,-1.948239,-4.543192,-2.795279,-0.837091,-0.480790,-0.260998,0.243372,-0.063384,0.135281,-34.820244,-35.175606,-6.028381,,,,,,,
1504281065.871167,-1.303148,0.522165,0.271983,-1.893983,-5.020091,-2.671592,-0.835882,-0.498758,-0.229222,0.225622,-0.072577,0.156239,-34.820244,-35.175606,-6.028381,,,,,,,
1504281065.881177,-1.341788,0.543294,0.242786,-1.923988,-5.438622,-2.674108,-0.833662,-0.516958,-0.194325,0.225263,-0.063669,0.160755,-33.239723,-36.521385,-4.589325,,,,,,,
1504281065.891156,-1.383532,0.565868,0.213762,-1.952031,-5.777194,-2.727998,-0.829366,-0.536149,-0.157152,0.207341,-0.059127,0.158632,-33.239723,-36.521385,-4.589325,,,,,,,
1504281065.901166,-1.427617,0.589578,0.185310,-1.968794,-6.000840,-2.720160,-0.822670,-0.556010,-0.118601,0.196633,-0.037343,0.138026,-31.584204,-37.866814,-3.150085,,,,,,,
