timestamp(unix),attitude_roll(radians),attitude_pitch(radians),attitude_yaw(radians),rotation_rate_x(radians/s),rotation_rate_y(radians/s),rotation_rate_z(radians/s),gravity_x(G),gravity_y(G),gravity_z(G),user_acc_x(G),user_acc_y(G),user_acc_z(G),magnetic_field_x(microteslas),magnetic_field_y(microteslas),magnetic_field_z(microteslas),latitude(degree),longitude(degree),altitude(meter),speed(m/s),course(degree),timestamp(unix),User Mark
1504281646.271029,-0.025098,0.266123,-2.991751,-0.037457,0.093677,0.051977,-0.024212,-0.262993,-0.964494,-0.002933,-0.140373,0.053331,-22.023382,-13.751917,-39.082062,,,,,,,
1504281646.281038,-0.025132,0.266365,-2.991242,0.045960,-0.017828,0.048048,-0.024243,-0.263226,-0.964429,0.003048,-0.140933,0.054456,-22.099066,-13.527109,-39.158936,,,,,,,
1504281646.291048,-0.026153,0.267293,-2.990749,0.108194,-0.109978,0.044049,-0.025221,-0.264122,-0.964159,0.004393,-0.140572,0.057742,-22.099066,-13.527109,-39.158936,,,,,,,
1504281646.301058,-0.027861,0.272734,-2.990344,0.145183,-0.168878,0.031410,-0.026828,-0.269366,-0.962664,0.003985,-0.137891,0.061511,-22.023977,-13.601618,-39.233185,,,,,,,
1504281646.311068,-0.029772,0.274223,-2.990078,0.148325,-0.184874,0.017567,-0.028656,-0.270799,-0.962209,0.002853,-0.141600,0.064108,-22.023977,-13.601618,-39.233185,,,,,,,
1504281646.321078,-0.031525,0.275567,-2.989942,0.122935,-0.164407,0.006813,-0.030331,-0.272092,-0.961793,0.000652,-0.144168,0.062181,-22.023001,-13.901926,-39.080933,,,,,,,
1504281646.331087,-0.032809,0.276505,-2.989868,0.088137,-0.115099,0.003464,-0.031558,-0.272995,-0.961498,-0.003202,-0.148224,0.064006,-22.023001,-13.901926,-39.080933,,,,,,,
1504281646.341097,-0.034005,0.281462,-2.989662,0.053449,-0.055142,0.006509,-0.032661,-0.277760,-0.960095,-0.006737,-0.146373,0.061505,-22.322897,-13.903421,-39.006683,,,,,,,
1504281646.351107,-0.034176,0.281740,-2.989530,0.018648,0.000548,0.013823,-0.032822,-0.278027,-0.960012,-0.010162,-0.147479,0.062597,-22.322897,-13.903421,-39.006683,,,,,,,
1504281646.361117,-0.033851,0.281655,-2.989329,-0.017279,0.048788,0.021147,-0.032511,-0.277946,-0.960046,-0.011175,-0.148476,0.066385,-22.322439,-13.904016,-38.706696,,,,,,,
1504281646.371126,-0.033713,0.285580,-2.988958,-0.043657,0.079906,0.023191,-0.032341,-0.281714,-0.958953,-0.009819,-0.145288,0.062072,-22.322439,-13.904016,-38.706696,,,,,,,
1504281646.381136,-0.033168,0.289002,-2.988653,-0.063688,0.101387,0.019923,-0.031787,-0.284996,-0.958002,-0.007016,-0.139092,0.057626,-22.023458,-13.677073,-39.007629,,,,,,,
1504281646.391146,-0.032353,0.292183,-2.988488,-0.066800,0.101420,0.012449,-0.030976,-0.288044,-0.957116,-0.002670,-0.134045,0.059106,-22.023458,-13.677073,-39.007629,,,,,,,
1504281646.401156,-0.031518,0.295266,-2.988386,-0.060542,0.077923,0.013569,-0.030149,-0.290994,-0.956250,0.002393,-0.130973,0.059460,-22.022635,-13.827662,-38.706512,,,,,,,
1504281646.411165,-0.030713,0.298365,-2.988346,-0.039406,0.046844,0.013655,-0.029352,-0.293958,-0.955368,0.009134,-0.125567,0.057479,-22.022635,-13.827662,-38.706512,,,,,,,
1504281646.421175,-0.030172,0.301418,-2.988348,-0.025744,0.012635,0.009463,-0.028807,-0.296875,-0.954482,0.011122,-0.118561,0.058058,-22.022635,-13.827662,-38.706512,,,,,,,
1504281646.431185,-0.029896,0.304375,-2.988429,-0.019525,-0.019379,0.003119,-0.028518,-0.299697,-0.953608,0.013183,-0.113038,0.057246,-22.022635,-13.827662,-38.706512,,,,,,,
1504281646.441164,-0.029698,0.307176,-2.988588,-0.018490,-0.022770,-0.004293,-0.028303,-0.302368,-0.952771,0.013899,-0.110305,0.051404,-22.023230,-13.677362,-38.857635,,,,,,,
1504281646.451174,-0.029593,0.309913,-2.988761,-0.012993,-0.010023,-0.009646,-0.028179,-0.304976,-0.951943,0.008266,-0.108003,0.047814,-22.023230,-13.677362,-38.857635,,,,,,,
1504281646.461184,-0.029441,0.312560,-2.988857,-0.012834,0.009150,-0.004344,-0.028011,-0.307496,-0.951137,0.004863,-0.104705,0.048473,-22.022787,-13.902216,-38.930908,,,,,,,
1504281646.471193,-0.029274,0.315157,-2.988800,-0.002082,0.022902,0.007393,-0.027828,-0.309966,-0.950340,0.001034,-0.102815,0.044899,-22.022787,-13.902216,-38.930908,,,,,,,
1504281646.481203,-0.029201,0.317732,-2.988597,-0.002105,0.022892,0.018069,-0.027735,-0.312413,-0.949541,-0.001333,-0.100047,0.044283,-22.022741,-13.827524,-38.781494,,,,,,,
1504281646.491213,-0.029272,0.320194,-2.988304,-0.003370,0.000514,0.027714,-0.027780,-0.314751,-0.948768,0.000925,-0.096855,0.048087,-22.022741,-13.827524,-38.781494,,,,,,,
1504281646.501223,-0.029413,0.322507,-2.988031,-0.009924,-0.020746,0.029873,-0.027892,-0.316945,-0.948034,0.005203,-0.095606,0.043874,-22.023275,-13.752069,-39.007050,,,,,,,
1504281646.511233,-0.029577,0.324762,-2.987793,-0.018496,-0.030265,0.027737,-0.028027,-0.319083,-0.947312,0.008435,-0.097085,0.044648,-22.023275,-13.752069,-39.007050,,,,,,,
1504281646.521242,-0.029807,0.326952,-2.987602,-0.023759,-0.028085,0.022385,-0.028224,-0.321158,-0.946605,0.006511,-0.095865,0.048473,-22.323004,-13.903269,-39.081696,,,,,,,
1504281646.531252,-0.030064,0.329053,-2.987416,-0.020464,-0.021716,0.019177,-0.028447,-0.323147,-0.945921,0.003743,-0.093113,0.047163,-22.323004,-13.903269,-39.081696,,,,,,,
1504281646.541262,-0.030427,0.331162,-2.987212,-0.017186,-0.017476,0.015975,-0.028770,-0.325142,-0.945227,-0.001519,-0.092201,0.046927,-22.098150,-13.752558,-38.932220,,,,,,,
1504281646.551272,-0.030907,0.333200,-2.986960,-0.018233,-0.017468,0.017044,-0.029202,-0.327069,-0.944549,-0.005634,-0.089969,0.046249,-22.098150,-13.752558,-38.932220,,,,,,,
1504281646.561281,-0.031440,0.335089,-2.986642,-0.022577,-0.024900,0.025593,-0.029687,-0.328853,-0.943914,-0.005256,-0.088536,0.044851,-22.247702,-13.978083,-39.005920,,,,,,,
1504281646.571291,-0.031983,0.336873,-2.986249,-0.039656,-0.023702,0.034103,-0.030181,-0.330537,-0.943310,-0.004106,-0.089003,0.043042,-22.247702,-13.978083,-39.005920,,,,,,,
1504281646.581301,-0.032422,0.338387,-2.985836,-0.065231,-0.020299,0.038324,-0.030578,-0.331966,-0.942796,-0.000993,-0.089359,0.044038,-22.248602,-13.752634,-39.232605,,,,,,,
1504281646.591311,-0.032703,0.339613,-2.985458,-0.084245,-0.002023,0.033990,-0.030829,-0.333122,-0.942380,-0.000879,-0.087624,0.041455,-22.248602,-13.752634,-39.232605,,,,,,,
1504281646.601320,-0.032783,0.340703,-2.985147,-0.081850,0.022476,0.025414,-0.030893,-0.334149,-0.942014,-0.003867,-0.085452,0.036237,-22.248083,-13.828074,-39.007050,,,,,,,
1504281646.611330,-0.032671,0.341789,-2.984842,-0.073179,0.037322,0.026472,-0.030775,-0.335173,-0.941654,-0.003664,-0.080080,0.038974,-22.248083,-13.828074,-39.007050,,,,,,,
1504281646.621340,-0.032635,0.342872,-2.984482,-0.056094,0.037180,0.027573,-0.030730,-0.336193,-0.941292,-0.007569,-0.073246,0.038200,-22.473455,-13.679087,-39.008728,,,,,,,
1504281646.631350,-0.032623,0.344127,-2.984128,-0.032650,0.030595,0.026561,-0.030705,-0.337375,-0.940869,-0.006587,-0.074292,0.031217,-22.473455,-13.679087,-39.008728,,,,,,,
1504281646.641360,-0.032592,0.345594,-2.983858,-0.015526,0.029398,0.018056,-0.030660,-0.338755,-0.940375,-0.005351,-0.075658,0.030844,-22.099020,-13.452402,-39.009491,,,,,,,
1504281646.651369,-0.032522,0.347128,-2.983660,0.001625,0.032461,0.010611,-0.030577,-0.340199,-0.939856,-0.006319,-0.070888,0.030951,-22.099020,-13.452402,-39.009491,,,,,,,
1504281646.661379,-0.032299,0.348707,-2.983509,0.007029,0.038810,0.010611,-0.030350,-0.341683,-0.939325,-0.003601,-0.068550,0.030512,-22.174551,-13.377298,-39.235260,,,,,,,
1504281646.671389,-0.032027,0.350205,-2.983361,0.001729,0.040985,0.010599,-0.030078,-0.343090,-0.938821,-0.002804,-0.065998,0.031457,-22.174551,-13.377298,-39.235260,,,,,,,
1504281646.681368,-0.031735,0.351574,-2.983210,-0.011095,0.038955,0.014850,-0.029789,-0.344376,-0.938359,-0.001156,-0.065383,0.030766,-22.023840,-13.527063,-39.008759,,,,,,,
1504281646.691378,-0.031435,0.352797,-2.983030,-0.026052,0.036942,0.019097,-0.029494,-0.345524,-0.937946,-0.000092,-0.066357,0.029774,-22.023840,-13.527063,-39.008759,,,,,,,
1504281646.701388,-0.031171,0.353861,-2.982845,-0.035675,0.031695,0.018022,-0.029235,-0.346522,-0.937586,0.000320,-0.064214,0.032053,-22.248602,-13.752634,-39.232605,,,,,,,
1504281646.711397,-0.030894,0.354825,-2.982663,-0.035589,0.039155,0.015874,-0.028965,-0.347426,-0.937260,-0.000134,-0.061387,0.030201,-22.248602,-13.752634,-39.232605,,,,,,,
1504281646.721407,-0.030477,0.355824,-2.982481,-0.022604,0.059296,0.014794,-0.028564,-0.348363,-0.936924,-0.002579,-0.059168,0.029301,-22.248648,-13.603083,-39.008728,,,,,,,
1504281646.731376,-0.029916,0.357008,-2.982249,-0.010718,0.079438,0.020118,-0.028026,-0.349472,-0.936527,-0.003591,-0.057403,0.033848,-22.248648,-13.603083,-39.008728,,,,,,,
1504281646.741386,-0.029314,0.358202,-2.981895,-0.006393,0.090050,0.028648,-0.027450,-0.350591,-0.936126,-0.006318,-0.056361,0.034530,-22.398260,-13.753748,-39.007996,,,,,,,
1504281646.751395,-0.028652,0.359295,-2.981482,-0.003145,0.097477,0.033979,-0.026819,-0.351614,-0.935761,-0.006766,-0.051584,0.029160,-22.398260,-13.753748,-39.007996,,,,,,,
1504281646.761405,-0.027940,0.360331,-2.981094,-0.006281,0.100706,0.028633,-0.026142,-0.352584,-0.935415,-0.006573,-0.049912,0.028204,-22.024511,-13.526163,-39.458801,,,,,,,
1504281646.771415,-0.027202,0.361294,-2.980837,-0.014807,0.092264,0.015826,-0.025443,-0.353485,-0.935094,-0.005136,-0.049179,0.030385,-22.024511,-13.526163,-39.458801,,,,,,,
1504281646.781425,-0.026475,0.362165,-2.980755,-0.022309,0.078487,0.003029,-0.024755,-0.354299,-0.934804,-0.002955,-0.048166,0.031194,-21.799368,-13.450602,-39.233765,,,,,,,
1504281646.791434,-0.025837,0.362983,-2.980823,-0.024480,0.063600,-0.010825,-0.024151,-0.355064,-0.934530,-0.002125,-0.047035,0.030584,-21.799368,-13.450602,-39.233765,,,,,,,
1504281646.801444,-0.025211,0.363918,-2.981010,-0.021279,0.056124,-0.020413,-0.023557,-0.355938,-0.934212,-0.000658,-0.049030,0.032876,-22.025076,-13.301172,-39.460480,,,,,,,
1504281646.811454,-0.024548,0.364939,-2.981315,-0.011682,0.049658,-0.026790,-0.022929,-0.356892,-0.933864,0.002375,-0.051143,0.036479,-22.025076,-13.301172,-39.460480,,,,,,,
1504281646.821464,-0.023891,0.365950,-2.981648,-0.017082,0.041175,-0.024652,-0.022307,-0.357837,-0.933518,0.005034,-0.051511,0.036270,-21.949926,-13.450541,-39.609161,,,,,,,
1504281646.831474,-0.023228,0.366768,-2.981903,-0.034186,0.041305,-0.015078,-0.021681,-0.358601,-0.933239,0.007323,-0.050350,0.033001,-21.949926,-13.450541,-39.609161,,,,,,,
1504281646.841483,-0.022614,0.367361,-2.982090,-0.055473,0.046807,-0.014059,-0.021103,-0.359153,-0.933040,0.004044,-0.052056,0.028102,-21.499823,-13.448664,-39.533051,,,,,,,
1504281646.851493,-0.021974,0.367745,-2.982298,-0.074619,0.051229,-0.016236,-0.020503,-0.359512,-0.932915,0.003291,-0.052734,0.026146,-21.499823,-13.448664,-39.533051,,,,,,,
1504281646.861503,-0.021333,0.368059,-2.982533,-0.075675,0.049110,-0.019438,-0.019903,-0.359805,-0.932815,0.003027,-0.052686,0.024459,-21.575186,-13.298990,-39.534363,,,,,,,
1504281646.871513,-0.020722,0.368411,-2.982773,-0.068206,0.046918,-0.020490,-0.019330,-0.360134,-0.932700,0.001813,-0.051274,0.024451,-21.575186,-13.298990,-39.534363,,,,,,,
1504281646.881522,-0.020723,0.369149,-2.983021,-0.010143,-0.034542,-0.024515,-0.019326,-0.360822,-0.932434,0.001229,-0.049655,0.026810,-21.575338,-13.149302,-39.385468,,,,,,,
1504281646.891532,-0.021755,0.370059,-2.983521,-0.046104,-0.147172,-0.051065,-0.020280,-0.361670,-0.932085,0.001497,-0.051003,0.051455,-21.575338,-13.149302,-39.385468,,,,,,,
1504281646.901542,-0.023217,0.371179,-2.984153,-0.053725,-0.172677,-0.057438,-0.021634,-0.362714,-0.931649,0.005383,-0.060656,0.081750,-21.651434,-12.849176,-39.612915,,,,,,,
1504281646.911521,-0.024667,0.371634,-2.984642,-0.069308,-0.118208,-0.052221,-0.022980,-0.363139,-0.931452,-0.011474,-0.045736,0.039286,-21.651434,-12.849176,-39.612915,,,,,,,
1504281646.921531,-0.025876,0.373006,-2.984771,-0.078219,-0.024379,-0.035312,-0.024094,-0.364416,-0.930924,-0.019928,-0.038828,0.034181,-21.951208,-12.850824,-39.463684,,,,,,,
1504281646.931541,-0.025976,0.372807,-2.984854,-0.095634,0.069530,-0.028027,-0.024189,-0.364231,-0.930994,-0.031201,-0.041149,0.005762,-21.951208,-12.850824,-39.463684,,,,,,,
1504281646.941550,-0.025483,0.372551,-2.984919,-0.102754,0.113277,-0.025973,-0.023732,-0.363993,-0.931099,-0.030482,-0.041647,0.010506,-22.026327,-12.851023,-39.538849,,,,,,,
1504281646.951560,-0.024834,0.372124,-2.984981,-0.096343,0.114289,-0.024889,-0.023132,-0.363594,-0.931270,-0.028717,-0.035865,-0.002598,-22.026327,-12.851023,-39.538849,,,,,,,
1504281646.961570,-0.024221,0.371928,-2.985191,-0.078272,0.094976,-0.040827,-0.022562,-0.363412,-0.931355,-0.025610,-0.040275,-0.001506,-21.800528,-13.075312,-39.386597,,,,,,,
1504281646.971580,-0.023274,0.371313,-2.985874,-0.057075,0.058602,-0.070614,-0.021686,-0.362839,-0.931599,-0.023740,-0.040466,0.002507,-21.800528,-13.075312,-39.386597,,,,,,,
1504281646.981589,-0.022686,0.371006,-2.986822,-0.025324,0.012543,-0.092893,-0.021141,-0.362553,-0.931723,-0.019463,-0.043117,0.006339,-21.801321,-12.850000,-39.538269,,,,,,,
1504281646.991599,-0.022564,0.371018,-2.987921,0.006323,-0.039920,-0.104487,-0.021027,-0.362565,-0.931721,-0.020294,-0.049469,0.012883,-21.801321,-12.850000,-39.538269,,,,,,,
1504281647.001609,-0.023388,0.372306,-2.988869,0.037969,-0.086003,-0.103278,-0.021783,-0.363765,-0.931236,-0.020026,-0.049550,0.014046,-21.876730,-12.775049,-39.689026,,,,,,,
1504281647.011619,-0.024127,0.372931,-2.989911,0.066478,-0.119278,-0.096766,-0.022466,-0.364347,-0.930992,-0.021693,-0.048586,0.016976,-21.876730,-12.775049,-39.689026,,,,,,,
1504281647.021629,-0.025010,0.373732,-2.990913,0.080299,-0.124721,-0.095665,-0.023281,-0.365092,-0.930680,-0.023167,-0.048192,0.016892,-21.875448,-13.150492,-39.461243,,,,,,,
1504281647.031638,-0.025765,0.374669,-2.991985,0.094313,-0.112040,-0.104202,-0.023975,-0.365964,-0.930320,-0.025860,-0.045382,0.018012,-21.875448,-13.150492,-39.461243,,,,,,,
1504281647.041648,-0.026915,0.376635,-2.992905,0.099879,-0.088636,-0.110631,-0.025026,-0.367793,-0.929571,-0.025161,-0.041447,0.024114,-22.025747,-13.076014,-39.537140,,,,,,,
1504281647.051658,-0.027217,0.377630,-2.994131,0.094715,-0.072601,-0.119207,-0.025296,-0.368718,-0.929197,-0.026751,-0.043406,0.028852,-22.025747,-13.076014,-39.537140,,,,,,,
1504281647.061668,-0.027396,0.378555,-2.995526,0.086282,-0.070383,-0.136304,-0.025453,-0.369579,-0.928851,-0.025084,-0.042836,0.032977,-22.024847,-13.301462,-39.310455,,,,,,,
1504281647.071677,-0.028124,0.380439,-2.996845,0.077726,-0.079894,-0.144836,-0.026110,-0.371329,-0.928134,-0.020704,-0.040842,0.036334,-22.024847,-13.301462,-39.310455,,,,,,,
1504281647.081687,-0.028918,0.382323,-2.998289,0.084051,-0.096987,-0.154396,-0.026827,-0.373077,-0.927412,-0.017531,-0.038742,0.039870,-21.800863,-13.074854,-39.611603,,,,,,,
1504281647.091697,-0.029639,0.384108,-2.999862,0.071264,-0.101137,-0.161879,-0.027475,-0.374732,-0.926726,-0.013327,-0.037530,0.040434,-21.800863,-13.074854,-39.611603,,,,,,,
1504281647.101707,-0.030231,0.385761,-3.001487,0.057556,-0.085036,-0.166198,-0.028005,-0.376264,-0.926089,-0.013667,-0.035784,0.043521,-22.024511,-13.526163,-39.458801,,,,,,,
1504281647.111716,-0.030611,0.387251,-3.003132,0.042828,-0.060407,-0.166263,-0.028340,-0.377645,-0.925517,-0.014126,-0.033900,0.045649,-22.024511,-13.526163,-39.458801,,,,,,,
1504281647.121726,-0.030686,0.388436,-3.004733,0.015333,-0.027155,-0.159961,-0.028396,-0.378742,-0.925067,-0.014527,-0.031399,0.043750,-22.098379,-13.752253,-39.082245,,,,,,,
1504281647.131736,-0.030435,0.389348,-3.006282,-0.004706,0.003907,-0.154710,-0.028153,-0.379586,-0.924728,-0.013946,-0.029884,0.042907,-22.098379,-13.752253,-39.082245,,,,,,,
1504281647.141746,-0.029937,0.390022,-3.007847,-0.028096,0.013688,-0.153698,-0.027685,-0.380208,-0.924486,-0.009974,-0.027842,0.044176,-22.173788,-13.677286,-39.233002,,,,,,,
1504281647.151725,-0.029245,0.390440,-3.009591,-0.050469,0.008557,-0.166536,-0.027040,-0.380596,-0.924346,-0.003386,-0.028264,0.040908,-22.173788,-13.677286,-39.233002,,,,,,,
1504281647.161735,-0.028496,0.390692,-3.011556,-0.067585,-0.008336,-0.182548,-0.026345,-0.380828,-0.924271,0.002434,-0.030457,0.039215,-21.948767,-13.601587,-39.083008,,,,,,,
1504281647.171745,-0.027894,0.390792,-3.013688,-0.082727,-0.041235,-0.192125,-0.025787,-0.380921,-0.924248,0.006683,-0.029159,0.042488,-21.948767,-13.601587,-39.083008,,,,,,,
1504281647.181754,-0.027617,0.390733,-3.015876,-0.095830,-0.080554,-0.193148,-0.025533,-0.380867,-0.924277,0.008916,-0.028176,0.041068,-21.873495,-13.751093,-39.156677,,,,,,,
1504281647.191764,-0.027797,0.390582,-3.018045,-0.094056,-0.125326,-0.190933,-0.025700,-0.380727,-0.924330,0.008335,-0.025676,0.038054,-21.873495,-13.751093,-39.156677,,,,,,,
1504281647.201774,-0.028435,0.390270,-3.020178,-0.095498,-0.171139,-0.187655,-0.026294,-0.380438,-0.924433,0.008456,-0.018503,0.036585,-21.948050,-13.752024,-38.856873,,,,,,,
1504281647.211784,-0.029374,0.389906,-3.022303,-0.087195,-0.198916,-0.184392,-0.027166,-0.380101,-0.924546,0.011236,-0.014384,0.032960,-21.948050,-13.752024,-38.856873,,,,,,,
1504281647.221793,-0.030233,0.389562,-3.024438,-0.081681,-0.179776,-0.188689,-0.027964,-0.379784,-0.924653,0.011988,-0.011620,0.035706,-21.948614,-13.751276,-39.231873,,,,,,,
1504281647.231803,-0.030527,0.389231,-3.026728,-0.087643,-0.132828,-0.200527,-0.028240,-0.379477,-0.924770,0.015849,-0.008005,0.042507,-21.948614,-13.751276,-39.231873,,,,,,,
1504281647.241813,-0.030235,0.388714,-3.029187,-0.122533,-0.098433,-0.208126,-0.027975,-0.378999,-0.924974,0.022863,-0.012358,0.044740,-22.098501,-13.752100,-39.157227,,,,,,,
1504281647.251823,-0.029973,0.387428,-3.031521,-0.210298,-0.119046,-0.184765,-0.027747,-0.377809,-0.925468,0.023307,-0.013381,0.034385,-22.098501,-13.752100,-39.157227,,,,,,,
1504281647.261832,-0.029731,0.384644,-3.033564,-0.278091,-0.053493,-0.178595,-0.027554,-0.375229,-0.926522,0.006299,0.009919,-0.000449,-21.798040,-13.975611,-39.229828,,,,,,,
1504281647.271842,-0.028250,0.382219,-3.035735,-0.297066,-0.005416,-0.146701,-0.026208,-0.372980,-0.927469,0.046258,-0.017752,0.026834,-21.798040,-13.975611,-39.229828,,,,,,,
1504281647.281852,-0.027044,0.380583,-3.037386,-0.303557,-0.000065,-0.116842,-0.025106,-0.371462,-0.928109,0.031957,-0.065321,0.039009,-22.174170,-13.527292,-39.234131,,,,,,,
1504281647.291862,-0.026526,0.377668,-3.038689,-0.286466,0.005118,-0.112552,-0.024654,-0.368753,-0.929200,0.020351,-0.039541,0.006166,-22.174170,-13.527292,-39.234131,,,,,,,
1504281647.301871,-0.025902,0.375199,-3.039935,-0.236234,0.018553,-0.108219,-0.024098,-0.366458,-0.930122,0.022084,-0.007016,0.006859,-22.174063,-13.527445,-39.159119,,,,,,,
1504281647.311881,-0.025289,0.373321,-3.041087,-0.175465,0.018043,-0.099574,-0.023544,-0.364709,-0.930824,0.012772,-0.003149,0.011222,-22.174063,-13.527445,-39.159119,,,,,,,
1504281647.321891,-0.024505,0.372139,-3.042168,-0.115828,0.013275,-0.084521,-0.022825,-0.363608,-0.931272,0.011885,-0.005196,0.002088,-22.175070,-13.301844,-39.460846,,,,,,,
1504281647.331901,-0.024174,0.371482,-3.042989,-0.051981,-0.001115,-0.073711,-0.022523,-0.362997,-0.931518,0.009797,-0.006372,0.003738,-22.175070,-13.301844,-39.460846,,,,,,,
1504281647.341911,-0.024120,0.371319,-3.043750,-0.008491,-0.030249,-0.069315,-0.022474,-0.362845,-0.931579,0.013990,-0.009851,0.008895,-21.874929,-13.225946,-39.235626,,,,,,,
1504281647.351920,-0.024382,0.371395,-3.044555,0.008380,-0.061280,-0.078837,-0.022717,-0.362915,-0.931545,0.018201,-0.015960,0.007915,-21.874929,-13.225946,-39.235626,,,,,,,
1504281647.361930,-0.024346,0.371956,-3.045687,0.012573,-0.080479,-0.093745,-0.022679,-0.363438,-0.931342,0.020482,-0.019100,0.006507,-21.650274,-13.224482,-39.460114,,,,,,,
1504281647.371940,-0.024775,0.372005,-3.046779,-0.001251,-0.081420,-0.104441,-0.023078,-0.363484,-0.931314,0.019065,-0.021586,0.005991,-21.650274,-13.224482,-39.460114,,,,,,,
1504281647.381950,-0.025054,0.371856,-3.047958,-0.023496,-0.065246,-0.110913,-0.023339,-0.363345,-0.931362,0.016411,-0.022641,0.003430,-22.248938,-13.752176,-39.457642,,,,,,,
1504281647.391959,-0.025069,0.371399,-3.049134,-0.056363,-0.037273,-0.107817,-0.023358,-0.362919,-0.931528,0.018109,-0.021984,0.000437,-22.248938,-13.752176,-39.457642,,,,,,,
1504281647.401939,-0.024435,0.371057,-3.050366,-0.079643,-0.007254,-0.097240,-0.022770,-0.362601,-0.931666,0.016148,-0.021234,-0.000371,-21.874701,-13.450495,-39.458984,,,,,,,
1504281647.411948,-0.023868,0.370204,-3.051336,-0.091122,0.032256,-0.085588,-0.022249,-0.361805,-0.931988,0.016069,-0.024319,-0.003421,-21.874701,-13.450495,-39.458984,,,,,,,
1504281647.421958,-0.022530,0.369767,-3.052376,-0.094033,0.071701,-0.079262,-0.021006,-0.361399,-0.932175,0.015574,-0.026159,-0.000076,-22.250418,-13.301737,-39.686005,,,,,,,
1504281647.431968,-0.020918,0.369343,-3.053354,-0.085248,0.103596,-0.077171,-0.019506,-0.361002,-0.932361,0.013922,-0.023168,0.001437,-22.250418,-13.301737,-39.686005,,,,,,,
1504281647.441978,-0.019107,0.369032,-3.054340,-0.070351,0.118265,-0.079272,-0.017819,-0.360712,-0.932507,0.014325,-0.021093,0.001644,-21.800222,-13.150461,-39.311035,,,,,,,
1504281647.451987,-0.017274,0.368828,-3.055395,-0.056539,0.106437,-0.085636,-0.016111,-0.360523,-0.932611,0.017012,-0.019284,0.001657,-21.800222,-13.150461,-39.311035,,,,,,,
1504281647.461997,-0.015506,0.368648,-3.056547,-0.045999,0.087176,-0.089857,-0.014464,-0.360354,-0.932703,0.021040,-0.015805,-0.001150,-21.800604,-13.224710,-39.685455,,,,,,,
1504281647.472007,-0.013980,0.368569,-3.057669,-0.034495,0.060438,-0.085525,-0.013041,-0.360281,-0.932753,0.022333,-0.015314,-0.000643,-21.800604,-13.224710,-39.685455,,,,,,,
1504281647.482017,-0.012654,0.368556,-3.058738,-0.023992,0.043297,-0.079077,-0.011804,-0.360269,-0.932774,0.023462,-0.014243,-0.001293,-21.575613,-12.999445,-39.311584,,,,,,,
1504281647.492027,-0.011490,0.368636,-3.059669,-0.010213,0.038911,-0.067308,-0.010718,-0.360343,-0.932758,0.022345,-0.011193,0.001301,-21.575613,-12.999445,-39.311584,,,,,,,
1504281647.502036,-0.010415,0.368890,-3.060439,0.004744,0.048367,-0.055561,-0.009715,-0.360581,-0.932678,0.017619,-0.010086,0.005508,-21.650274,-13.224482,-39.460114,,,,,,,
1504281647.512046,-0.009301,0.369342,-3.061091,0.026166,0.063103,-0.048081,-0.008674,-0.361002,-0.932525,0.014015,-0.009924,0.008727,-21.650274,-13.224482,-39.460114,,,,,,,
1504281647.522056,-0.008086,0.369901,-3.061615,0.031576,0.080096,-0.035295,-0.007539,-0.361523,-0.932333,0.013749,-0.009555,0.010748,-21.649847,-13.299784,-39.309540,,,,,,,
1504281647.532066,-0.006825,0.370725,-3.062006,0.046522,0.087422,-0.024610,-0.006361,-0.362291,-0.932043,0.012403,-0.014280,0.014654,-21.649847,-13.299784,-39.309540,,,,,,,
1504281647.542075,-0.005638,0.371538,-3.062306,0.041011,0.071474,-0.013920,-0.005253,-0.363049,-0.931755,0.015355,-0.013996,0.015968,-21.800421,-13.075449,-39.311584,,,,,,,
1504281647.552085,-0.004757,0.372194,-3.062554,0.020390,0.031146,-0.007484,-0.004431,-0.363660,-0.931521,0.019095,-0.018329,0.009021,-21.800421,-13.075449,-39.311584,,,,,,,
1504281647.562095,-0.004268,0.372631,-3.062820,-0.007660,-0.010177,-0.010665,-0.003975,-0.364067,-0.931364,0.020897,-0.024986,0.002119,-21.350042,-13.447687,-39.682678,,,,,,,
1504281647.572105,-0.004079,0.372869,-3.063185,-0.029203,-0.043020,-0.021322,-0.003798,-0.364289,-0.931278,0.021987,-0.027862,0.000172,-21.350042,-13.447687,-39.682678,,,,,,,
1504281647.582114,-0.004177,0.372935,-3.063669,-0.042127,-0.067406,-0.035181,-0.003890,-0.364350,-0.931254,0.018325,-0.027297,-0.001760,-21.274893,-13.372797,-39.458069,,,,,,,
1504281647.592124,-0.004650,0.372834,-3.064195,-0.048705,-0.093984,-0.041552,-0.004331,-0.364256,-0.931289,0.012082,-0.024111,-0.006364,-21.274893,-13.372797,-39.458069,,,,,,,
1504281647.602134,-0.005373,0.372566,-3.064734,-0.057300,-0.104564,-0.045818,-0.005004,-0.364006,-0.931383,0.006912,-0.020927,-0.012022,-21.499899,-13.373804,-39.458618,,,,,,,
1504281647.612144,-0.006141,0.372135,-3.065253,-0.049768,-0.096102,-0.044753,-0.005721,-0.363606,-0.931535,0.002608,-0.013149,-0.018523,-21.499899,-13.373804,-39.458618,,,,,,,
1504281647.622153,-0.006852,0.371682,-3.065592,-0.035727,-0.065331,-0.029839,-0.006384,-0.363183,-0.931696,-0.004617,-0.004004,-0.018744,-21.725561,-13.149668,-39.535858,,,,,,,
1504281647.632163,-0.007421,0.371285,-3.065682,-0.022727,-0.029228,-0.011732,-0.006915,-0.362813,-0.931836,-0.012006,0.000050,-0.019580,-21.725561,-13.149668,-39.535858,,,,,,,
1504281647.642142,-0.007782,0.370927,-3.065560,-0.007610,0.003663,0.004250,-0.007253,-0.362480,-0.931963,-0.015376,0.005455,-0.023252,-21.800299,-13.299860,-39.609924,,,,,,,
1504281647.652152,-0.008015,0.370661,-3.065323,0.003129,0.017418,0.011718,-0.007471,-0.362232,-0.932058,-0.016943,0.007450,-0.021494,-21.800299,-13.299860,-39.609924,,,,,,,
1504281647.662162,-0.008191,0.370456,-3.065093,0.003053,0.008892,0.012802,-0.007635,-0.362041,-0.932131,-0.012582,0.007487,-0.016859,-21.800222,-13.150461,-39.311035,,,,,,,
1504281647.672172,-0.008423,0.370295,-3.064885,0.006116,-0.006056,0.016037,-0.007852,-0.361890,-0.932188,-0.007406,0.005384,-0.016421,-21.800222,-13.150461,-39.311035,,,,,,,
1504281647.682182,-0.008743,0.370369,-3.064619,0.022004,-0.015785,0.023555,-0.008150,-0.361959,-0.932158,-0.004606,0.002493,-0.008393,-21.799963,-13.300303,-39.384918,,,,,,,
1504281647.692191,-0.009183,0.370737,-3.064255,0.046399,-0.027718,0.033225,-0.008559,-0.362302,-0.932021,-0.003328,0.004071,0.004577,-21.799963,-13.300303,-39.384918,,,,,,,
1504281647.702201,-0.009769,0.371340,-3.063816,0.061126,-0.048096,0.042893,-0.009103,-0.362865,-0.931797,0.000177,0.004039,0.011982,-21.874701,-13.450495,-39.458984,,,,,,,
1504281647.712211,-0.010555,0.372105,-3.063326,0.069506,-0.066282,0.045075,-0.009832,-0.363577,-0.931512,0.001562,0.000357,0.012369,-21.874701,-13.450495,-39.458984,,,,,,,
1504281647.722221,-0.011314,0.372927,-3.062926,0.060990,-0.069399,0.036525,-0.010536,-0.364343,-0.931205,0.005150,-0.005607,0.013725,-22.099920,-13.451212,-39.609528,,,,,,,
1504281647.732234,-0.011772,0.373677,-3.062677,0.042048,-0.043657,0.025772,-0.010959,-0.365041,-0.930927,0.009021,-0.009608,0.015583,-22.099920,-13.451212,-39.609528,,,,,,,
1504281647.742244,-0.011879,0.374271,-3.062511,0.015640,-0.013597,0.021402,-0.011057,-0.365594,-0.930709,0.009439,-0.014457,0.017974,-21.799139,-13.675165,-39.457123,,,,,,,
1504281647.752254,-0.011666,0.374629,-3.062334,-0.012963,0.013277,0.024506,-0.010856,-0.365927,-0.930580,0.011055,-0.019311,0.016212,-21.799139,-13.675165,-39.457123,,,,,,,
1504281647.762264,-0.011261,0.374817,-3.062101,-0.032071,0.029412,0.031915,-0.010479,-0.366102,-0.930516,0.013272,-0.021486,0.014409,-21.874289,-13.750055,-39.681702,,,,,,,
1504281647.772273,-0.010798,0.374869,-3.061796,-0.035351,0.026232,0.043654,-0.010048,-0.366151,-0.930501,0.017266,-0.018309,0.014577,-21.874289,-13.750055,-39.681702,,,,,,,
1504281647.782283,-0.010473,0.374881,-3.061362,-0.030196,0.011260,0.056495,-0.009746,-0.366161,-0.930500,0.019527,-0.015446,0.012226,-22.099707,-13.451502,-39.459534,,,,,,,
1504281647.792293,-0.010281,0.374995,-3.060826,-0.013248,0.001523,0.066146,-0.009566,-0.366268,-0.930460,0.020995,-0.013981,0.008524,-22.099707,-13.451502,-39.459534,,,,,,,
1504281647.802303,-0.010181,0.375288,-3.060214,0.005924,0.000296,0.071515,-0.009473,-0.366540,-0.930354,0.019574,-0.010977,0.007624,-21.950415,-13.300379,-39.685272,,,,,,,
1504281647.812312,-0.010051,0.375596,-3.059537,0.015614,0.013002,0.074710,-0.009350,-0.366827,-0.930242,0.016217,-0.010095,0.006444,-21.950415,-13.300379,-39.685272,,,,,,,
1504281647.822322,-0.009885,0.375949,-3.058795,0.012502,0.025813,0.077882,-0.009195,-0.367155,-0.930114,0.012887,-0.011293,0.002914,-21.875158,-13.225641,-39.385651,,,,,,,
1504281647.832332,-0.009764,0.376195,-3.057951,0.005027,0.030129,0.086400,-0.009081,-0.367384,-0.930025,0.008044,-0.010515,-0.000441,-21.875158,-13.225641,-39.385651,,,,,,,
1504281647.842342,-0.009794,0.376333,-3.057029,0.003878,0.021611,0.089615,-0.009109,-0.367512,-0.929974,0.003631,-0.008831,-0.005100,-21.724737,-13.524515,-39.608032,,,,,,,
1504281647.852352,-0.010032,0.376472,-3.055990,0.015485,0.010850,0.098193,-0.009330,-0.367642,-0.929921,0.000220,-0.004749,-0.009944,-21.724737,-13.524515,-39.608032,,,,,,,
1504281647.862361,-0.010488,0.376687,-3.054842,0.033513,0.001104,0.104646,-0.009752,-0.367842,-0.929837,-0.004179,0.000746,-0.009677,-21.575613,-13.223703,-39.684906,,,,,,,
1504281647.872371,-0.011087,0.376918,-3.053600,0.039920,0.005307,0.109989,-0.010309,-0.368057,-0.929746,-0.010809,0.003463,-0.012713,-21.575613,-13.223703,-39.684906,,,,,,,
1504281647.882381,-0.011624,0.377120,-3.052285,0.035853,0.031976,0.112072,-0.010807,-0.368245,-0.929666,-0.018155,0.002736,-0.015814,-21.800085,-13.300165,-39.459930,,,,,,,
1504281647.892360,-0.011877,0.377395,-3.050922,0.038292,0.070315,0.112011,-0.011041,-0.368500,-0.929562,-0.022010,0.001023,-0.014163,-21.800085,-13.300165,-39.459930,,,,,,,
1504281647.902370,-0.011801,0.377680,-3.049576,0.037519,0.104423,0.107683,-0.010969,-0.368765,-0.929458,-0.024493,0.000890,-0.010117,-21.800299,-13.075602,-39.236572,,,,,,,
1504281647.912380,-0.011434,0.377954,-3.048284,0.035570,0.125751,0.104443,-0.010627,-0.369020,-0.929361,-0.022668,0.001909,-0.006964,-21.800299,-13.075602,-39.236572,,,,,,,
1504281647.922389,-0.010908,0.378387,-3.047040,0.053717,0.125602,0.102342,-0.010136,-0.369422,-0.929207,-0.018047,0.001700,-0.000908,-21.650457,-13.149485,-39.460693,,,,,,,
1504281647.932399,-0.010399,0.378901,-3.045822,0.050396,0.111773,0.104497,-0.009661,-0.369900,-0.929021,-0.012373,0.000607,0.004949,-21.650457,-13.149485,-39.460693,,,,,,,
1504281647.942409,-0.010017,0.379468,-3.044620,0.048096,0.091544,0.105597,-0.009305,-0.370426,-0.928815,-0.008411,-0.002117,0.007032,-22.025381,-13.226023,-39.536011,,,,,,,
1504281647.952419,-0.009825,0.380073,-3.043404,0.047908,0.069165,0.107772,-0.009124,-0.370988,-0.928593,-0.006181,-0.005019,0.008442,-22.025381,-13.226023,-39.536011,,,,,,,
1504281647.962428,-0.009854,0.380775,-3.042145,0.047770,0.054242,0.112069,-0.009148,-0.371640,-0.928332,-0.007133,-0.008563,0.013567,-21.949667,-13.376139,-39.309692,,,,,,,
1504281647.972438,-0.010057,0.381500,-3.040859,0.044417,0.036152,0.114231,-0.009334,-0.372313,-0.928060,-0.007481,-0.009904,0.017309,-21.949667,-13.376139,-39.309692,,,,,,,
1504281647.982448,-0.010418,0.382252,-3.039561,0.044332,0.024431,0.113185,-0.009666,-0.373011,-0.927777,-0.008904,-0.011999,0.019451,-21.725378,-13.224665,-39.535278,,,,,,,
1504281647.992458,-0.010929,0.383054,-3.038332,0.049604,0.009479,0.102548,-0.010137,-0.373755,-0.927472,-0.010341,-0.012109,0.020352,-21.725378,-13.224665,-39.535278,,,,,,,
1504281648.002468,-0.011493,0.383849,-3.037258,0.050686,0.000961,0.086555,-0.010657,-0.374492,-0.927169,-0.010904,-0.009114,0.020125,-22.024618,-13.526026,-39.533783,,,,,,,
1504281648.012477,-0.012114,0.384631,-3.036361,0.058196,-0.005478,0.068436,-0.011229,-0.375218,-0.926869,-0.014070,-0.005825,0.018727,-22.024618,-13.526026,-39.533783,,,,,,,
1504281648.022487,-0.012696,0.385347,-3.035598,0.057215,-0.002263,0.056689,-0.011765,-0.375880,-0.926593,-0.015518,-0.002461,0.014347,-21.875418,-13.300043,-39.685089,,,,,,,
1504281648.032497,-0.013282,0.386024,-3.034908,0.055078,-0.005439,0.052423,-0.012304,-0.376508,-0.926332,-0.016504,-0.002398,0.012788,-21.875418,-13.300043,-39.685089,,,,,,,
1504281648.042507,-0.013883,0.386627,-3.034216,0.043350,-0.005344,0.051338,-0.012858,-0.377067,-0.926097,-0.017828,-0.005059,0.009776,-22.024511,-13.526163,-39.458801,,,,,,,
1504281648.052516,-0.014504,0.387061,-3.033512,0.028463,0.000106,0.050237,-0.013430,-0.377468,-0.925925,-0.019910,-0.004413,0.007911,-22.024511,-13.526163,-39.458801,,,,,,,
1504281648.062526,-0.014984,0.387353,-3.032884,0.012615,0.014095,0.041648,-0.013873,-0.377738,-0.925808,-0.020062,-0.004052,0.008191,-22.024969,-13.301325,-39.385468,,,,,,,
1504281648.072536,-0.015261,0.387498,-3.032362,0.003213,0.032296,0.030929,-0.014129,-0.377873,-0.925750,-0.021882,-0.001979,0.010131,-22.024969,-13.301325,-39.385468,,,,,,,
1504281648.082546,-0.015454,0.387614,-3.031911,0.008636,0.038650,0.023458,-0.014307,-0.377981,-0.925703,-0.024023,0.000616,0.009382,-22.025183,-13.301020,-39.535461,,,,,,,
1504281648.092555,-0.015603,0.387834,-3.031557,0.025689,0.031056,0.014965,-0.014444,-0.378184,-0.925618,-0.022803,0.003779,0.011189,-22.025183,-13.301020,-39.535461,,,,,,,
1504281648.102565,-0.015804,0.388135,-3.031370,0.033042,0.008629,0.002210,-0.014628,-0.378463,-0.925501,-0.016882,0.005874,0.013941,-22.025122,-13.375864,-39.609894,,,,,,,
1504281648.112575,-0.015790,0.388477,-3.031403,0.035133,-0.002035,-0.006307,-0.014613,-0.378779,-0.925372,-0.016897,0.006190,0.013812,-22.025122,-13.375864,-39.609894,,,,,,,
1504281648.122585,-0.016042,0.388882,-3.031446,0.036231,-0.004167,-0.015906,-0.014844,-0.379154,-0.925214,-0.013019,0.003147,0.012479,-22.024282,-13.526468,-39.308777,,,,,,,
1504281648.132564,-0.016167,0.389283,-3.031602,0.028877,0.003362,-0.026605,-0.014956,-0.379526,-0.925060,-0.011838,0.001443,0.015865,-22.024282,-13.526468,-39.308777,,,,,,,
1504281648.142574,-0.016179,0.389627,-3.031877,0.021487,0.007693,-0.035163,-0.014966,-0.379844,-0.924930,-0.010928,-0.000680,0.014468,-21.874182,-13.525949,-39.233368,,,,,,,
1504281648.152583,-0.016135,0.389948,-3.032190,0.017224,0.008791,-0.034104,-0.014923,-0.380141,-0.924808,-0.009063,-0.000719,0.016376,-21.874182,-13.525949,-39.233368,,,,,,,
1504281648.162593,-0.016173,0.390295,-3.032479,0.017060,-0.009328,-0.029802,-0.014956,-0.380461,-0.924676,-0.006040,-0.002184,0.018182,-21.799017,-13.675303,-39.382111,,,,,,,
1504281648.172603,-0.016385,0.390581,-3.032698,0.010464,-0.028464,-0.021240,-0.015151,-0.380725,-0.924564,-0.003114,-0.002606,0.015262,-21.799017,-13.675303,-39.382111,,,,,,,
1504281648.182613,-0.016673,0.390772,-3.032853,0.002926,-0.032672,-0.013774,-0.015415,-0.380902,-0.924487,-0.001125,-0.003131,0.012271,-22.024694,-13.451166,-39.459351,,,,,,,
1504281648.192623,-0.016865,0.390808,-3.032946,-0.009765,-0.015524,-0.008489,-0.015592,-0.380935,-0.924470,-0.001162,-0.000916,0.012468,-22.024694,-13.451166,-39.459351,,,,,,,
1504281648.202632,-0.016853,0.390680,-3.033037,-0.025538,0.011249,-0.011765,-0.015582,-0.380817,-0.924519,-0.003751,0.000187,0.012242,-21.648718,-13.749781,-39.306152,,,,,,,
1504281648.212642,-0.016670,0.390381,-3.033145,-0.036054,0.028388,-0.015015,-0.015416,-0.380541,-0.924636,-0.005687,0.001482,0.009108,-21.648718,-13.749781,-39.306152,,,,,,,
1504281648.222652,-0.016358,0.390021,-3.033260,-0.037046,0.039049,-0.012900,-0.015129,-0.380208,-0.924777,-0.006767,0.001714,0.006732,-21.950109,-13.375528,-39.609711,,,,,,,
1504281648.232662,-0.016026,0.389754,-3.033329,-0.030643,0.041123,-0.009690,-0.014823,-0.379961,-0.924884,-0.006371,0.000902,0.009814,-21.950109,-13.375528,-39.609711,,,,,,,
1504281648.242671,-0.015799,0.389637,-3.033341,-0.020108,0.028242,-0.003244,-0.014614,-0.379853,-0.924931,-0.005237,-0.002654,0.010091,-21.874594,-13.450647,-39.383972,,,,,,,
1504281648.252681,-0.015704,0.389623,-3.033343,-0.014869,0.015412,-0.004279,-0.014527,-0.379840,-0.924938,-0.005508,-0.005109,0.008328,-21.874594,-13.450647,-39.383972,,,,,,,
1504281648.262691,-0.015668,0.389617,-3.033438,-0.011763,-0.000591,-0.010650,-0.014493,-0.379835,-0.924941,-0.002078,-0.003283,0.010009,-21.799398,-13.525309,-39.383209,,,,,,,
1504281648.272701,-0.015681,0.389665,-3.033621,-0.009670,-0.011256,-0.019166,-0.014505,-0.379878,-0.924923,-0.000266,-0.004491,0.010021,-21.799398,-13.525309,-39.383209,,,,,,,
1504281648.282710,-0.015768,0.389700,-3.033860,-0.008640,-0.018719,-0.023421,-0.014586,-0.379911,-0.924908,-0.001207,-0.004046,0.009335,-21.799734,-13.300608,-39.234894,,,,,,,
1504281648.292720,-0.015898,0.389740,-3.034144,-0.002215,-0.019831,-0.029812,-0.014705,-0.379948,-0.924891,-0.002843,-0.001522,0.008036,-21.799734,-13.300608,-39.234894,,,,,,,
1504281648.302730,-0.016013,0.389859,-3.034511,0.008492,-0.019912,-0.037265,-0.014811,-0.380058,-0.924844,-0.003225,-0.001152,0.006890,-21.574133,-13.674143,-39.456543,,,,,,,
1504281648.312740,-0.016150,0.390124,-3.034920,0.023424,-0.023228,-0.041502,-0.014936,-0.380303,-0.924741,-0.003206,0.000420,0.009000,-21.574133,-13.674143,-39.456543,,,,,,,
1504281648.322750,-0.016291,0.390484,-3.035332,0.026581,-0.027519,-0.039354,-0.015064,-0.380636,-0.924602,-0.001827,-0.001459,0.008312,-21.574850,-13.523691,-39.682648,,,,,,,
1504281648.332759,-0.016367,0.390748,-3.035745,0.013786,-0.025284,-0.037246,-0.015133,-0.380880,-0.924501,0.001049,-0.004557,0.005784,-21.574850,-13.523691,-39.682648,,,,,,,
1504281648.342769,-0.016390,0.390796,-3.036101,-0.017067,-0.011183,-0.031987,-0.015154,-0.380925,-0.924482,0.000444,-0.006877,0.001218,-22.024511,-13.526163,-39.458801,,,,,,,
1504281648.352779,-0.016283,0.390687,-3.036411,-0.028639,0.009158,-0.032043,-0.015055,-0.380824,-0.924525,-0.003438,-0.008153,-0.000570,-22.024511,-13.526163,-39.458801,,,,,,,
1504281648.362789,-0.015919,0.390440,-3.036807,-0.043299,0.036995,-0.042791,-0.014720,-0.380596,-0.924624,-0.005696,-0.009755,-0.001492,-21.499823,-13.448664,-39.533051,,,,,,,
1504281648.372798,-0.015287,0.390086,-3.037288,-0.044176,0.057253,-0.048165,-0.014138,-0.380268,-0.924768,-0.005469,-0.007274,-0.003134,-21.499823,-13.448664,-39.533051,,,,,,,
1504281648.382778,-0.014544,0.389796,-3.037844,-0.035581,0.059322,-0.056692,-0.013452,-0.380000,-0.924889,-0.005224,-0.006368,-0.000542,-21.723837,-13.749979,-39.381348,,,,,,,
1504281648.392787,-0.013886,0.389604,-3.038458,-0.026082,0.044328,-0.059851,-0.012845,-0.379822,-0.924970,-0.004825,-0.004654,-0.001909,-21.723837,-13.749979,-39.381348,,,,,,,
1504281648.402797,-0.013430,0.389518,-3.039105,-0.004944,0.018580,-0.060836,-0.012423,-0.379743,-0.925009,-0.002744,-0.001712,-0.003656,-21.349783,-13.373285,-39.383240,,,,,,,
1504281648.412807,-0.013240,0.389629,-3.039687,0.014063,-0.002894,-0.055428,-0.012247,-0.379845,-0.924969,-0.003240,-0.000801,-0.001362,-21.349783,-13.373285,-39.383240,,,,,,,
1504281648.422817,-0.013238,0.389907,-3.040217,0.029942,-0.015817,-0.051108,-0.012244,-0.380103,-0.924863,-0.003625,-0.001214,-0.002719,-21.650274,-13.224482,-39.460114,,,,,,,
1504281648.432826,-0.013262,0.390286,-3.040730,0.037436,-0.012683,-0.051100,-0.012264,-0.380453,-0.924719,-0.004795,-0.000681,-0.001688,-21.650274,-13.224482,-39.460114,,,,,,,
1504281648.442836,-0.013238,0.390674,-3.041266,0.039482,-0.007465,-0.054279,-0.012240,-0.380812,-0.924572,-0.005003,-0.000399,-0.002797,-21.499929,-13.448511,-39.608063,,,,,,,
1504281648.452846,-0.013157,0.391021,-3.041814,0.032085,0.000056,-0.056439,-0.012163,-0.381133,-0.924440,-0.007490,-0.002427,-0.002546,-21.499929,-13.448511,-39.608063,,,,,,,
1504281648.462856,-0.012929,0.391316,-3.042399,0.022602,0.012924,-0.059680,-0.011951,-0.381405,-0.924331,-0.006588,-0.002475,0.001388,-21.724890,-13.374826,-39.459167,,,,,,,
1504281648.472865,-0.012619,0.391569,-3.043015,0.013023,0.015135,-0.060767,-0.011663,-0.381639,-0.924238,-0.004862,-0.003997,0.004270,-21.724890,-13.374826,-39.459167,,,,,,,
1504281648.482875,-0.012302,0.391709,-3.043712,0.002334,0.007771,-0.068245,-0.011370,-0.381769,-0.924188,-0.003431,-0.003592,0.006112,-21.649252,-13.674341,-39.531708,,,,,,,
1504281648.492885,-0.012031,0.391780,-3.044469,0.003380,0.002438,-0.072503,-0.011119,-0.381834,-0.924164,-0.003087,-0.000948,0.004318,-21.649252,-13.674341,-39.531708,,,,,,,
1504281648.502895,-0.011832,0.391937,-3.045256,0.010801,-0.006144,-0.076744,-0.010934,-0.381979,-0.924106,-0.004477,-0.000574,0.007724,-21.423956,-13.748468,-39.455627,,,,,,,
1504281648.512905,-0.011773,0.392138,-3.046053,0.013936,-0.015759,-0.078856,-0.010879,-0.382165,-0.924030,-0.006699,0.001320,0.010792,-21.423956,-13.748468,-39.455627,,,,,,,
1504281648.522914,-0.011810,0.392376,-3.046859,0.022386,-0.026485,-0.078822,-0.010912,-0.382385,-0.923939,-0.006269,0.001617,0.007648,-21.499517,-13.523813,-39.457489,,,,,,,
1504281648.532924,-0.011954,0.392705,-3.047637,0.031954,-0.030828,-0.078796,-0.011044,-0.382688,-0.923811,-0.009800,0.002272,0.010649,-21.499517,-13.523813,-39.457489,,,,,,,
1504281648.542934,-0.012183,0.393070,-3.048415,0.029793,-0.035073,-0.079859,-0.011253,-0.383026,-0.923669,-0.011360,0.001571,0.012902,-21.574255,-13.674006,-39.531525,,,,,,,
1504281648.552944,-0.012455,0.393522,-3.049230,0.031870,-0.043614,-0.081974,-0.011502,-0.383444,-0.923493,-0.009280,-0.001124,0.013794,-21.574255,-13.674006,-39.531525,,,,,,,
1504281648.562953,-0.012742,0.393937,-3.050098,0.023334,-0.047801,-0.088385,-0.011766,-0.383827,-0.923330,-0.009215,-0.002556,0.015173,-21.798605,-13.750605,-39.231506,,,,,,,
1504281648.572963,-0.013013,0.394255,-3.051062,0.013746,-0.050912,-0.095868,-0.012015,-0.384120,-0.923205,-0.008264,-0.002934,0.014727,-21.798605,-13.750605,-39.231506,,,,,,,
1504281648.582973,-0.013177,0.394478,-3.052066,0.003130,-0.044432,-0.095897,-0.012164,-0.384326,-0.923117,-0.005292,-0.003659,0.014029,-21.798758,-13.825159,-39.455994,,,,,,,
1504281648.592983,-0.013328,0.394588,-3.053030,-0.009683,-0.043266,-0.091651,-0.012303,-0.384428,-0.923073,-0.005611,-0.004442,0.014626,-21.798758,-13.825159,-39.455994,,,,,,,
1504281648.602992,-0.013481,0.394594,-3.053975,-0.020383,-0.045313,-0.088464,-0.012445,-0.384433,-0.923069,-0.003684,-0.004514,0.014149,-21.498465,-13.898966,-39.379669,,,,,,,
1504281648.613002,-0.013653,0.394513,-3.054886,-0.023633,-0.049552,-0.085259,-0.012604,-0.384358,-0.923098,-0.002075,-0.004008,0.011492,-21.498465,-13.898966,-39.379669,,,,,,,
1504281648.623012,-0.013913,0.394422,-3.055764,-0.018387,-0.058125,-0.080965,-0.012844,-0.384274,-0.923130,-0.001728,-0.002078,0.009876,-21.273169,-13.973093,-39.303528,,,,,,,
1504281648.632991,-0.014200,0.394372,-3.056643,-0.013072,-0.061365,-0.082018,-0.013110,-0.384229,-0.923145,0.000232,0.000013,0.010715,-21.273169,-13.973093,-39.303528,,,,,,,
1504281648.643001,-0.014413,0.394336,-3.057553,-0.007675,-0.055013,-0.084155,-0.013307,-0.384195,-0.923156,0.001451,0.001230,0.008926,-21.798956,-13.750162,-39.456543,,,,,,,
1504281648.653011,-0.014483,0.394364,-3.058498,-0.001144,-0.040146,-0.086304,-0.013371,-0.384221,-0.923144,0.000538,0.000874,0.008533,-21.798956,-13.750162,-39.456543,,,,,,,
1504281648.663021,-0.014400,0.394423,-3.059434,-0.007469,-0.029440,-0.084200,-0.013293,-0.384276,-0.923123,0.001651,-0.001314,0.012783,-21.723043,-13.975275,-39.229645,,,,,,,
1504281648.673030,-0.014323,0.394428,-3.060318,-0.014993,-0.032581,-0.077803,-0.013222,-0.384280,-0.923122,0.003091,-0.004621,0.008968,-21.723043,-13.975275,-39.229645,,,,,,,
1504281648.683040,-0.014298,0.394433,-3.061169,-0.015112,-0.044306,-0.072446,-0.013200,-0.384285,-0.923120,0.007341,-0.006111,0.007349,-21.723944,-13.749826,-39.456360,,,,,,,
1504281648.693050,-0.014370,0.394517,-3.062027,-0.008840,-0.061405,-0.073474,-0.013266,-0.384363,-0.923087,0.010275,-0.006476,0.011969,-21.723944,-13.749826,-39.456360,,,,,,,
1504281648.703060,-0.014462,0.394571,-3.062949,-0.008893,-0.068861,-0.074529,-0.013350,-0.384412,-0.923065,0.015212,-0.004244,0.009506,-21.647894,-13.900385,-39.005005,,,,,,,
1504281648.713069,-0.014623,0.394592,-3.063891,-0.007857,-0.074193,-0.076654,-0.013499,-0.384431,-0.923055,0.014765,-0.001860,0.009481,-21.647894,-13.900385,-39.005005,,,,,,,
1504281648.723079,-0.014760,0.394561,-3.064833,-0.016360,-0.070923,-0.077744,-0.013626,-0.384403,-0.923065,0.013855,-0.001141,0.012329,-21.648230,-13.899927,-39.230011,,,,,,,
1504281648.733077,-0.014854,0.394424,-3.065705,-0.022704,-0.059155,-0.070305,-0.013713,-0.384276,-0.923116,0.012538,-0.001084,0.008611,-21.648230,-13.899927,-39.230011,,,,,,,
1504281648.743087,-0.014888,0.394253,-3.066475,-0.027969,-0.045266,-0.061800,-0.013746,-0.384119,-0.923181,0.009610,-0.002127,0.009363,-22.023046,-13.976618,-39.230377,,,,,,,
1504281648.753096,-0.014850,0.394064,-3.067191,-0.032211,-0.038842,-0.056483,-0.013712,-0.383944,-0.923255,0.010751,-0.002668,0.010916,-22.023046,-13.976618,-39.230377,,,,,,,
1504281648.763106,-0.014843,0.393847,-3.067822,-0.032273,-0.042044,-0.049006,-0.013706,-0.383744,-0.923338,0.011920,-0.002990,0.007185,-21.798010,-13.900904,-39.080383,,,,,,,
1504281648.773116,-0.014847,0.393628,-3.068379,-0.026980,-0.042094,-0.040459,-0.013711,-0.383542,-0.923422,0.013695,-0.001590,0.005545,-21.798010,-13.900904,-39.080383,,,,,,,
1504281648.783126,-0.014840,0.393463,-3.068896,-0.020583,-0.040018,-0.036183,-0.013705,-0.383389,-0.923485,0.014712,-0.000675,0.006173,-21.872259,-14.201242,-39.078308,,,,,,,
1504281648.793135,-0.014853,0.393291,-3.069341,-0.017462,-0.045377,-0.028698,-0.013719,-0.383230,-0.923551,0.016206,0.002188,0.006589,-21.872259,-14.201242,-39.078308,,,,,,,
1504281648.803145,-0.014935,0.393099,-3.069693,-0.018647,-0.052836,-0.016947,-0.013796,-0.383053,-0.923624,0.018587,0.002514,0.005426,-21.722662,-14.125269,-39.228516,,,,,,,
1504281648.813155,-0.015135,0.393016,-3.069972,-0.008059,-0.060384,-0.012648,-0.013980,-0.382976,-0.923652,0.018421,0.000011,0.004127,-21.722662,-14.125269,-39.228516,,,,,,,
1504281648.823165,-0.015308,0.393123,-3.070256,0.005900,-0.051967,-0.016909,-0.014139,-0.383075,-0.923609,0.016993,-0.000256,0.009180,-21.798269,-13.975306,-39.379852,,,,,,,
1504281648.833175,-0.015395,0.393330,-3.070568,0.010194,-0.048803,-0.016909,-0.014219,-0.383266,-0.923529,0.017713,-0.000386,0.014029,-21.798269,-13.975306,-39.379852,,,,,,,
1504281648.843184,-0.015493,0.393502,-3.070857,0.000640,-0.042329,-0.015871,-0.014308,-0.383425,-0.923461,0.015208,-0.004789,0.009017,-21.798040,-13.975611,-39.229828,,,,,,,
1504281648.853194,-0.015506,0.393597,-3.071113,-0.013113,-0.027297,-0.014855,-0.014320,-0.383513,-0.923424,0.013466,-0.008226,0.006951,-21.798040,-13.975611,-39.229828,,,,,,,
1504281648.863204,-0.015377,0.393577,-3.071341,-0.031119,-0.009035,-0.011717,-0.014200,-0.383494,-0.923434,0.011286,-0.010564,0.009784,-21.873343,-13.900797,-39.305573,,,,,,,
1504281648.873214,-0.015102,0.393350,-3.071520,-0.052369,0.004989,-0.006443,-0.013948,-0.383285,-0.923525,0.012010,-0.011567,0.008806,-21.873343,-13.900797,-39.305573,,,,,,,
1504281648.883193,-0.014815,0.393024,-3.071659,-0.054551,0.000744,-0.003238,-0.013685,-0.382984,-0.923654,0.013410,-0.011273,0.006036,-21.872442,-14.126245,-39.078888,,,,,,,
1504281648.893203,-0.014602,0.392716,-3.071818,-0.050341,-0.008876,-0.006417,-0.013490,-0.382699,-0.923774,0.013322,-0.010733,0.007515,-21.872442,-14.126245,-39.078888,,,,,,,
1504281648.903212,-0.014510,0.392489,-3.072006,-0.035504,-0.022847,-0.008503,-0.013406,-0.382489,-0.923863,0.013589,-0.007068,0.008915,-21.798040,-13.975611,-39.229828,,,,,,,
1504281648.913222,-0.014594,0.392341,-3.072122,-0.020639,-0.029366,-0.004197,-0.013485,-0.382353,-0.923918,0.009609,-0.003404,0.007338,-21.798040,-13.975611,-39.229828,,,,,,,
1504281648.923232,-0.014787,0.392323,-3.072151,-0.008903,-0.026270,0.001155,-0.013663,-0.382336,-0.923922,0.004965,-0.003711,0.005160,-22.024176,-13.526621,-39.233765,,,,,,,
1504281648.933242,-0.014994,0.392374,-3.072118,-0.005684,-0.022037,0.004355,-0.013854,-0.382383,-0.923900,0.002181,-0.003496,0.006572,-22.024176,-13.526621,-39.233765,,,,,,,
1504281648.943251,-0.015119,0.392331,-3.072079,-0.013054,-0.009190,0.005387,-0.013970,-0.382343,-0.923915,0.000984,-0.002957,0.001552,-22.024023,-13.676325,-39.382660,,,,,,,
1504281648.953261,-0.015161,0.392204,-3.072018,-0.020445,0.000461,0.005357,-0.014009,-0.382226,-0.923963,-0.000075,-0.003974,0.000303,-22.024023,-13.676325,-39.382660,,,,,,,
1504281648.963271,-0.015092,0.392025,-3.071980,-0.022508,0.007940,0.003205,-0.013947,-0.382060,-0.924032,0.000534,-0.003499,0.000662,-21.723501,-13.750422,-39.156311,,,,,,,
1504281648.973281,-0.014949,0.391813,-3.071957,-0.023523,0.014342,0.003192,-0.013816,-0.381865,-0.924115,0.001136,-0.001985,0.000088,-21.723501,-13.750422,-39.156311,,,,,,,
1504281648.983290,-0.014778,0.391580,-3.071907,-0.024580,0.017544,0.006387,-0.013659,-0.381649,-0.924206,0.001223,-0.000202,0.001065,-22.098944,-13.751505,-39.457275,,,,,,,
1504281648.993300,-0.014673,0.391395,-3.071799,-0.019320,0.012166,0.012810,-0.013563,-0.381478,-0.924278,0.001509,-0.000373,0.002434,-22.098944,-13.751505,-39.457275,,,,,,,
1504281649.003310,-0.014654,0.391163,-3.071642,-0.025850,-0.000572,0.018158,-0.013547,-0.381264,-0.924367,0.003445,-0.000069,0.002980,-21.873465,-13.900644,-39.380585,,,,,,,
1504281649.013320,-0.014825,0.390912,-3.071410,-0.030260,-0.014395,0.024579,-0.013707,-0.381032,-0.924460,0.002690,-0.001323,0.002387,-21.873465,-13.900644,-39.380585,,,,,,,
1504281649.023330,-0.015199,0.390694,-3.071136,-0.021872,-0.031515,0.026758,-0.014053,-0.380831,-0.924538,0.001144,-0.000883,0.002953,-22.098227,-13.901957,-39.231110,,,,,,,
1504281649.033339,-0.015695,0.390515,-3.070847,-0.009147,-0.041210,0.026797,-0.014513,-0.380665,-0.924599,0.000932,0.004139,0.004738,-22.098227,-13.901957,-39.231110,,,,,,,
1504281649.043349,-0.016279,0.390526,-3.070577,0.007882,-0.047742,0.024703,-0.015053,-0.380675,-0.924586,0.000831,0.005141,0.006740,-22.099066,-13.527109,-39.158936,,,,,,,
1504281649.053359,-0.016899,0.390650,-3.070276,0.020673,-0.047850,0.026861,-0.015625,-0.380789,-0.924530,-0.000641,0.005820,0.007522,-22.099066,-13.527109,-39.158936,,,,,,,
1504281649.063369,-0.017437,0.390791,-3.069981,0.015429,-0.037150,0.025765,-0.016122,-0.380920,-0.924468,-0.001365,0.005050,0.008315,-21.724173,-13.525263,-39.233002,,,,,,,
1504281649.073378,-0.017841,0.390892,-3.069697,0.004855,-0.025341,0.025726,-0.016495,-0.381013,-0.924422,-0.000321,0.001909,0.006850,-21.724173,-13.525263,-39.233002,,,,,,,
1504281649.083388,-0.018124,0.390820,-3.069374,-0.015345,-0.012394,0.032073,-0.016756,-0.380947,-0.924445,0.000032,-0.000919,0.004828,-22.024176,-13.526621,-39.233765,,,,,,,
1504281649.093398,-0.018278,0.390606,-3.069004,-0.031174,0.010112,0.033073,-0.016900,-0.380749,-0.924524,-0.003104,-0.002918,0.003641,-22.024176,-13.526621,-39.233765,,,,,,,
1504281649.103408,-0.018235,0.390283,-3.068679,-0.039509,0.030435,0.025552,-0.016863,-0.380450,-0.924648,-0.004713,-0.001996,0.004451,-22.249884,-13.377176,-39.460480,,,,,,,
1504281649.113417,-0.017986,0.389909,-3.068428,-0.043646,0.043261,0.020185,-0.016635,-0.380105,-0.924794,-0.004269,-0.001655,0.007771,-22.249884,-13.377176,-39.460480,,,,,,,
1504281649.123427,-0.017675,0.389534,-3.068224,-0.045786,0.041149,0.018051,-0.016350,-0.379758,-0.924941,-0.002449,-0.001804,0.008666,-22.024740,-13.301615,-39.235443,,,,,,,
1504281649.133406,-0.017439,0.389170,-3.068052,-0.047996,0.029449,0.014865,-0.016134,-0.379420,-0.925084,-0.001230,-0.003957,0.009205,-22.024740,-13.301615,-39.235443,,,,,,,
1504281649.143416,-0.017349,0.388826,-3.067937,-0.042827,0.005968,0.010646,-0.016053,-0.379103,-0.925215,0.001450,-0.003145,0.008681,-22.025381,-13.226023,-39.536011,,,,,,,
1504281649.153426,-0.017496,0.388512,-3.067845,-0.038727,-0.016441,0.008558,-0.016191,-0.378811,-0.925332,0.000826,-0.002216,0.008157,-22.025381,-13.226023,-39.536011,,,,,,,
1504281649.163436,-0.017811,0.388297,-3.067742,-0.027117,-0.030393,0.011805,-0.016484,-0.378613,-0.925408,-0.000240,-0.001651,0.009393,-21.949179,-13.526285,-39.233582,,,,,,,
1504281649.173446,-0.018286,0.388213,-3.067517,-0.007956,-0.030560,0.020378,-0.016924,-0.378535,-0.925432,-0.004026,0.000255,0.006441,-21.949179,-13.526285,-39.233582,,,,,,,
1504281649.183455,-0.018728,0.388208,-3.067197,-0.003617,-0.017817,0.026768,-0.017334,-0.378530,-0.925427,-0.006730,0.000372,0.007382,-22.249884,-13.377176,-39.460480,,,,,,,
1504281649.193465,-0.019068,0.388160,-3.066837,-0.008829,-0.001792,0.027799,-0.017648,-0.378486,-0.925439,-0.008536,0.000541,0.005349,-22.249884,-13.377176,-39.460480,,,,,,,
1504281649.203475,-0.019156,0.387960,-3.066528,-0.025657,0.023927,0.020253,-0.017731,-0.378301,-0.925513,-0.009292,-0.000285,0.002829,-22.024282,-13.526468,-39.308777,,,,,,,
1504281649.213485,-0.018906,0.387645,-3.066344,-0.038184,0.051746,0.009509,-0.017502,-0.378009,-0.925636,-0.008712,-0.001797,0.003059,-22.024282,-13.526468,-39.308777,,,,,,,
1504281649.223494,-0.018450,0.387305,-3.066221,-0.038040,0.067730,0.006280,-0.017082,-0.377694,-0.925773,-0.009255,-0.001014,0.004615,-22.024740,-13.301615,-39.235443,,,,,,,
1504281649.233504,-0.017937,0.386959,-3.066048,-0.039101,0.073058,0.013741,-0.016610,-0.377374,-0.925912,-0.009925,-0.001120,0.005349,-22.024740,-13.301615,-39.235443,,,,,,,
1504281649.243514,-0.017536,0.386704,-3.065793,-0.033944,0.055956,0.022320,-0.016240,-0.377138,-0.926015,-0.007136,-0.003554,0.005361,-22.024405,-13.526316,-39.383789,,,,,,,
1504281649.253524,-0.017398,0.386485,-3.065455,-0.031010,0.027152,0.029848,-0.016114,-0.376935,-0.926100,-0.004760,-0.003635,0.006452,-22.024405,-13.526316,-39.383789,,,,,,,
1504281649.263533,-0.017542,0.386211,-3.065090,-0.035509,-0.000519,0.032025,-0.016249,-0.376681,-0.926200,-0.003588,-0.003003,0.004936,-22.099356,-13.451960,-39.234497,,,,,,,
1504281649.273543,-0.017883,0.385899,-3.064755,-0.035657,-0.021826,0.027793,-0.016567,-0.376393,-0.926312,-0.003330,-0.002453,0.003140,-22.099356,-13.451960,-39.234497,,,,,,,
1504281649.283553,-0.018334,0.385645,-3.064495,-0.028214,-0.030404,0.019282,-0.016987,-0.376157,-0.926400,-0.003872,-0.001254,0.003137,-22.099401,-13.526651,-39.383972,,,,,,,
1504281649.293563,-0.018764,0.385429,-3.064329,-0.022798,-0.026177,0.009678,-0.017386,-0.375957,-0.926474,-0.005166,-0.000554,0.002173,-22.099401,-13.526651,-39.383972,,,,,,,
1504281649.303572,-0.019122,0.385213,-3.064216,-0.018433,-0.016620,0.005399,-0.017719,-0.375757,-0.926549,-0.007671,0.000940,0.000524,-22.025640,-13.076166,-39.462158,,,,,,,
1504281649.313582,-0.019463,0.385106,-3.064071,-0.007715,-0.009253,0.007541,-0.018036,-0.375657,-0.926583,-0.010269,0.000566,-0.000251,-22.025640,-13.076166,-39.462158,,,,,,,
1504281649.323592,-0.019762,0.385059,-3.063865,-0.001281,-0.001854,0.012877,-0.018313,-0.375614,-0.926595,-0.011456,0.001468,0.001394,-22.250036,-13.227472,-39.311584,,,,,,,
1504281649.333602,-0.019976,0.385008,-3.063598,-0.002287,0.009868,0.019260,-0.018512,-0.375567,-0.926610,-0.011121,0.001833,0.000234,-22.250036,-13.227472,-39.311584,,,,,,,
1504281649.343612,-0.020079,0.384942,-3.063318,-0.002250,0.015193,0.020318,-0.018608,-0.375505,-0.926633,-0.008949,0.001329,-0.001925,-22.250036,-13.227472,-39.311584,,,,,,,
1504281649.353621,-0.020148,0.384816,-3.063066,-0.009716,0.014190,0.018173,-0.018673,-0.375388,-0.926679,-0.006748,0.002677,-0.001162,-22.250036,-13.227472,-39.311584,,,,,,,
1504281649.363631,-0.020156,0.384614,-3.062913,-0.015043,0.009980,0.009632,-0.018682,-0.375201,-0.926755,-0.004298,0.002795,-0.001345,-21.875341,-13.150644,-39.386230,,,,,,,
1504281649.373641,-0.020175,0.384398,-3.062857,-0.017185,0.003612,0.001101,-0.018702,-0.375001,-0.926836,-0.003606,0.002229,-0.001021,-21.875341,-13.150644,-39.386230,,,,,,,
1504281649.383620,-0.020249,0.384189,-3.062869,-0.019349,-0.002760,-0.003161,-0.018772,-0.374807,-0.926913,-0.003811,0.002767,0.001330,-22.249853,-13.302485,-39.311005,,,,,,,
1504281649.393630,-0.020323,0.383986,-3.062892,-0.013979,0.000394,-0.005291,-0.018841,-0.374619,-0.926987,-0.005557,0.001359,-0.002212,-22.249853,-13.302485,-39.311005,,,,,,,
1504281649.403640,-0.020361,0.383875,-3.062914,-0.002179,0.007756,-0.006351,-0.018878,-0.374516,-0.927028,-0.007016,0.002705,-0.001423,-22.174780,-13.376993,-39.385284,,,,,,,
1504281649.413649,-0.020311,0.383837,-3.062926,0.005342,0.015151,-0.005283,-0.018832,-0.374481,-0.927043,-0.006452,0.005340,0.000423,-22.174780,-13.376993,-39.385284,,,,,,,
1504281649.423659,-0.020176,0.383801,-3.062924,0.008585,0.022579,-0.002087,-0.018707,-0.374447,-0.927059,-0.005188,0.006787,-0.000766,-22.250601,-13.002481,-39.313263,,,,,,,
1504281649.433669,-0.020001,0.383729,-3.062901,0.005367,0.022602,0.001109,-0.018545,-0.374381,-0.927090,-0.003183,0.007559,-0.002689,-22.250601,-13.002481,-39.313263,,,,,,,
1504281649.443679,-0.019824,0.383617,-3.062850,0.000950,0.021491,0.004329,-0.018382,-0.374277,-0.927135,-0.001684,0.006555,-0.002812,-21.874365,-13.450937,-39.233948,,,,,,,
1504281649.453688,-0.019643,0.383549,-3.062771,0.005200,0.021453,0.007539,-0.018214,-0.374214,-0.927163,-0.000417,0.006188,-0.002463,-21.874365,-13.450937,-39.233948,,,,,,,
1504281649.463698,-0.019488,0.383584,-3.062683,0.013722,0.019253,0.006490,-0.018071,-0.374247,-0.927153,-0.000758,0.005457,-0.000841,-21.799887,-13.375162,-39.459351,,,,,,,
1504281649.473708,-0.019417,0.383683,-3.062627,0.020010,0.003221,0.003327,-0.018004,-0.374338,-0.927117,0.001097,0.006159,0.000894,-21.799887,-13.375162,-39.459351,,,,,,,
1504281649.483718,-0.019461,0.383855,-3.062642,0.029505,-0.012837,-0.000898,-0.018043,-0.374497,-0.927052,0.002342,0.005341,-0.001674,-21.874853,-13.300791,-39.310089,,,,,,,
1504281649.493727,-0.019635,0.384135,-3.062715,0.039040,-0.025694,-0.008331,-0.018203,-0.374757,-0.926944,0.002227,0.005845,-0.001111,-21.874853,-13.300791,-39.310089,,,,,,,
1504281649.503737,-0.019788,0.384467,-3.062848,0.037989,-0.025682,-0.011535,-0.018342,-0.375065,-0.926817,0.004288,0.005268,0.002943,-22.100531,-13.076654,-39.387329,,,,,,,
1504281649.513747,-0.019842,0.384785,-3.062998,0.032756,-0.012851,-0.011567,-0.018390,-0.375359,-0.926697,0.003925,0.003503,0.002915,-22.100531,-13.076654,-39.387329,,,,,,,
1504281649.523757,-0.019769,0.384967,-3.063122,0.014759,0.005412,-0.010563,-0.018321,-0.375529,-0.926630,0.001353,0.002436,0.004327,-21.949850,-13.301126,-39.310272,,,,,,,
1504281649.533767,-0.019489,0.384938,-3.063221,-0.009633,0.025856,-0.007439,-0.018062,-0.375502,-0.926646,0.001705,0.002287,0.006022,-21.949850,-13.301126,-39.310272,,,,,,,
1504281649.543776,-0.019091,0.384678,-3.063280,-0.030906,0.036683,-0.003226,-0.017695,-0.375261,-0.926750,0.001871,0.002199,0.005928,-22.248800,-13.677637,-39.233185,,,,,,,
1504281649.553786,-0.018724,0.384373,-3.063287,-0.032056,0.030293,0.003188,-0.017357,-0.374978,-0.926871,0.002510,0.001427,0.004615,-22.248800,-13.677637,-39.233185,,,,,,,
1504281649.563796,-0.018421,0.384067,-3.063264,-0.023583,0.023828,0.005349,-0.017078,-0.374694,-0.926991,0.002537,0.004348,0.005177,-22.025259,-13.226175,-39.461029,,,,,,,
1504281649.573806,-0.018191,0.383875,-3.063267,-0.008692,0.016250,0.002185,-0.016866,-0.374516,-0.927067,0.003530,0.005940,0.005985,-22.025259,-13.226175,-39.461029,,,,,,,
1504281649.583815,-0.018054,0.383878,-3.063314,0.010436,0.003312,-0.003096,-0.016740,-0.374519,-0.927068,0.003815,0.005668,0.006200,-21.949286,-13.526133,-39.308594,,,,,,,
1504281649.593825,-0.018025,0.384005,-3.063367,0.022124,-0.003177,-0.004132,-0.016712,-0.374637,-0.927021,0.002689,0.007236,0.005359,-21.949286,-13.526133,-39.308594,,,,,,,
1504281649.603835,-0.017938,0.384187,-3.063448,0.027542,0.005307,-0.007340,-0.016629,-0.374806,-0.926954,0.001966,0.007298,0.003691,-22.023794,-13.676615,-39.232635,,,,,,,
1504281649.613845,-0.017725,0.384331,-3.063539,0.015894,0.017124,-0.006314,-0.016431,-0.374939,-0.926904,0.002164,0.005157,0.004083,-22.023794,-13.676615,-39.232635,,,,,,,
1504281649.623854,-0.017451,0.384376,-3.063608,0.006319,0.022528,-0.003138,-0.016176,-0.374980,-0.926892,0.002749,0.003719,0.001858,-21.949514,-13.525827,-39.458618,,,,,,,
1504281649.633834,-0.017136,0.384240,-3.063611,-0.013945,0.026952,0.002156,-0.015885,-0.374855,-0.926947,0.002702,0.002830,0.001166,-21.949514,-13.525827,-39.458618,,,,,,,
1504281649.643843,-0.016820,0.384004,-3.063601,-0.021458,0.022750,0.004285,-0.015594,-0.374636,-0.927041,0.003753,0.002764,0.002068,-22.024771,-13.376322,-39.384888,,,,,,,
1504281649.653853,-0.016590,0.383723,-3.063596,-0.021521,0.014228,0.003232,-0.015383,-0.374375,-0.927150,0.004610,0.004487,0.001979,-22.024771,-13.376322,-39.384888,,,,,,,
1504281649.663863,-0.016444,0.383457,-3.063575,-0.017317,0.007798,0.005386,-0.015249,-0.374129,-0.927251,0.004095,0.005659,0.001409,-22.100637,-13.076502,-39.462341,,,,,,,
1504281649.673873,-0.016343,0.383200,-3.063535,-0.015165,0.008849,0.003253,-0.015157,-0.373890,-0.927349,0.001363,0.006275,0.000179,-22.100637,-13.076502,-39.462341,,,,,,,
1504281649.683883,-0.016217,0.382898,-3.063535,-0.017242,0.014197,0.000037,-0.015042,-0.373610,-0.927464,0.000256,0.006468,-0.004940,-22.024557,-13.376612,-39.234863,,,,,,,
