timestamp(unix),attitude_roll(radians),attitude_pitch(radians),attitude_yaw(radians),rotation_rate_x(radians/s),rotation_rate_y(radians/s),rotation_rate_z(radians/s),gravity_x(G),gravity_y(G),gravity_z(G),user_acc_x(G),user_acc_y(G),user_acc_z(G),magnetic_field_x(microteslas),magnetic_field_y(microteslas),magnetic_field_z(microteslas),latitude(degree),longitude(degree),altitude(meter),speed(m/s),course(degree),timestamp(unix),User Mark
1504281847.361505,-0.105475,0.317627,0.096953,-0.300042,0.036766,-0.117310,-0.100013,-0.312313,-0.944700,-0.121697,-0.443943,0.374632,-13.902472,-20.994120,-37.207428,,,,,,,
1504281847.371515,-0.104609,0.314157,0.095128,-0.383212,0.027886,-0.141989,-0.099308,-0.309015,-0.945858,-0.117520,-0.461767,0.356381,-13.977667,-20.919458,-37.208191,,,,,,,
1504281847.381524,-0.103781,0.310088,0.093111,-0.436564,0.021941,-0.150610,-0.098654,-0.305143,-0.947183,-0.111688,-0.474459,0.352014,-13.977667,-20.919458,-37.208191,,,,,,,
1504281847.391534,-0.102846,0.305656,0.091072,-0.466355,0.034969,-0.146415,-0.097906,-0.300919,-0.948611,-0.104853,-0.483581,0.350481,-13.903830,-20.543818,-37.360809,,,,,,,
1504281847.401544,-0.101674,0.301194,0.089070,-0.463976,0.066915,-0.144333,-0.096930,-0.296661,-0.950051,-0.106531,-0.492234,0.346032,-13.903830,-20.543818,-37.360809,,,,,,,
1504281847.411554,-0.100049,0.296905,0.087141,-0.435852,0.118891,-0.137971,-0.095512,-0.292562,-0.951465,-0.113198,-0.489421,0.344669,-13.830084,-20.317591,-37.812347,,,,,,,
1504281847.421563,-0.097961,0.293017,0.085399,-0.390687,0.171785,-0.124110,-0.093635,-0.288842,-0.952787,-0.111046,-0.472954,0.342786,-13.830084,-20.317591,-37.812347,,,,,,,
1504281847.431573,-0.095501,0.289626,0.083848,-0.339221,0.210776,-0.112348,-0.091384,-0.285594,-0.953984,-0.116380,-0.459493,0.344151,-13.530539,-20.091394,-37.738281,,,,,,,
1504281847.441553,-0.092804,0.286680,0.082464,-0.294275,0.234902,-0.100571,-0.088888,-0.282769,-0.955060,-0.118036,-0.452170,0.337446,-13.530539,-20.091394,-37.738281,,,,,,,
1504281847.451562,-0.090001,0.284129,0.081268,-0.253671,0.250539,-0.087720,-0.086276,-0.280321,-0.956021,-0.111127,-0.455030,0.325406,-13.531027,-19.941233,-37.814423,,,,,,,
1504281847.461572,-0.087225,0.281976,0.080258,-0.211069,0.249109,-0.074834,-0.083674,-0.278255,-0.956856,-0.105459,-0.467046,0.315483,-13.531027,-19.941233,-37.814423,,,,,,,
1504281847.471582,-0.084630,0.280301,0.079398,-0.162172,0.231648,-0.066180,-0.081230,-0.276645,-0.957533,-0.100472,-0.475644,0.309187,-13.156286,-19.789698,-37.739624,,,,,,,
1504281847.481585,-0.082081,0.279295,0.078776,-0.085408,0.237388,-0.045776,-0.078811,-0.275678,-0.958014,-0.098343,-0.478976,0.297888,-13.156286,-19.789698,-37.739624,,,,,,,
1504281847.491593,-0.079719,0.279153,0.078382,0.006211,0.224904,-0.038124,-0.076552,-0.275541,-0.958236,-0.090837,-0.473864,0.290603,-13.006170,-19.789179,-37.664276,,,,,,,
1504281847.501603,-0.077866,0.279768,0.078031,0.080437,0.166751,-0.038960,-0.074763,-0.276133,-0.958207,-0.103627,-0.468283,0.294419,-13.006170,-19.789179,-37.664276,,,,,,,
1504281847.511613,-0.076537,0.281153,0.077776,0.155723,0.111780,-0.033395,-0.073460,-0.277464,-0.957924,-0.096889,-0.444857,0.275642,-13.081884,-19.639063,-37.890594,,,,,,,
1504281847.521623,-0.075656,0.283350,0.077636,0.237591,0.078068,-0.029992,-0.072570,-0.279574,-0.957378,-0.094834,-0.440214,0.260585,-13.081884,-19.639063,-37.890594,,,,,,,
1504281847.531632,-0.075045,0.286363,0.077595,0.320597,0.053937,-0.025536,-0.071921,-0.282465,-0.956578,-0.097772,-0.444494,0.267384,-12.781027,-19.937876,-37.812592,,,,,,,
1504281847.541642,-0.074735,0.290061,0.077735,0.382191,0.027839,-0.009372,-0.071547,-0.286010,-0.955552,-0.089403,-0.451523,0.281266,-12.781027,-19.937876,-37.812592,,,,,,,
1504281847.551652,-0.074871,0.294092,0.078021,0.410601,-0.017158,-0.001772,-0.071590,-0.289871,-0.954384,-0.086979,-0.467361,0.290383,-13.005011,-20.164484,-37.511414,,,,,,,
1504281847.561662,-0.075496,0.298254,0.078381,0.418751,-0.061986,0.003659,-0.072094,-0.293852,-0.953128,-0.089588,-0.481356,0.289875,-13.005011,-20.164484,-37.511414,,,,,,,
1504281847.571671,-0.076375,0.302418,0.078824,0.414291,-0.080075,0.013289,-0.072838,-0.297829,-0.951836,-0.081123,-0.475791,0.297448,-12.854940,-20.238657,-37.585510,,,,,,,
1504281847.581681,-0.077598,0.306358,0.079434,0.386201,-0.111831,0.032510,-0.073911,-0.301588,-0.950569,-0.081088,-0.464602,0.317467,-12.854940,-20.238657,-37.585510,,,,,,,
1504281847.591691,-0.079206,0.309694,0.080180,0.320798,-0.141147,0.049527,-0.075359,-0.304767,-0.949441,-0.088215,-0.472287,0.330895,-13.004263,-20.464472,-37.509186,,,,,,,
1504281847.601701,-0.081025,0.312359,0.081118,0.254434,-0.153412,0.072916,-0.077020,-0.307305,-0.948489,-0.092811,-0.485435,0.327472,-13.004263,-20.464472,-37.509186,,,,,,,
1504281847.611712,-0.082774,0.314366,0.082308,0.192566,-0.131623,0.104793,-0.078628,-0.309214,-0.947737,-0.083131,-0.477148,0.340010,-13.003347,-20.689936,-37.282471,,,,,,,
1504281847.621721,-0.084230,0.315730,0.083832,0.132971,-0.088548,0.143040,-0.079972,-0.310510,-0.947200,-0.077346,-0.468588,0.358562,-13.003347,-20.689936,-37.282471,,,,,,,
1504281847.631731,-0.085453,0.316406,0.085701,0.064753,-0.057123,0.180225,-0.081113,-0.311153,-0.946892,-0.078891,-0.458897,0.374993,-13.227377,-20.991236,-37.130798,,,,,,,
1504281847.641741,-0.086553,0.316053,0.087866,-0.046229,-0.037065,0.216289,-0.082163,-0.310818,-0.946912,-0.080312,-0.454243,0.389203,-13.227377,-20.991236,-37.130798,,,,,,,
1504281847.651750,-0.087509,0.314726,0.090265,-0.133690,-0.015064,0.245986,-0.083104,-0.309556,-0.947243,-0.084804,-0.464599,0.378334,-13.077032,-20.991007,-36.905426,,,,,,,
1504281847.661759,-0.088082,0.312709,0.092889,-0.194184,0.039756,0.269268,-0.083702,-0.307637,-0.947815,-0.084343,-0.473567,0.354569,-13.077032,-20.991007,-36.905426,,,,,,,
1504281847.671769,-0.088165,0.310291,0.095545,-0.226901,0.085844,0.271265,-0.083846,-0.305335,-0.948546,-0.097581,-0.478234,0.371230,-13.378531,-20.616617,-37.283966,,,,,,,
1504281847.681779,-0.087768,0.307757,0.098030,-0.231858,0.121070,0.251981,-0.083537,-0.302922,-0.949347,-0.105092,-0.464366,0.382086,-13.378531,-20.616617,-37.283966,,,,,,,
1504281847.691789,-0.086942,0.305260,0.100208,-0.228239,0.154106,0.220974,-0.082818,-0.300541,-0.950166,-0.105460,-0.442699,0.381822,-13.379171,-20.541010,-37.584564,,,,,,,
1504281847.701798,-0.086069,0.302757,0.102037,-0.236782,0.131834,0.186842,-0.082053,-0.298153,-0.950985,-0.106866,-0.433353,0.375103,-13.379171,-20.541010,-37.584564,,,,,,,
1504281847.711808,-0.085597,0.300246,0.103491,-0.237041,0.077527,0.151713,-0.081668,-0.295756,-0.951766,-0.111997,-0.447576,0.351196,-13.380239,-20.165873,-37.662384,,,,,,,
1504281847.721818,-0.085532,0.298033,0.104630,-0.198849,0.030359,0.119840,-0.081662,-0.293640,-0.952422,-0.115528,-0.479629,0.305952,-13.380239,-20.165873,-37.662384,,,,,,,
1504281847.731828,-0.085450,0.296426,0.105505,-0.134603,0.040517,0.090046,-0.081624,-0.292104,-0.952897,-0.116145,-0.490260,0.296296,-13.680456,-19.942667,-37.439758,,,,,,,
1504281847.741838,-0.084820,0.295770,0.106157,-0.034750,0.100465,0.060226,-0.081039,-0.291476,-0.953139,-0.119492,-0.476773,0.312468,-13.680456,-19.942667,-37.439758,,,,,,,
1504281847.751848,-0.083325,0.296166,0.106561,0.066322,0.177456,0.027176,-0.079605,-0.291855,-0.953144,-0.126755,-0.455368,0.333515,-13.530416,-20.091532,-37.663300,,,,,,,
1504281847.761858,-0.081359,0.297490,0.106748,0.154168,0.205531,0.000594,-0.077699,-0.293121,-0.952913,-0.133086,-0.433609,0.353258,-13.530416,-20.091532,-37.663300,,,,,,,
1504281847.771868,-0.079170,0.299595,0.106703,0.225908,0.218824,-0.029193,-0.075564,-0.295133,-0.952463,-0.141416,-0.428912,0.341715,-13.305426,-20.090525,-37.662750,,,,,,,
1504281847.781878,-0.077053,0.302237,0.106490,0.268511,0.198246,-0.047228,-0.073487,-0.297656,-0.951840,-0.140288,-0.432004,0.327848,-13.305426,-20.090525,-37.662750,,,,,,,
1504281847.791886,-0.075118,0.305095,0.106081,0.286536,0.173606,-0.064232,-0.071582,-0.300384,-0.951129,-0.135739,-0.429261,0.317370,-13.230276,-20.239893,-37.811432,,,,,,,
1504281847.801896,-0.073333,0.308176,0.105444,0.308946,0.157465,-0.090850,-0.069816,-0.303321,-0.950327,-0.134820,-0.434731,0.289134,-13.230276,-20.239893,-37.811432,,,,,,,
1504281847.811906,-0.071484,0.311536,0.104490,0.335757,0.154082,-0.123887,-0.067985,-0.306521,-0.949433,-0.132287,-0.434309,0.281464,-13.003119,-20.914484,-37.505798,,,,,,,
1504281847.821916,-0.069463,0.315257,0.103173,0.372288,0.163409,-0.160132,-0.065986,-0.310061,-0.948424,-0.127953,-0.417356,0.298751,-13.003119,-20.914484,-37.505798,,,,,,,
1504281847.831925,-0.067058,0.319342,0.101455,0.402632,0.196236,-0.201766,-0.063620,-0.313942,-0.947308,-0.132257,-0.409249,0.304394,-13.003164,-20.764933,-37.281921,,,,,,,
1504281847.841935,-0.064136,0.323700,0.099212,0.422369,0.230227,-0.254094,-0.060763,-0.318077,-0.946116,-0.139737,-0.414482,0.320231,-13.003164,-20.764933,-37.281921,,,,,,,
1504281847.851914,-0.060912,0.327939,0.096395,0.395914,0.226235,-0.304301,-0.057631,-0.322092,-0.944952,-0.140200,-0.415884,0.330542,-12.552038,-21.212900,-37.277435,,,,,,,
1504281847.861924,-0.058044,0.331705,0.093125,0.342247,0.164908,-0.338443,-0.054849,-0.325655,-0.943896,-0.136771,-0.419614,0.326297,-12.552038,-21.212900,-37.277435,,,,,,,
1504281847.871934,-0.055921,0.334876,0.089608,0.282897,0.072704,-0.352259,-0.052788,-0.328652,-0.942975,-0.137001,-0.434150,0.306912,-12.175680,-21.661524,-37.123138,,,,,,,
1504281847.881944,-0.054650,0.337534,0.086046,0.235278,-0.008960,-0.347928,-0.051541,-0.331162,-0.942165,-0.127811,-0.440735,0.307568,-12.175680,-21.661524,-37.123138,,,,,,,
1504281847.891953,-0.053976,0.339773,0.082677,0.198550,-0.050241,-0.323369,-0.050865,-0.333273,-0.941457,-0.112099,-0.451197,0.320058,-11.950155,-21.735956,-36.897003,,,,,,,
1504281847.901963,-0.053320,0.341733,0.079565,0.174035,-0.029821,-0.295695,-0.050213,-0.335120,-0.940836,-0.100132,-0.468102,0.340250,-11.950155,-21.735956,-36.897003,,,,,,,
1504281847.911973,-0.052343,0.343428,0.076819,0.149684,0.018290,-0.256328,-0.049264,-0.336717,-0.940316,-0.090415,-0.481032,0.365472,-11.874212,-22.110620,-36.894012,,,,,,,
1504281847.921983,-0.051058,0.344860,0.074521,0.123129,0.061087,-0.211618,-0.048031,-0.338065,-0.939896,-0.084080,-0.489542,0.384995,-11.874212,-22.110620,-36.894012,,,,,,,
1504281847.931993,-0.049633,0.345769,0.072678,0.064385,0.081769,-0.165858,-0.046677,-0.338920,-0.939656,-0.085663,-0.495949,0.390416,-11.874212,-22.110620,-36.894012,,,,,,,
1504281847.942003,-0.048431,0.345966,0.071336,-0.003160,0.072682,-0.114724,-0.045543,-0.339105,-0.939645,-0.083516,-0.494024,0.382562,-11.949148,-22.185816,-36.968628,,,,,,,
1504281847.952013,-0.047319,0.345397,0.070420,-0.077957,0.083912,-0.074312,-0.044508,-0.338570,-0.939888,-0.080706,-0.485541,0.366813,-11.949148,-22.185816,-36.968628,,,,,,,
1504281847.962023,-0.046119,0.344295,0.069834,-0.121680,0.106617,-0.042406,-0.043397,-0.337533,-0.940313,-0.080642,-0.470084,0.361471,-11.724447,-22.109644,-37.043640,,,,,,,
1504281847.972033,-0.044831,0.342906,0.069548,-0.144108,0.121690,-0.013651,-0.042207,-0.336225,-0.940835,-0.075102,-0.448702,0.365579,-11.724447,-22.109644,-37.043640,,,,,,,
1504281847.982041,-0.043585,0.341291,0.069531,-0.166640,0.121849,0.011927,-0.041058,-0.334704,-0.941428,-0.079379,-0.449994,0.369056,-11.799902,-22.109385,-37.343811,,,,,,,
1504281847.992051,-0.042654,0.339462,0.069728,-0.187254,0.091096,0.031159,-0.040208,-0.332980,-0.942076,-0.086059,-0.465742,0.359297,-11.799902,-22.109385,-37.343811,,,,,,,
1504281848.002061,-0.042183,0.337492,0.070140,-0.197283,0.051729,0.053626,-0.039791,-0.331121,-0.942749,-0.089023,-0.483194,0.336136,-11.876257,-21.435175,-37.124084,,,,,,,
1504281848.012071,-0.042159,0.335452,0.070732,-0.200873,0.012315,0.068633,-0.039797,-0.329196,-0.943423,-0.090559,-0.490186,0.320437,-11.876257,-21.435175,-37.124084,,,,,,,
1504281848.022080,-0.042445,0.333487,0.071474,-0.187410,-0.008017,0.080409,-0.040095,-0.327340,-0.944056,-0.091802,-0.484931,0.320856,-11.875906,-21.659876,-37.272400,,,,,,,
1504281848.032090,-0.042868,0.331704,0.072308,-0.171521,-0.017746,0.087926,-0.040519,-0.325654,-0.944620,-0.089593,-0.470351,0.317408,-11.875906,-21.659876,-37.272400,,,,,,,
1504281848.042100,-0.043302,0.330196,0.073188,-0.135197,-0.011651,0.087978,-0.040950,-0.324228,-0.945092,-0.090291,-0.463766,0.321237,-11.577230,-21.133524,-37.275574,,,,,,,
1504281848.052110,-0.043540,0.329248,0.073998,-0.073081,0.010227,0.076306,-0.041188,-0.323331,-0.945389,-0.089580,-0.462130,0.314774,-11.577230,-21.133524,-37.275574,,,,,,,
1504281848.062119,-0.042895,0.329060,0.074565,-0.000643,0.110893,0.046366,-0.040581,-0.323154,-0.945476,-0.096031,-0.453564,0.324672,-11.501440,-21.582743,-37.497040,,,,,,,
1504281848.072129,-0.041662,0.329128,0.074776,0.003948,0.130072,0.012184,-0.039414,-0.323218,-0.945503,-0.106613,-0.441064,0.363274,-11.501440,-21.582743,-37.497040,,,,,,,
1504281848.082139,-0.040466,0.328816,0.074620,-0.045167,0.104937,-0.020947,-0.038288,-0.322923,-0.945651,-0.106091,-0.460494,0.414584,-11.652868,-21.058268,-37.576355,,,,,,,
1504281848.092149,-0.039865,0.328064,0.074118,-0.083009,0.023229,-0.051823,-0.037729,-0.322211,-0.945916,-0.091193,-0.508890,0.310815,-11.652868,-21.058268,-37.576355,,,,,,,
1504281848.102160,-0.039648,0.327410,0.073352,-0.063913,-0.005674,-0.076289,-0.037532,-0.321591,-0.946134,-0.091390,-0.509509,0.311033,-11.426931,-21.432261,-37.572998,,,,,,,
1504281848.112169,-0.039109,0.327162,0.072371,-0.011203,0.035472,-0.096551,-0.037025,-0.321357,-0.946234,-0.080101,-0.476464,0.339545,-11.426931,-21.432261,-37.572998,,,,,,,
1504281848.122179,-0.037979,0.327392,0.071280,0.028788,0.093760,-0.106191,-0.035953,-0.321575,-0.946201,-0.081173,-0.476246,0.339512,-11.501333,-21.582895,-37.422028,,,,,,,
1504281848.132189,-0.036427,0.327781,0.070166,0.035422,0.123541,-0.105164,-0.034480,-0.321943,-0.946131,-0.076757,-0.458651,0.371607,-11.501333,-21.582895,-37.422028,,,,,,,
1504281848.142198,-0.034845,0.328086,0.069110,0.019365,0.121535,-0.097717,-0.032979,-0.322231,-0.946086,-0.076716,-0.456211,0.367183,-11.502234,-21.357447,-37.648743,,,,,,,
1504281848.152207,-0.033420,0.328142,0.068039,-0.004221,0.104684,-0.101998,-0.031631,-0.322285,-0.946114,-0.086029,-0.458324,0.356362,-11.502234,-21.357447,-37.648743,,,,,,,
1504281848.162217,-0.032127,0.327734,0.066906,-0.057660,0.089147,-0.108467,-0.030412,-0.321898,-0.946286,-0.097289,-0.456468,0.344067,-11.202581,-21.131388,-37.499664,,,,,,,
1504281848.172227,-0.030896,0.326958,0.065676,-0.090761,0.081967,-0.114916,-0.029255,-0.321164,-0.946572,-0.099423,-0.449176,0.331505,-11.202581,-21.131388,-37.499664,,,,,,,
1504281848.182237,-0.029597,0.325656,0.064312,-0.147193,0.087774,-0.128901,-0.028038,-0.319931,-0.947026,-0.102501,-0.448105,0.325352,-10.827093,-21.279856,-37.422607,,,,,,,
1504281848.192246,-0.028245,0.324010,0.062832,-0.174902,0.086945,-0.136419,-0.026771,-0.318370,-0.947588,-0.104149,-0.451466,0.323962,-10.827093,-21.279856,-37.422607,,,,,,,
1504281848.202256,-0.026967,0.322101,0.061302,-0.199499,0.076497,-0.141780,-0.025577,-0.316560,-0.948228,-0.100705,-0.454039,0.323579,-11.053778,-20.830118,-37.801575,,,,,,,
1504281848.212266,-0.025735,0.319999,0.059725,-0.220837,0.074545,-0.145016,-0.024426,-0.314565,-0.948922,-0.104862,-0.458781,0.327675,-11.053778,-20.830118,-37.801575,,,,,,,
1504281848.222276,-0.024509,0.317734,0.058164,-0.231505,0.076761,-0.141836,-0.023280,-0.312415,-0.949660,-0.101811,-0.459146,0.324783,-11.052984,-21.055414,-37.649872,,,,,,,
1504281848.232285,-0.023172,0.315403,0.056645,-0.239945,0.090680,-0.138673,-0.022027,-0.310200,-0.950416,-0.100089,-0.465938,0.324958,-11.052984,-21.055414,-37.649872,,,,,,,
1504281848.242296,-0.021745,0.312965,0.055105,-0.250538,0.098230,-0.141907,-0.020687,-0.307881,-0.951200,-0.100208,-0.474757,0.335599,-10.678976,-20.753428,-37.801208,,,,,,,
1504281848.252306,-0.020237,0.310242,0.053591,-0.283569,0.107021,-0.136643,-0.019270,-0.305290,-0.952065,-0.094027,-0.476357,0.343330,-10.678976,-20.753428,-37.801208,,,,,,,
1504281848.262316,-0.018586,0.307174,0.052199,-0.316521,0.129658,-0.124998,-0.017715,-0.302366,-0.953027,-0.093292,-0.483644,0.348947,-10.604345,-20.603098,-37.802155,,,,,,,
1504281848.272295,-0.016552,0.303876,0.050887,-0.335382,0.176693,-0.118709,-0.015793,-0.299220,-0.954053,-0.106079,-0.488652,0.351163,-10.604345,-20.603098,-37.802155,,,,,,,
1504281848.282305,-0.013866,0.300660,0.049556,-0.314557,0.242594,-0.124127,-0.013243,-0.296150,-0.955049,-0.109605,-0.479149,0.363924,-10.380148,-20.376780,-37.953278,,,,,,,
1504281848.292315,-0.010554,0.297731,0.048073,-0.284140,0.297776,-0.144452,-0.010090,-0.293351,-0.955951,-0.107891,-0.464583,0.377506,-10.380148,-20.376780,-37.953278,,,,,,,
1504281848.302323,-0.014373,0.328089,0.048519,-0.232453,0.293068,-0.179585,-0.013606,-0.322234,-0.946562,-0.110265,-0.431016,0.368788,-10.155935,-20.150476,-38.104401,,,,,,,
1504281848.312333,-0.018615,0.358446,0.048818,-0.203586,0.236333,-0.215733,-0.017431,-0.350820,-0.936281,-0.107295,-0.412761,0.340852,-10.155935,-20.150476,-38.104401,,,,,,,
1504281848.322343,-0.023231,0.386932,0.048910,-0.173936,0.154008,-0.240091,-0.021511,-0.377349,-0.925821,-0.102756,-0.395814,0.292475,-9.931646,-19.999002,-38.329987,,,,,,,
1504281848.332353,-0.027890,0.411315,0.048723,-0.146242,0.098345,-0.266632,-0.025560,-0.399815,-0.916239,-0.102018,-0.364864,0.258402,-9.931646,-19.999002,-38.329987,,,,,,,
1504281848.342362,-0.025782,0.410123,0.045492,-0.118476,0.078973,-0.302841,-0.023642,-0.398722,-0.916767,-0.104288,-0.338430,0.261005,-9.631735,-19.922815,-38.254822,,,,,,,
1504281848.352372,-0.023410,0.409320,0.041862,-0.077573,0.099988,-0.341234,-0.021474,-0.397986,-0.917140,-0.095393,-0.312616,0.261638,-9.631735,-19.922815,-38.254822,,,,,,,
1504281848.362382,-0.020543,0.409056,0.037807,-0.019504,0.133648,-0.378551,-0.018847,-0.397744,-0.917303,-0.087782,-0.299171,0.270468,-9.406469,-20.071650,-38.328125,,,,,,,
1504281848.372392,-0.017373,0.409334,0.033421,0.032987,0.140707,-0.409428,-0.015937,-0.397999,-0.917248,-0.089974,-0.303875,0.284664,-9.406469,-20.071650,-38.328125,,,,,,,
1504281848.382401,-0.014411,0.409907,0.028766,0.054080,0.094738,-0.433860,-0.013216,-0.398524,-0.917063,-0.097562,-0.324209,0.285212,-9.106695,-20.070002,-38.477386,,,,,,,
1504281848.392411,-0.012075,0.410445,0.023830,0.043998,0.018125,-0.460428,-0.011071,-0.399018,-0.916876,-0.088111,-0.363769,0.236716,-9.106695,-20.070002,-38.477386,,,,,,,
1504281848.402421,-0.010329,0.410696,0.018580,0.010498,-0.052964,-0.489180,-0.009470,-0.399248,-0.916794,-0.089712,-0.363539,0.236634,-8.807150,-20.068064,-38.776642,,,,,,,
1504281848.412431,-0.008955,0.410737,0.013014,-0.008883,-0.092203,-0.516897,-0.008210,-0.399285,-0.916790,-0.081145,-0.358451,0.231091,-8.807150,-20.068064,-38.776642,,,,,,,
1504281848.422441,-0.007556,0.410447,0.007176,-0.038634,-0.090869,-0.539366,-0.006928,-0.399019,-0.916916,-0.075377,-0.339918,0.241227,-8.430639,-20.666376,-38.771240,,,,,,,
1504281848.432451,-0.005894,0.409902,0.001134,-0.065045,-0.069320,-0.557596,-0.005406,-0.398520,-0.917144,-0.073665,-0.326090,0.263259,-8.430639,-20.666376,-38.771240,,,,,,,
1504281848.442461,-0.004092,0.409163,-0.005117,-0.079885,-0.069178,-0.576835,-0.003755,-0.397842,-0.917446,-0.076583,-0.324265,0.281948,-8.656240,-20.292826,-38.549591,,,,,,,
1504281848.452471,-0.002206,0.408207,-0.011482,-0.106480,-0.064688,-0.585428,-0.002025,-0.396964,-0.917832,-0.074163,-0.330194,0.286133,-8.656240,-20.292826,-38.549591,,,,,,,
1504281848.462481,-0.000147,0.406947,-0.017994,-0.135064,-0.047385,-0.602587,-0.000135,-0.395807,-0.918334,-0.076815,-0.344763,0.292800,-8.506247,-20.292154,-38.549225,,,,,,,
1504281848.472489,0.002200,0.405292,-0.024697,-0.175379,-0.026793,-0.615502,0.002022,-0.394287,-0.918985,-0.084160,-0.355759,0.290460,-8.506247,-20.292154,-38.549225,,,,,,,
1504281848.482483,0.004564,0.403233,-0.031274,-0.211687,-0.022246,-0.601697,0.004198,-0.392394,-0.919788,-0.078950,-0.349030,0.286609,-7.831335,-20.214273,-38.473114,,,,,,,
1504281848.492493,0.006383,0.401009,-0.037566,-0.219809,-0.084017,-0.569580,0.005876,-0.390347,-0.920649,-0.072634,-0.389789,0.273814,-7.831335,-20.214273,-38.473114,,,,,,,
1504281848.502503,0.007116,0.398910,-0.043146,-0.198417,-0.164191,-0.494683,0.006557,-0.388415,-0.921461,-0.045971,-0.434736,0.262480,-7.756735,-20.138636,-38.623505,,,,,,,
1504281848.512512,0.006616,0.397346,-0.047634,-0.137699,-0.242592,-0.386632,0.006101,-0.386973,-0.922071,-0.015180,-0.453954,0.244703,-7.756735,-20.138636,-38.623505,,,,,,,
1504281848.522522,0.005110,0.396461,-0.051012,-0.073534,-0.295438,-0.287159,0.004714,-0.386156,-0.922421,-0.005355,-0.465315,0.245877,-7.607794,-19.762812,-38.700928,,,,,,,
1504281848.532532,0.002647,0.396045,-0.053446,-0.027454,-0.352380,-0.204789,0.002442,-0.385773,-0.922591,0.008849,-0.451095,0.249419,-7.607794,-19.762812,-38.700928,,,,,,,
1504281848.542542,-0.000539,0.396079,-0.055001,0.012441,-0.383694,-0.124609,-0.000497,-0.385804,-0.922581,0.021783,-0.407196,0.238514,-7.682714,-19.837992,-38.775574,,,,,,,
1504281848.552551,-0.004069,0.396352,-0.055767,0.031366,-0.375397,-0.055210,-0.003754,-0.386055,-0.922468,0.019577,-0.350334,0.242094,-7.682714,-19.837992,-38.775574,,,,,,,
1504281848.562561,-0.007329,0.396764,-0.055953,0.043354,-0.312678,-0.005132,-0.006759,-0.386436,-0.922292,0.002395,-0.328698,0.251591,-8.207861,-19.690653,-38.627991,,,,,,,
1504281848.572571,-0.009873,0.397349,-0.055651,0.065223,-0.219130,0.038504,-0.009103,-0.386975,-0.922045,-0.004294,-0.334460,0.259783,-8.207861,-19.690653,-38.627991,,,,,,,
1504281848.582581,-0.011709,0.398073,-0.054936,0.075285,-0.140394,0.072540,-0.010793,-0.387643,-0.921746,-0.006327,-0.358161,0.277978,-8.282980,-19.690851,-38.703156,,,,,,,
1504281848.592591,-0.013317,0.398795,-0.053959,0.071069,-0.121200,0.092779,-0.012272,-0.388308,-0.921448,-0.014538,-0.395414,0.300247,-8.282980,-19.690851,-38.703156,,,,,,,
1504281848.602600,-0.015080,0.399329,-0.052815,0.048427,-0.140212,0.109852,-0.013893,-0.388801,-0.921217,-0.009590,-0.401452,0.289747,-8.658499,-19.617075,-38.929657,,,,,,,
1504281848.612610,-0.017260,0.399657,-0.051419,0.027824,-0.165643,0.135479,-0.015899,-0.389102,-0.921057,-0.003708,-0.382092,0.275855,-8.658499,-19.617075,-38.929657,,,,,,,
1504281848.622620,-0.019340,0.399593,-0.049752,-0.014704,-0.132283,0.158829,-0.017815,-0.389044,-0.921047,-0.005180,-0.379343,0.270397,-8.807150,-20.068064,-38.776642,,,,,,,
1504281848.632630,-0.020818,0.399000,-0.047948,-0.070704,-0.057241,0.169274,-0.019181,-0.388497,-0.921250,-0.009414,-0.388862,0.285752,-8.807150,-20.068064,-38.776642,,,,,,,
1504281848.642639,-0.021376,0.397760,-0.046106,-0.136082,0.041330,0.172189,-0.019706,-0.387354,-0.921720,-0.007821,-0.376348,0.303694,-8.732489,-19.843012,-38.628174,,,,,,,
1504281848.652649,-0.020741,0.395861,-0.044463,-0.203338,0.153798,0.146257,-0.019135,-0.385603,-0.922467,-0.016174,-0.351336,0.320980,-8.732489,-19.843012,-38.628174,,,,,,,
1504281848.662659,-0.019113,0.393207,-0.043347,-0.282563,0.220573,0.093699,-0.017653,-0.383153,-0.923516,-0.031587,-0.335811,0.344811,-8.732565,-19.992426,-38.927032,,,,,,,
1504281848.672669,-0.016915,0.389770,-0.042834,-0.363177,0.245802,0.039077,-0.015645,-0.379976,-0.924864,-0.032115,-0.339369,0.350554,-8.732565,-19.992426,-38.927032,,,,,,,
1504281848.682648,-0.014424,0.385637,-0.042932,-0.428022,0.241066,-0.016532,-0.013364,-0.376149,-0.926463,-0.042697,-0.375636,0.333476,-8.808050,-19.842615,-39.003357,,,,,,,
1504281848.692658,-0.011958,0.380848,-0.043577,-0.497344,0.213983,-0.065705,-0.011101,-0.371708,-0.928283,-0.055397,-0.401546,0.323822,-8.808050,-19.842615,-39.003357,,,,,,,
1504281848.702667,-0.009751,0.375554,-0.044656,-0.542307,0.171768,-0.103067,-0.009071,-0.366788,-0.930260,-0.052712,-0.400317,0.307152,-8.359442,-19.240732,-38.931732,,,,,,,
1504281848.712677,-0.007766,0.369886,-0.045995,-0.572255,0.148595,-0.125494,-0.007241,-0.361509,-0.932341,-0.050270,-0.389742,0.280348,-8.359442,-19.240732,-38.931732,,,,,,,
1504281848.722687,-0.005225,0.364238,-0.047639,-0.556585,0.220959,-0.156549,-0.004883,-0.356237,-0.934383,-0.050873,-0.371943,0.260127,-8.210913,-18.789606,-39.159760,,,,,,,
1504281848.732697,-0.001457,0.359231,-0.049521,-0.479732,0.343960,-0.180115,-0.001364,-0.351555,-0.936166,-0.049341,-0.358040,0.267709,-8.210913,-18.789606,-39.159760,,,,,,,
1504281848.742706,0.003870,0.355036,-0.051630,-0.400515,0.495712,-0.203729,0.003628,-0.347624,-0.937627,-0.050274,-0.352999,0.299642,-8.212957,-18.114161,-39.389862,,,,,,,
1504281848.752716,0.010426,0.351627,-0.054006,-0.316372,0.593085,-0.232574,0.009788,-0.344426,-0.938762,-0.060096,-0.350642,0.307873,-8.212957,-18.114161,-39.389862,,,,,,,
1504281848.762726,0.017428,0.349149,-0.056617,-0.227571,0.610491,-0.253799,0.016376,-0.342099,-0.939521,-0.064106,-0.352756,0.289939,-7.838064,-18.112329,-39.463898,,,,,,,
1504281848.772736,0.024121,0.347240,-0.059492,-0.169227,0.550366,-0.282412,0.022679,-0.340304,-0.940042,-0.068624,-0.357603,0.265542,-7.838064,-18.112329,-39.463898,,,,,,,
1504281848.782746,0.029491,0.345708,-0.062639,-0.137488,0.370040,-0.303387,0.027742,-0.338863,-0.940427,-0.072054,-0.359791,0.230862,-7.389532,-17.659845,-39.691193,,,,,,,
1504281848.792755,0.032882,0.344425,-0.065788,-0.108953,0.204634,-0.299844,0.030945,-0.337656,-0.940761,-0.062592,-0.364294,0.180339,-7.389532,-17.659845,-39.691193,,,,,,,
1504281848.802765,0.035031,0.343785,-0.068821,-0.033161,0.086776,-0.282426,0.032975,-0.337053,-0.940908,-0.055069,-0.388442,0.121633,-7.014013,-17.957865,-39.838013,,,,,,,
1504281848.812775,0.036513,0.343883,-0.071634,0.033622,0.047839,-0.257691,0.034368,-0.337145,-0.940825,-0.065389,-0.400159,0.150710,-7.014013,-17.957865,-39.838013,,,,,,,
1504281848.822785,0.037561,0.344522,-0.074059,0.083271,0.014348,-0.211648,0.035346,-0.337747,-0.940573,-0.074774,-0.394950,0.172125,-6.564138,-17.955698,-39.911896,,,,,,,
1504281848.832794,0.037924,0.345506,-0.075850,0.112389,-0.040304,-0.147457,0.035674,-0.338672,-0.940228,-0.065612,-0.385128,0.165600,-6.564138,-17.955698,-39.911896,,,,,,,
1504281848.842804,0.037181,0.346874,-0.076916,0.149703,-0.133391,-0.076780,0.034958,-0.339959,-0.939790,-0.069535,-0.375266,0.161455,-6.639502,-17.806025,-39.913208,,,,,,,
1504281848.852814,0.035223,0.348691,-0.077211,0.193363,-0.230798,-0.001814,0.033097,-0.341668,-0.939238,-0.066315,-0.360267,0.165404,-6.338537,-18.104975,-39.760223,,,,,,,
1504281848.862824,0.032168,0.350910,-0.076802,0.229772,-0.308951,0.060296,0.030202,-0.343753,-0.938574,-0.063360,-0.354505,0.171103,-6.338537,-18.104975,-39.760223,,,,,,,
1504281848.872833,0.028312,0.353413,-0.075891,0.250433,-0.367773,0.102064,0.026559,-0.346102,-0.937821,-0.064172,-0.358228,0.167374,-6.338537,-18.104975,-39.760223,,,,,,,
1504281848.882843,0.023663,0.356068,-0.074657,0.265711,-0.442517,0.127840,0.022177,-0.348592,-0.937012,-0.057440,-0.358592,0.158967,-6.712469,-18.481821,-39.683319,,,,,,,
1504281848.892853,0.018138,0.358821,-0.073186,0.273567,-0.516127,0.146130,0.016982,-0.351170,-0.936158,-0.048964,-0.348003,0.146973,-6.712469,-18.481821,-39.683319,,,,,,,
1504281848.902863,0.012154,0.361652,-0.071743,0.285069,-0.553505,0.133407,0.011367,-0.353820,-0.935245,-0.050079,-0.335847,0.146960,-6.787100,-18.632151,-39.682373,,,,,,,
1504281848.912873,0.006346,0.364656,-0.070629,0.304629,-0.532315,0.096044,0.005929,-0.356628,-0.934228,-0.053414,-0.334351,0.167107,-6.787100,-18.632151,-39.682373,,,,,,,
1504281848.922882,0.001272,0.367980,-0.069957,0.340602,-0.463303,0.053289,0.001187,-0.359731,-0.933055,-0.043377,-0.336787,0.188686,-7.237173,-18.559320,-39.609039,,,,,,,
1504281848.932892,-0.002638,0.371375,-0.069767,0.339572,-0.354554,0.006129,-0.002458,-0.362897,-0.931826,-0.044157,-0.349658,0.222338,-7.237173,-18.559320,-39.609039,,,,,,,
1504281848.942902,-0.005271,0.374719,-0.070010,0.326764,-0.245718,-0.032511,-0.004905,-0.366011,-0.930598,-0.051247,-0.361009,0.254130,-7.835623,-19.087320,-39.456573,,,,,,,
1504281848.952912,-0.006761,0.377509,-0.070648,0.261563,-0.150303,-0.070152,-0.006285,-0.368606,-0.929565,-0.051638,-0.355256,0.267867,-7.835623,-19.087320,-39.456573,,,,,,,
1504281848.962921,-0.007384,0.379595,-0.071764,0.187591,-0.091036,-0.118417,-0.006858,-0.370544,-0.928789,-0.049233,-0.337464,0.276507,-8.435431,-18.940775,-39.084167,,,,,,,
1504281848.972931,-0.007379,0.380912,-0.073514,0.113493,-0.056262,-0.180516,-0.006850,-0.371767,-0.928301,-0.046525,-0.320127,0.285982,-8.435431,-18.940775,-39.084167,,,,,,,
1504281848.982941,-0.006562,0.381703,-0.076153,0.067427,-0.001445,-0.269287,-0.006089,-0.372502,-0.928012,-0.036422,-0.310406,0.289843,-8.134939,-19.313822,-39.380646,,,,,,,
1504281848.992951,-0.004504,0.382332,-0.079976,0.061254,0.089301,-0.383670,-0.004179,-0.373086,-0.927788,-0.033159,-0.319602,0.309593,-8.134939,-19.313822,-39.380646,,,,,,,
1504281849.002960,-0.000908,0.383092,-0.084972,0.075481,0.202246,-0.488450,-0.000842,-0.373790,-0.927513,-0.020734,-0.342275,0.333839,-8.508963,-19.615808,-39.229309,,,,,,,
1504281849.012970,0.004263,0.383795,-0.090885,0.055568,0.334622,-0.562369,0.003953,-0.374442,-0.927242,-0.017793,-0.378029,0.350780,-7.684195,-19.387552,-39.003967,,,,,,,
1504281849.022980,0.010808,0.381631,-0.096740,-0.271595,0.430035,-0.532164,0.010030,-0.372435,-0.928004,-0.021489,-0.394289,0.359935,-7.684195,-19.387552,-39.003967,,,,,,,
1504281849.032990,0.017206,0.377044,-0.102051,-0.519052,0.462936,-0.494225,0.015996,-0.368174,-0.929619,0.011561,-0.355932,0.429894,-7.684195,-19.387552,-39.003967,,,,,,,
1504281849.042999,0.024817,0.370559,-0.107275,-0.667301,0.598430,-0.502192,0.023131,-0.362136,-0.931838,0.043093,-0.349823,0.498427,-7.233969,-19.610071,-39.226166,,,,,,,
1504281849.053009,0.033456,0.363026,-0.112520,-0.760323,0.700440,-0.513207,0.031270,-0.355105,-0.934303,0.034678,-0.416227,0.457420,-7.233969,-19.610071,-39.226166,,,,,,,
1504281849.063019,0.043077,0.355121,-0.117063,-0.752256,0.837732,-0.413100,0.040377,-0.347704,-0.936735,0.043867,-0.431486,0.461683,-6.785437,-19.157602,-39.453430,,,,,,,
1504281849.073029,0.052475,0.352838,-0.117246,-0.002253,0.886428,0.104737,0.049220,-0.345562,-0.937104,0.050939,-0.397953,0.428208,-6.785437,-19.157602,-39.453430,,,,,,,
1504281849.083039,0.056695,0.353286,-0.112817,-0.042152,0.550674,0.507670,0.053165,-0.345983,-0.936733,0.167172,-0.160517,0.350567,-5.962484,-18.478449,-39.681488,,,,,,,
1504281849.093018,0.060557,0.352327,-0.107159,-0.093289,0.552174,0.494770,0.056802,-0.345082,-0.936852,0.196616,-0.038966,-0.053642,-5.962484,-18.478449,-39.681488,,,,,,,
1504281849.103028,0.063143,0.353789,-0.102960,0.195369,0.413531,0.369562,0.059193,-0.346454,-0.936197,0.017360,-0.731762,0.104258,-5.437445,-18.625635,-39.904053,,,,,,,
1504281849.113037,0.069134,0.357969,-0.100787,0.468015,0.766329,0.177280,0.064700,-0.350373,-0.934373,0.031110,-0.610000,0.194261,-5.437445,-18.625635,-39.904053,,,,,,,
1504281849.123047,0.079058,0.364355,-0.101180,0.673753,1.007819,-0.041607,0.073791,-0.356346,-0.931436,-0.121048,-0.418602,0.242867,-5.136923,-18.923990,-40.051056,,,,,,,
1504281849.133057,0.090279,0.371132,-0.104334,0.706321,1.042996,-0.311666,0.084019,-0.362670,-0.928122,-0.152668,-0.211258,0.447394,-5.136923,-18.923990,-40.051056,,,,,,,
1504281849.143067,0.105641,0.380307,-0.111209,1.149988,1.358283,-0.626336,0.097911,-0.371206,-0.923374,-0.152781,-0.112666,0.271732,-4.460989,-19.071711,-39.673279,,,,,,,
1504281849.153076,0.122779,0.393491,-0.121847,1.277994,1.227439,-0.830825,0.113111,-0.383415,-0.916624,-0.207822,-0.160729,0.186842,-4.460989,-19.071711,-39.673279,,,,,,,
1504281849.163086,0.133796,0.396715,-0.128521,0.177034,0.782216,-0.498918,0.123037,-0.386391,-0.914092,-0.280736,-0.338722,0.098800,-3.408438,-19.817881,-39.215027,,,,,,,
1504281849.173096,0.140950,0.395210,-0.135661,-0.130603,0.298058,-0.775055,0.129655,-0.385002,-0.913763,-0.143128,-0.848015,0.082174,-2.506781,-20.339289,-38.983887,,,,,,,
1504281849.183106,0.143675,0.389178,-0.146256,-0.583566,-0.268994,-1.139891,0.132474,-0.379428,-0.915688,0.062839,-1.052075,0.389092,-2.506781,-20.339289,-38.983887,,,,,,,
1504281849.193115,0.142763,0.377809,-0.158820,-1.048617,-0.667712,-1.378025,0.132245,-0.368885,-0.920019,-0.071072,-0.703732,0.219519,-1.683249,-19.885126,-39.210236,,,,,,,
1504281849.203125,0.138943,0.363682,-0.173580,-1.244120,-0.979145,-1.612643,0.129437,-0.355718,-0.925587,-0.146482,-0.589610,0.219395,-1.683249,-19.885126,-39.210236,,,,,,,
1504281849.213135,0.134516,0.348050,-0.190617,-1.362767,-1.031183,-1.866799,0.126070,-0.341065,-0.931548,-0.161318,-0.538009,0.261534,-1.986227,-19.060282,-39.817169,,,,,,,
1504281849.223145,0.131329,0.329883,-0.210793,-1.601945,-0.986257,-2.186445,0.123891,-0.323933,-0.937933,-0.058080,-0.494717,0.323279,-1.986227,-19.060282,-39.817169,,,,,,,
1504281849.233154,0.127168,0.312305,-0.232953,-1.392537,-1.178566,-2.338382,0.120690,-0.307253,-0.943944,0.009955,-0.487943,0.293370,-1.766012,-17.557917,-40.502869,,,,,,,
1504281849.243164,0.120635,0.300224,-0.256722,-0.761219,-1.402128,-2.420151,0.114959,-0.295734,-0.948328,0.105057,-0.602963,0.144144,-1.766012,-17.557917,-40.502869,,,,,,,
1504281849.253174,0.114872,0.294575,-0.282949,-0.110749,-1.298598,-2.609204,0.109682,-0.290333,-0.950619,0.115660,-0.575741,0.421734,-1.843908,-16.582651,-40.810364,,,,,,,
1504281849.263184,0.112392,0.294756,-0.312045,0.482492,-1.018763,-2.807206,0.107319,-0.290507,-0.950836,0.162655,-0.486303,0.718826,-1.843908,-16.582651,-40.810364,,,,,,,
1504281849.273194,0.113189,0.300772,-0.343022,1.079150,-0.772112,-2.887730,0.107878,-0.296257,-0.948996,0.156267,-0.458747,0.781226,-2.369513,-16.434717,-40.962830,,,,,,,
1504281849.283203,0.115915,0.310793,-0.375014,1.405517,-0.675662,-2.923626,0.110115,-0.305813,-0.945702,0.134483,-0.492511,0.793343,-2.369513,-16.434717,-40.962830,,,,,,,
1504281849.293213,0.118932,0.323654,-0.407553,1.720747,-0.744332,-2.916554,0.112491,-0.318033,-0.941382,0.113583,-0.517004,0.705344,-1.692068,-17.182428,-40.580505,,,,,,,
1504281849.303223,0.120417,0.340439,-0.440754,2.133809,-0.990693,-2.914337,0.113232,-0.333901,-0.935782,0.085804,-0.511909,0.454871,-1.692068,-17.182428,-40.580505,,,,,,,
1504281849.313233,0.120263,0.360452,-0.474908,2.439168,-1.256369,-2.954968,0.112264,-0.352697,-0.928979,0.112391,-0.438486,0.451852,-1.087133,-18.606531,-39.668335,,,,,,,
1504281849.323242,0.118787,0.382242,-0.510410,2.580748,-1.486545,-3.045046,0.109955,-0.373002,-0.921292,0.122299,-0.327453,0.509259,-1.087133,-18.606531,-39.668335,,,,,,,
1504281849.333252,0.116725,0.404538,-0.547170,2.618192,-1.655138,-3.121537,0.107060,-0.393594,-0.913029,0.115047,-0.224341,0.440449,-1.081823,-20.183329,-38.756470,,,,,,,
1504281849.343262,0.114093,0.427347,-0.584434,2.674590,-1.805855,-3.119038,0.103607,-0.414458,-0.904151,0.104508,-0.155198,0.405861,-1.081823,-20.183329,-38.756470,,,,,,,
1504281849.353272,0.109519,0.451496,-0.621350,2.795612,-2.082952,-3.012667,0.098348,-0.436312,-0.894405,0.095911,-0.149122,0.392528,-1.075720,-21.985437,-37.692963,,,,,,,
1504281849.363281,0.103201,0.476812,-0.657314,2.877494,-2.313913,-2.900041,0.091527,-0.458949,-0.883736,0.086405,-0.192891,0.387657,-1.075720,-21.985437,-37.692963,,,,,,,
1504281849.373291,0.094237,0.503414,-0.692758,2.983291,-2.649455,-2.829885,0.082424,-0.482419,-0.872054,0.111378,-0.209231,0.378203,-1.369482,-23.714334,-36.405701,,,,,,,
1504281849.383301,0.081929,0.531418,-0.727884,3.075614,-3.077579,-2.773465,0.070551,-0.506756,-0.859198,0.113562,-0.175983,0.358313,-1.369482,-23.714334,-36.405701,,,,,,,
1504281849.393311,0.064919,0.560691,-0.762210,3.148907,-3.599349,-2.688093,0.054941,-0.531771,-0.845104,0.121237,-0.131300,0.317623,-2.112158,-25.820398,-35.041779,,,,,,,
1504281849.403320,0.044679,0.590877,-0.795553,3.156687,-3.907461,-2.602144,0.037091,-0.557090,-0.829623,0.137835,-0.097497,0.279224,-2.112158,-25.820398,-35.041779,,,,,,,
1504281849.413330,0.022953,0.621153,-0.827928,3.102077,-4.027487,-2.541185,0.018664,-0.581973,-0.812994,0.144514,-0.113644,0.270315,-3.230459,-27.553598,-33.456573,,,,,,,
1504281849.423340,0.002044,0.650960,-0.859513,2.967114,-3.928393,-2.490358,0.001626,-0.605950,-0.795501,0.148169,-0.137839,0.289413,-3.230459,-27.553598,-33.456573,,,,,,,
1504281849.433350,-0.016024,0.679149,-0.890651,2.737677,-3.649477,-2.462428,-0.012468,-0.628131,-0.778007,0.153597,-0.167508,0.304207,-4.498404,-29.512186,-32.020050,,,,,,,
1504281849.443360,-0.029811,0.704876,-0.921813,2.438783,-3.262343,-2.454022,-0.022703,-0.647939,-0.761353,0.157606,-0.190165,0.316407,-4.498404,-29.512186,-32.020050,,,,,,,
1504281849.453369,-0.038309,0.727923,-0.953402,2.145849,-2.803851,-2.456405,-0.028593,-0.665321,-0.746010,0.164686,-0.185876,0.307320,-4.791464,-31.241983,-30.282837,,,,,,,
1504281849.463379,-0.041008,0.748399,-0.985530,1.889448,-2.308372,-2.451319,-0.030041,-0.680467,-0.732163,0.178204,-0.163757,0.287812,-4.791464,-31.241983,-30.282837,,,,,,,
1504281849.473389,-0.038178,0.766713,-1.018217,1.686042,-1.854892,-2.442864,-0.027489,-0.693772,-0.719670,0.194359,-0.142059,0.270314,-4.861090,-32.445457,-28.698944,,,,,,,
1504281849.483388,-0.030997,0.783000,-1.051411,1.496469,-1.529414,-2.418149,-0.021967,-0.705409,-0.708460,0.210749,-0.124043,0.246164,-4.861090,-32.445457,-28.698944,,,,,,,
1504281849.493397,-0.021205,0.797138,-1.084731,1.299174,-1.349892,-2.362235,-0.014816,-0.715359,-0.698600,0.218063,-0.110156,0.206397,-4.332327,-33.270348,-27.566437,,,,,,,
1504281849.503377,-0.010794,0.809078,-1.117217,1.111261,-1.286673,-2.234584,-0.007450,-0.723651,-0.690126,0.212314,-0.115476,0.158494,-4.332327,-33.270348,-27.566437,,,,,,,
1504281849.513386,-0.001631,0.819076,-1.147692,0.945836,-1.310013,-2.048034,-0.001114,-0.730515,-0.682895,0.206115,-0.133269,0.119022,-3.356085,-33.491859,-27.112335,,,,,,,
1504281849.523396,0.005152,0.827507,-1.175440,0.817294,-1.370986,-1.829332,0.003486,-0.736247,-0.676704,0.204949,-0.196050,0.082496,-3.356085,-33.491859,-27.112335,,,,,,,
1504281849.533406,0.009202,0.834834,-1.199982,0.720760,-1.415201,-1.583919,0.006177,-0.741185,-0.671273,0.202258,-0.191112,0.077065,-2.678610,-34.164879,-26.580597,,,,,,,
1504281849.543416,0.010165,0.841222,-1.220486,0.626353,-1.429648,-1.289454,0.006776,-0.745458,-0.666518,0.203521,-0.216776,0.074431,-2.678610,-34.164879,-26.580597,,,,,,,
1504281849.553425,0.007745,0.846577,-1.236774,0.515786,-1.471654,-1.007777,0.005131,-0.749017,-0.662531,0.215068,-0.220236,0.074320,-2.227072,-34.463905,-26.052246,,,,,,,
1504281849.563435,0.001640,0.850546,-1.249138,0.360138,-1.563345,-0.751709,0.001082,-0.751641,-0.659572,0.234468,-0.218086,0.069179,-2.227072,-34.463905,-26.052246,,,,,,,
1504281849.573445,-0.008513,0.852660,-1.257941,0.156119,-1.718543,-0.525499,-0.005601,-0.753033,-0.657959,0.245851,-0.218997,0.054306,-2.450674,-34.840508,-25.749969,,,,,,,
1504281849.583455,-0.022765,0.852786,-1.263525,-0.042551,-1.883356,-0.317409,-0.014976,-0.753116,-0.657717,0.255103,-0.202435,0.030917,-2.450674,-34.840508,-25.749969,,,,,,,
1504281849.593465,-0.040242,0.851130,-1.266511,-0.210699,-1.992967,-0.150993,-0.026518,-0.752026,-0.658600,0.274977,-0.164631,0.008912,-3.125784,-34.843391,-25.826630,,,,,,,
1504281849.603474,-0.059639,0.848091,-1.267473,-0.333115,-2.008081,-0.017753,-0.039423,-0.750019,-0.660240,0.300928,-0.133343,0.003914,-3.125784,-34.843391,-25.826630,,,,,,,
1504281849.613484,-0.079476,0.844215,-1.267047,-0.394797,-1.924554,0.075924,-0.052742,-0.747450,-0.662221,0.326347,-0.095293,0.018926,-3.876684,-34.621315,-26.055206,,,,,,,
1504281849.623494,-0.098598,0.839879,-1.265779,-0.433388,-1.777244,0.134305,-0.065713,-0.744562,-0.664311,0.350778,-0.055822,0.042027,-3.876684,-34.621315,-26.055206,,,,,,,
1504281849.633504,-0.116140,0.835301,-1.264292,-0.442691,-1.597096,0.148915,-0.077749,-0.741498,-0.666435,0.371252,-0.034808,0.065544,-5.002203,-34.550926,-26.283539,,,,,,,
1504281849.643513,-0.131441,0.830798,-1.263161,-0.440944,-1.394620,0.122943,-0.088374,-0.738470,-0.668470,0.394313,-0.009364,0.072981,-5.002203,-34.550926,-26.283539,,,,,,,
1504281849.653523,-0.144135,0.826567,-1.262809,-0.401694,-1.191354,0.066080,-0.097300,-0.735610,-0.670381,0.411555,0.005157,0.070344,-6.052938,-34.255638,-26.288391,,,,,,,
1504281849.663533,-0.154035,0.822878,-1.263431,-0.357014,-0.984923,-0.004655,-0.104348,-0.733106,-0.672062,0.423577,0.014021,0.063450,-6.052938,-34.255638,-26.288391,,,,,,,
1504281849.673543,-0.161432,0.819895,-1.264867,-0.293352,-0.798906,-0.063580,-0.109667,-0.731074,-0.673427,0.428454,0.009409,0.059612,-6.729528,-34.032326,-26.966736,,,,,,,
1504281849.683552,-0.166823,0.817649,-1.266817,-0.226841,-0.644900,-0.103230,-0.113569,-0.729540,-0.674444,0.424176,0.006624,0.056188,-6.729528,-34.032326,-26.966736,,,,,,,
1504281849.693562,-0.170896,0.815957,-1.268976,-0.183246,-0.540813,-0.120416,-0.116524,-0.728382,-0.675191,0.416786,0.010745,0.048314,-6.879416,-34.033150,-26.892120,,,,,,,
1504281849.703572,-0.174426,0.814572,-1.271176,-0.156286,-0.506932,-0.123632,-0.119082,-0.727432,-0.675768,0.410448,0.006500,0.042421,-6.879416,-34.033150,-26.892120,,,,,,,
1504281849.713582,-0.178290,0.813448,-1.272997,-0.124588,-0.526406,-0.092588,-0.121837,-0.726660,-0.676107,0.404414,0.000418,0.034032,-7.105124,-33.883705,-27.118774,,,,,,,
1504281849.723591,-0.183266,0.812529,-1.274048,-0.094405,-0.590642,-0.043322,-0.125321,-0.726029,-0.676148,0.399643,-0.015762,0.026719,-7.105124,-33.883705,-27.118774,,,,,,,
1504281849.733601,-0.189591,0.811890,-1.274451,-0.061191,-0.684725,-0.007874,-0.129682,-0.725589,-0.675798,0.407408,-0.036938,0.023363,-7.479483,-33.961006,-26.819153,,,,,,,
1504281849.743611,-0.197164,0.811441,-1.274511,-0.041822,-0.788263,0.007286,-0.134860,-0.725280,-0.675116,0.417606,-0.048462,0.018057,-7.479483,-33.961006,-26.819153,,,,,,,
1504281849.753621,-0.205886,0.811077,-1.274620,-0.037412,-0.911896,-0.005297,-0.140798,-0.725029,-0.674172,0.429098,-0.040733,0.013513,-7.704748,-34.036415,-27.119110,,,,,,,
1504281849.763631,-0.215755,0.810671,-1.275036,-0.052294,-1.050282,-0.024292,-0.147507,-0.724750,-0.673037,0.442398,-0.025204,0.010669,-7.704748,-34.036415,-27.119110,,,,,,,
1504281849.773640,-0.226789,0.809799,-1.275745,-0.112058,-1.188313,-0.028422,-0.155066,-0.724148,-0.671985,0.447593,-0.012851,0.004672,-8.380117,-33.889442,-27.121918,,,,,,,
1504281849.783650,-0.239143,0.808215,-1.276553,-0.185795,-1.327315,-0.013361,-0.163627,-0.723055,-0.671131,0.447532,-0.009901,0.000736,-8.380117,-33.889442,-27.121918,,,,,,,
1504281849.793660,-0.252990,0.805875,-1.277347,-0.256477,-1.479138,0.010267,-0.173328,-0.721437,-0.670438,0.447315,-0.021605,0.003812,-8.680227,-33.890648,-27.197662,,,,,,,
1504281849.803670,-0.268712,0.803005,-1.277905,-0.293285,-1.655763,0.047874,-0.184395,-0.719446,-0.669623,0.451165,-0.037436,0.008475,-8.680227,-33.890648,-27.197662,,,,,,,
1504281849.813679,-0.286783,0.799902,-1.277865,-0.292992,-1.854020,0.099459,-0.197096,-0.717288,-0.668320,0.458433,-0.043180,0.009140,-9.805822,-33.521141,-26.978241,,,,,,,
1504281849.823689,-0.307458,0.797070,-1.277336,-0.244839,-2.089937,0.121307,-0.211484,-0.715312,-0.666036,0.474622,-0.035222,0.008565,-9.805822,-33.521141,-26.978241,,,,,,,
1504281849.833699,-0.331017,0.795153,-1.276363,-0.125292,-2.347736,0.126238,-0.227561,-0.713971,-0.662165,0.490408,-0.021243,0.010477,-11.005468,-33.751244,-27.129517,,,,,,,
1504281849.843709,-0.357633,0.794604,-1.274530,0.030626,-2.585602,0.144006,-0.245240,-0.713586,-0.656241,0.492676,0.008538,0.013587,-11.005468,-33.751244,-27.129517,,,,,,,
1504281849.853718,-0.387132,0.795395,-1.271450,0.195462,-2.767078,0.175567,-0.264275,-0.714140,-0.648200,0.491127,0.042601,0.021994,-12.279562,-33.758171,-26.532684,,,,,,,
1504281849.863728,-0.418196,0.797594,-1.267404,0.348720,-2.817354,0.171651,-0.283642,-0.715678,-0.638242,0.489162,0.064784,0.035169,-12.279562,-33.758171,-26.532684,,,,,,,
1504281849.873738,-0.449262,0.800522,-1.262692,0.417602,-2.735881,0.182301,-0.302418,-0.717720,-0.627234,0.483616,0.073326,0.056707,-14.153189,-33.992653,-26.010559,,,,,,,
1504281849.883748,-0.478806,0.803744,-1.257225,0.467498,-2.492283,0.194767,-0.319747,-0.719959,-0.615971,0.466201,0.046208,0.087483,-14.153189,-33.992653,-26.010559,,,,,,,
1504281849.893757,-0.505554,0.807507,-1.251453,0.541670,-2.174249,0.165515,-0.334792,-0.722566,-0.604824,0.466918,0.021104,0.104641,-15.051489,-34.223198,-25.261078,,,,,,,
1504281849.903767,-0.529209,0.812329,-1.245244,0.655645,-1.821368,0.126663,-0.347241,-0.725891,-0.593722,0.446805,0.018265,0.118273,-15.051489,-34.223198,-25.261078,,,,,,,
1504281849.913747,-0.549587,0.818320,-1.238150,0.801882,-1.424019,0.108070,-0.356989,-0.729998,-0.582804,0.421412,0.030047,0.115534,-16.475119,-34.231392,-24.364594,,,,,,,
1504281849.923756,-0.567465,0.825732,-1.229452,0.987203,-1.061116,0.113088,-0.364433,-0.735045,-0.571750,0.405326,0.035704,0.113147,-16.475119,-34.231392,-24.364594,,,,,,,
1504281849.933766,-0.583359,0.833995,-1.219098,1.091924,-0.750862,0.150082,-0.370115,-0.740622,-0.560798,0.393553,0.036566,0.105719,-17.148092,-34.461372,-23.389557,,,,,,,
1504281849.943776,-0.598021,0.842357,-1.207417,1.131689,-0.554099,0.193567,-0.374798,-0.746214,-0.550174,0.391277,0.061659,0.079898,-17.148092,-34.461372,-23.389557,,,,,,,
1504281849.953786,-0.612300,0.850528,-1.194775,1.155668,-0.470148,0.226550,-0.379098,-0.751629,-0.539758,0.386331,0.078060,0.037485,-17.594992,-35.289742,-22.709442,,,,,,,
1504281849.963795,-0.627280,0.858613,-1.181375,1.187312,-0.502399,0.248010,-0.383561,-0.756937,-0.529082,0.376573,0.063318,-0.005327,-17.594992,-35.289742,-22.709442,,,,,,,
1504281849.973805,-0.644576,0.866908,-1.166558,1.263825,-0.644803,0.295359,-0.388868,-0.762331,-0.517332,0.360578,0.026171,-0.039141,-18.192541,-35.594673,-21.583679,,,,,,,
1504281849.983815,-0.666224,0.875273,-1.149376,1.359203,-0.931272,0.394231,-0.396020,-0.767719,-0.503762,0.340570,-0.030469,-0.058052,-18.192541,-35.594673,-21.583679,,,,,,,
1504281849.993825,-0.693671,0.883222,-1.129776,1.404439,-1.345208,0.501779,-0.405782,-0.772788,-0.487996,0.329808,-0.084283,-0.073115,-18.714300,-36.124580,-20.306000,,,,,,,
1504281850.003834,-0.727497,0.889839,-1.108020,1.399930,-1.820577,0.644574,-0.418644,-0.776970,-0.470164,0.333912,-0.083320,-0.103108,-18.714300,-36.124580,-20.306000,,,,,,,
1504281850.013844,-0.767402,0.894488,-1.084533,1.322947,-2.270865,0.811750,-0.434555,-0.779889,-0.450484,0.337051,-0.065234,-0.130220,-19.761129,-36.581993,-18.955170,,,,,,,
1504281850.023854,-0.812568,0.896711,-1.059787,1.213101,-2.679283,0.970244,-0.453192,-0.781278,-0.429211,0.354345,-0.028262,-0.156589,-19.761129,-36.581993,-18.955170,,,,,,,
1504281850.033864,-0.860395,0.896008,-1.036080,0.983786,-3.028047,1.037708,-0.473609,-0.780839,-0.407411,0.378517,0.003328,-0.164854,-21.107382,-37.041496,-17.230103,,,,,,,
1504281850.043873,-0.909890,0.893847,-1.017467,0.703082,-3.681965,0.865456,-0.494517,-0.779487,-0.384516,0.383097,0.047966,-0.189199,-21.107382,-37.041496,-17.230103,,,,,,,
1504281850.053883,-0.962535,0.890315,-1.001746,0.580724,-4.148796,0.905560,-0.516321,-0.777270,-0.359532,0.355066,0.105014,-0.241023,-22.904852,-36.978188,-15.435089,,,,,,,
1504281850.063893,-1.017309,0.884519,-0.986641,0.484335,-4.359159,1.070142,-0.539054,-0.773610,-0.333089,0.373710,0.143666,-0.336589,-22.904852,-36.978188,-15.435089,,,,,,,
1504281850.073903,-1.071140,0.876755,-0.973058,0.345406,-4.345297,1.138189,-0.561450,-0.768667,-0.306471,0.464892,0.119940,-0.334093,-24.851751,-37.140541,-13.638702,,,,,,,
1504281850.083913,-1.121082,0.867653,-0.962122,0.196855,-4.087300,1.173767,-0.582327,-0.762813,-0.281090,0.476858,0.042720,-0.303169,-24.851751,-37.140541,-13.638702,,,,,,,
1504281850.093922,-1.162764,0.857044,-0.953848,0.049439,-3.379697,1.274733,-0.600928,-0.755910,-0.259777,0.435630,-0.018107,-0.292652,-26.650259,-36.702065,-11.921509,,,,,,,
1504281850.103932,-1.193062,0.844507,-0.947551,-0.113190,-2.300085,1.384623,-0.617283,-0.747644,-0.244930,0.427601,-0.045218,-0.245304,-26.650259,-36.702065,-11.921509,,,,,,,
1504281850.113942,-1.210623,0.830503,-0.942831,-0.240440,-1.109868,1.422865,-0.631225,-0.738271,-0.237720,0.421966,-0.074992,-0.146497,-28.299429,-36.187325,-10.504486,,,,,,,
1504281850.123952,-1.216683,0.816608,-0.939980,-0.318089,-0.196989,1.339998,-0.642215,-0.728828,-0.237425,0.389377,-0.063683,-0.072481,-28.299429,-36.187325,-10.504486,,,,,,,
1504281850.133961,-1.215241,0.804031,-0.938507,-0.351085,0.373556,1.168150,-0.650414,-0.720159,-0.241523,0.355339,-0.060496,-0.043282,-29.800695,-35.594353,-10.362701,,,,,,,
1504281850.143971,-1.209819,0.792924,-0.937752,-0.324745,0.646276,1.030020,-0.656538,-0.712409,-0.247856,0.326597,-0.104318,-0.072976,-29.800695,-35.594353,-10.362701,,,,,,,
1504281850.153981,-1.204432,0.782686,-0.935888,-0.210390,0.653887,1.003520,-0.661969,-0.705186,-0.253988,0.312649,-0.134719,-0.100122,-30.552725,-35.146538,-10.967926,,,,,,,
1504281850.163991,-1.202438,0.772385,-0.931997,-0.079508,0.393784,1.085328,-0.668202,-0.697846,-0.257910,0.321354,-0.155822,-0.139857,-30.552725,-35.146538,-10.967926,,,,,,,
1504281850.174000,-1.205738,0.761432,-0.926091,0.031707,-0.035625,1.202625,-0.676149,-0.689959,-0.258416,0.341234,-0.160826,-0.189017,-30.854193,-34.697426,-11.197021,,,,,,,
1504281850.184010,-1.215220,0.749826,-0.918377,0.143374,-0.549208,1.308329,-0.686030,-0.681512,-0.254764,0.360590,-0.173393,-0.234127,-30.854193,-34.697426,-11.197021,,,,,,,
1504281850.194020,-1.230756,0.737774,-0.908994,0.274620,-1.035214,1.383065,-0.697598,-0.672642,-0.246798,0.369595,-0.189769,-0.256819,-31.830694,-34.101814,-11.203949,,,,,,,
1504281850.204030,-1.251523,0.725763,-0.897609,0.463626,-1.396975,1.413917,-0.710193,-0.663706,-0.234778,0.377521,-0.213812,-0.266855,-31.830694,-34.101814,-11.203949,,,,,,,
1504281850.214039,-1.276140,0.714393,-0.883934,0.693727,-1.594907,1.382643,-0.722931,-0.655159,-0.219403,0.388916,-0.246117,-0.261020,-32.880806,-33.657875,-10.534912,,,,,,,
1504281850.224049,-1.302519,0.703996,-0.867875,0.942830,-1.571319,1.318989,-0.734995,-0.647268,-0.202053,0.401240,-0.266825,-0.252521,-32.880806,-33.657875,-10.534912,,,,,,,
1504281850.234059,-1.328295,0.694708,-0.849786,1.151050,-1.345956,1.218616,-0.745762,-0.640161,-0.184479,0.418156,-0.291296,-0.234818,-34.080116,-32.991402,-8.967896,,,,,,,
1504281850.244069,-1.351605,0.686629,-0.830460,1.293034,-1.011335,1.096588,-0.754883,-0.633934,-0.168166,0.429566,-0.334588,-0.201890,-34.080116,-32.991402,-8.967896,,,,,,,
1504281850.254079,-1.371382,0.679465,-0.810990,1.336901,-0.664196,0.986110,-0.762493,-0.628377,-0.154100,0.427319,-0.354411,-0.180495,-35.128975,-32.549110,-7.473846,,,,,,,
1504281850.264088,-1.387794,0.673288,-0.792318,1.289445,-0.414311,0.846825,-0.768721,-0.623560,-0.142269,0.434645,-0.362509,-0.178684,-35.128975,-32.549110,-7.473846,,,,,,,
1504281850.274098,-1.400728,0.668260,-0.776002,1.117749,-0.243289,0.676509,-0.773577,-0.619621,-0.132845,0.453250,-0.347267,-0.188887,-35.727547,-32.404198,-6.276428,,,,,,,
1504281850.284108,-1.410882,0.664312,-0.762773,0.914065,-0.192435,0.523428,-0.777295,-0.616518,-0.125371,0.471280,-0.333861,-0.193767,-35.727547,-32.404198,-6.276428,,,,,,,
1504281850.294118,-1.420013,0.661268,-0.751364,0.829043,-0.219326,0.413385,-0.780259,-0.614118,-0.118550,0.466691,-0.290347,-0.205364,-36.327660,-31.958246,-5.606262,,,,,,,
1504281850.304127,-1.430042,0.659235,-0.740044,0.871288,-0.343167,0.301600,-0.782644,-0.612512,-0.110894,0.472372,-0.267523,-0.219352,-36.327660,-31.958246,-5.606262,,,,,,,
1504281850.314137,-1.442359,0.658393,-0.727633,0.987857,-0.515567,0.184691,-0.784461,-0.611847,-0.101312,0.481162,-0.279694,-0.218100,-36.552315,-31.735453,-5.008545,,,,,,,
1504281850.324116,-1.456970,0.658668,-0.714356,1.058507,-0.689726,0.073044,-0.785691,-0.612064,-0.089821,0.477158,-0.295743,-0.226067,-36.552315,-31.735453,-5.008545,,,,,,,
1504281850.334126,-1.473360,0.659731,-0.700498,1.113343,-0.820098,-0.006687,-0.786409,-0.612904,-0.076869,0.465456,-0.323726,-0.223196,-36.776039,-31.663401,-4.034607,,,,,,,
1504281850.344136,-1.491069,0.661196,-0.685979,1.169552,-0.892970,-0.055561,-0.786751,-0.614061,-0.062859,0.454720,-0.349013,-0.213387,-36.776039,-31.663401,-4.034607,,,,,,,
1504281850.354146,-1.509593,0.663087,-0.670548,1.244512,-0.899913,-0.121598,-0.786620,-0.615553,-0.048204,0.451247,-0.383257,-0.206755,-36.698479,-31.965464,-2.832123,,,,,,,
1504281850.364155,-1.527915,0.665527,-0.654301,1.302256,-0.794819,-0.193199,-0.785868,-0.617474,-0.033720,0.438853,-0.415958,-0.201968,-36.698479,-31.965464,-2.832123,,,,,,,
1504281850.374165,-1.544787,0.668186,-0.637430,1.339282,-0.586236,-0.223390,-0.784681,-0.619563,-0.020413,0.417280,-0.447133,-0.203555,-36.621895,-31.967218,-1.781952,,,,,,,
1504281850.384175,-1.559047,0.670473,-0.620814,1.286749,-0.331157,-0.191909,-0.783474,-0.621357,-0.009206,0.400646,-0.470257,-0.204509,-36.621895,-31.967218,-1.781952,,,,,,,
1504281850.394185,-1.569989,0.671900,-0.605641,1.148493,-0.093536,-0.114647,-0.782640,-0.622474,-0.000632,0.394762,-0.483620,-0.217340,-36.543694,-32.344872,-0.278931,,,,,,,
1504281850.404195,-1.577776,0.672401,-0.592838,0.945388,0.041254,-0.035182,-0.782309,-0.622866,0.005461,0.396567,-0.490766,-0.241972,-36.543694,-32.344872,-0.278931,,,,,,,
1504281850.414204,-1.583686,0.672323,-0.583084,0.701494,-0.010063,0.009317,-0.782312,-0.622805,0.010084,0.406092,-0.498518,-0.274031,-36.318062,-32.195198,0.395538,,,,,,,
1504281850.424214,-1.589499,0.672123,-0.576540,0.447882,-0.237078,0.009278,-0.782365,-0.622649,0.014634,0.414765,-0.488847,-0.320878,-36.318062,-32.195198,0.395538,,,,,,,
1504281850.434224,-1.595927,0.672131,-0.573314,0.188686,-0.509844,-0.014173,-0.782250,-0.622655,0.019663,0.425438,-0.460414,-0.381266,-36.617348,-32.346992,0.620911,,,,,,,
1504281850.444234,-1.602960,0.672459,-0.573247,-0.056430,-0.757150,-0.038712,-0.781888,-0.622912,0.025157,0.424923,-0.433714,-0.423793,-36.617348,-32.346992,0.620911,,,,,,,
1504281850.454243,-1.610181,0.673146,-0.576234,-0.297913,-0.954396,-0.069737,-0.781258,-0.623449,0.030785,0.414467,-0.419322,-0.439355,-36.391106,-32.571877,1.073151,,,,,,,
1504281850.464253,-1.616613,0.674287,-0.582210,-0.527668,-1.018539,-0.099909,-0.780332,-0.624341,0.035778,0.398985,-0.427707,-0.437190,-36.391106,-32.571877,1.073151,,,,,,,
1504281850.474263,-1.620759,0.675702,-0.591115,-0.759622,-0.944159,-0.108982,-0.779294,-0.625445,0.038968,0.382901,-0.448468,-0.420514,-36.615944,-32.498344,1.297058,,,,,,,
1504281850.484262,-1.621501,0.677195,-0.603016,-0.993018,-0.770686,-0.097951,-0.778332,-0.626609,0.039499,0.366558,-0.447411,-0.384439,-36.615944,-32.498344,1.297058,,,,,,,
1504281850.494271,-1.618318,0.678673,-0.618168,-1.247689,-0.588515,-0.085904,-0.777527,-0.627761,0.036978,0.350571,-0.435761,-0.350439,-36.690422,-32.574135,1.522430,,,,,,,
1504281850.504281,-1.611575,0.680048,-0.636495,-1.488821,-0.445886,-0.070563,-0.776896,-0.628830,0.031698,0.337123,-0.417755,-0.323843,-36.690422,-32.574135,1.522430,,,,,,,
1504281850.514291,-1.602446,0.681364,-0.657831,-1.714910,-0.436559,-0.076308,-0.776325,-0.629853,0.024578,0.329899,-0.393783,-0.309094,-36.165886,-32.795433,0.850403,,,,,,,
1504281850.524301,-1.592241,0.682841,-0.681732,-1.903097,-0.507436,-0.108531,-0.775605,-0.631000,0.016636,0.327408,-0.363446,-0.301365,-36.165886,-32.795433,0.850403,,,,,,,
1504281850.534310,-1.581492,0.684643,-0.707870,-2.064671,-0.597694,-0.159887,-0.774600,-0.632397,0.008285,0.327365,-0.341221,-0.301269,-36.017235,-32.568703,0.324097,,,,,,,
1504281850.544320,-1.570577,0.686666,-0.735655,-2.170848,-0.690552,-0.198334,-0.773364,-0.633962,-0.000170,0.315051,-0.321208,-0.281400,-36.017235,-32.568703,0.324097,,,,,,,
1504281850.554330,-1.560043,0.688603,-0.763935,-2.170368,-0.767273,-0.203535,-0.772090,-0.635459,-0.008303,0.295954,-0.303185,-0.247923,-35.942497,-33.091286,-0.721802,,,,,,,
1504281850.564340,-1.550994,0.690382,-0.791420,-2.091086,-0.868079,-0.217096,-0.770852,-0.636832,-0.015267,0.277001,-0.282861,-0.221336,-35.942497,-33.091286,-0.721802,,,,,,,
1504281850.574350,-1.543661,0.692213,-0.817223,-1.944116,-0.908704,-0.228511,-0.769552,-0.638243,-0.020887,0.228338,-0.206072,-0.182848,-35.943657,-33.164482,-1.621277,,,,,,,
1504281850.584359,-1.537247,0.693746,-0.840329,-1.692689,-0.804244,-0.200507,-0.768423,-0.639422,-0.025790,0.227209,-0.204893,-0.177945,-35.943657,-33.164482,-1.621277,,,,,,,
1504281850.594369,-1.532695,0.694784,-0.858899,-1.312433,-0.711538,-0.137035,-0.767635,-0.640219,-0.029262,0.208171,-0.201974,-0.114323,-35.945091,-33.087837,-2.446838,,,,,,,
1504281850.604379,-1.529575,0.694612,-0.872691,-0.968024,-0.509937,0.014778,-0.767650,-0.640087,-0.031662,0.200160,-0.180882,-0.046753,-35.945091,-33.087837,-2.446838,,,,,,,
1504281850.614389,-1.527716,0.692607,-0.881847,-0.605260,-0.408664,0.176405,-0.768870,-0.638546,-0.033144,0.171503,-0.191868,0.003557,-36.095238,-33.163063,-2.671661,,,,,,,
1504281850.624398,-1.532992,0.691571,-0.885749,-0.239498,-0.903867,0.064768,-0.769695,-0.637748,-0.029111,0.175075,-0.234322,0.075422,-36.095238,-33.163063,-2.671661,,,,,,,
1504281850.634408,-1.543135,0.690447,-0.885409,0.117773,-1.004931,0.147755,-0.770667,-0.636882,-0.021323,0.230979,-0.137670,-0.000070,-36.021004,-32.862724,-2.673737,,,,,,,
1504281850.644418,-1.556295,0.688315,-0.880464,0.467426,-0.994039,0.226262,-0.772236,-0.635237,-0.011199,0.173955,-0.106112,-0.083985,-36.021004,-32.862724,-2.673737,,,,,,,
1504281850.654428,-1.571271,0.685705,-0.871250,0.785023,-0.867779,0.285297,-0.773973,-0.633219,0.000367,0.162172,-0.122305,0.016020,-36.320274,-32.790276,-2.075012,,,,,,,
1504281850.664437,-1.586126,0.682291,-0.858826,1.014791,-0.651283,0.342953,-0.776039,-0.630573,0.011897,0.116463,-0.110196,-0.005519,-36.320274,-32.790276,-2.075012,,,,,,,
1504281850.674447,-1.600766,0.678578,-0.844565,1.142650,-0.539383,0.342977,-0.778116,-0.627687,0.023327,0.114679,-0.100051,-0.027507,-36.243355,-32.792473,-0.799805,,,,,,,
1504281850.684457,-1.615180,0.674769,-0.829475,1.199690,-0.484430,0.332305,-0.780082,-0.624717,0.034645,0.139045,-0.074120,-0.095452,-36.243355,-32.792473,-0.799805,,,,,,,
1504281850.694467,-1.629081,0.670929,-0.814756,1.143278,-0.472236,0.324714,-0.781914,-0.621714,0.045626,0.169839,-0.058340,-0.201219,-36.317757,-32.494606,0.097778,,,,,,,
1504281850.704476,-1.641753,0.667018,-0.801606,1.031418,-0.453196,0.321285,-0.783693,-0.618646,0.055702,0.192339,-0.064124,-0.283409,-36.317757,-32.494606,0.097778,,,,,,,
1504281850.714486,-1.654290,0.663122,-0.789353,0.973392,-0.511315,0.310612,-0.785329,-0.615580,0.065723,0.203481,-0.098760,-0.336688,-36.765877,-32.573875,1.222229,,,,,,,
1504281850.724465,-1.666057,0.659326,-0.778573,0.843280,-0.511297,0.299713,-0.786821,-0.612585,0.075181,0.220507,-0.109309,-0.391663,-36.765877,-32.573875,1.222229,,,,,,,
1504281850.734475,-1.675970,0.655695,-0.770035,0.660299,-0.450107,0.290749,-0.788245,-0.609710,0.083210,0.231360,-0.116319,-0.438038,-37.065880,-32.126717,1.968140,,,,,,,
1504281850.744485,-1.683492,0.652353,-0.763857,0.478735,-0.350559,0.273180,-0.789617,-0.607058,0.089365,0.237798,-0.153516,-0.443231,-37.065880,-32.126717,1.968140,,,,,,,
1504281850.754495,-1.688603,0.649515,-0.759962,0.293008,-0.249890,0.236389,-0.790857,-0.604800,0.093601,0.244852,-0.185620,-0.442707,-37.215416,-31.903727,2.641113,,,,,,,
1504281850.764505,-1.691444,0.647252,-0.758363,0.108214,-0.165214,0.200695,-0.791945,-0.602997,0.096013,0.254622,-0.202423,-0.443944,-37.215416,-31.903727,2.641113,,,,,,,
1504281850.774514,-1.692345,0.645566,-0.758816,-0.055422,-0.105218,0.161880,-0.792866,-0.601651,0.096849,0.259297,-0.208926,-0.444307,-37.140190,-31.903696,2.791290,,,,,,,
1504281850.784524,-1.692205,0.644640,-0.761015,-0.191854,-0.127472,0.098706,-0.793432,-0.600911,0.096806,0.260077,-0.212413,-0.437031,-37.140190,-31.903696,2.791290,,,,,,,
1504281850.794534,-1.692346,0.644958,-0.764277,-0.305427,-0.283020,-0.054923,-0.793229,-0.601165,0.096894,0.265107,-0.220902,-0.431001,-37.366402,-31.379847,2.861755,,,,,,,
