timestamp(unix),attitude_roll(radians),attitude_pitch(radians),attitude_yaw(radians),rotation_rate_x(radians/s),rotation_rate_y(radians/s),rotation_rate_z(radians/s),gravity_x(G),gravity_y(G),gravity_z(G),user_acc_x(G),user_acc_y(G),user_acc_z(G),magnetic_field_x(microteslas),magnetic_field_y(microteslas),magnetic_field_z(microteslas),latitude(degree),longitude(degree),altitude(meter),speed(m/s),course(degree),timestamp(unix),User Mark
1504199262.626828,-0.064065,0.686632,1.723039,-0.137106,-0.053354,0.047222,-0.049513,-0.633936,-0.771799,0.009046,0.006449,-0.009940,16.527575,-19.704540,-26.227753,,,,,,,
1504199262.636838,-0.065520,0.684868,1.723338,-0.186876,-0.150960,0.029162,-0.050710,-0.632571,-0.772841,0.023274,0.017535,-0.039507,16.376894,-19.480053,-26.304840,,,,,,,
1504199262.646848,-0.066737,0.681658,1.722666,-0.220591,-0.245496,0.003649,-0.051785,-0.630082,-0.774800,0.030590,0.016373,-0.045405,16.376894,-19.480053,-26.304840,,,,,,,
1504199262.656857,-0.069270,0.679301,1.722128,-0.244271,-0.295344,-0.034730,-0.053850,-0.628249,-0.776146,0.025957,0.011565,-0.035011,16.076677,-19.481106,-26.455566,,,,,,,
1504199262.666867,-0.071662,0.676746,1.721215,-0.266537,-0.291941,-0.057190,-0.055821,-0.626260,-0.777614,0.020482,0.008187,-0.025182,16.076677,-19.481106,-26.455566,,,,,,,
1504199262.676877,-0.073573,0.674073,1.720017,-0.274685,-0.256687,-0.078615,-0.057430,-0.624173,-0.779172,0.009197,0.008466,-0.011996,15.851519,-19.332424,-26.307251,,,,,,,
1504199262.686887,-0.074827,0.671212,1.718547,-0.270087,-0.220485,-0.087210,-0.058540,-0.621935,-0.780877,0.006294,0.008563,0.001016,15.851519,-19.332424,-26.307251,,,,,,,
1504199262.696896,-0.075958,0.668726,1.717224,-0.250632,-0.186551,-0.082967,-0.059540,-0.619987,-0.782350,0.006241,0.012260,0.005708,16.075731,-19.106106,-26.458374,,,,,,,
1504199262.706906,-0.076813,0.666472,1.716026,-0.225842,-0.150532,-0.075516,-0.060316,-0.618217,-0.783690,0.000212,0.015021,0.005339,16.075731,-19.106106,-26.458374,,,,,,,
1504199262.716916,-0.077547,0.664546,1.714996,-0.187371,-0.134878,-0.062668,-0.060983,-0.616702,-0.784831,0.009088,0.012744,-0.001317,15.550097,-19.032864,-26.760223,,,,,,,
1504199262.726926,-0.077740,0.662899,1.713818,-0.130985,-0.140687,-0.040148,-0.061214,-0.615405,-0.785831,0.021480,0.007006,-0.006573,15.550097,-19.032864,-26.760223,,,,,,,
1504199262.736936,-0.079011,0.662120,1.713448,-0.062914,-0.151929,-0.015460,-0.062250,-0.614790,-0.786230,0.029932,0.000761,-0.006891,15.549944,-19.107418,-26.984680,,,,,,,
1504199262.746945,-0.080489,0.661946,1.713486,-0.002156,-0.141803,0.012380,-0.063421,-0.614653,-0.786244,0.037100,-0.000734,-0.002239,15.549944,-19.107418,-26.984680,,,,,,,
1504199262.756955,-0.082066,0.662196,1.713921,0.035179,-0.126154,0.039102,-0.064649,-0.614850,-0.785990,0.033643,-0.000461,-0.002676,15.774630,-19.031261,-27.059692,,,,,,,
1504199262.766965,-0.082566,0.662527,1.713918,0.042699,-0.113425,0.048693,-0.065024,-0.615111,-0.785754,0.029945,0.001967,-0.007474,15.774630,-19.031261,-27.059692,,,,,,,
1504199262.776964,-0.084072,0.662815,1.714514,0.027772,-0.115428,0.043334,-0.066193,-0.615338,-0.785479,0.033036,0.009122,-0.014509,15.699938,-18.882488,-26.610992,,,,,,,
1504199262.786973,-0.085566,0.662846,1.715015,-0.002085,-0.117306,0.036881,-0.067365,-0.615363,-0.785360,0.030515,0.013602,-0.020045,15.699938,-18.882488,-26.610992,,,,,,,
1504199262.796983,-0.086008,0.661852,1.714807,-0.028671,-0.110682,0.028280,-0.067764,-0.614579,-0.785939,0.025436,0.017106,-0.022533,15.549974,-19.256969,-27.208588,,,,,,,
1504199262.806993,-0.086484,0.660895,1.714709,-0.027609,-0.104304,0.037873,-0.068189,-0.613824,-0.786493,0.024167,0.018456,-0.015204,15.549974,-19.256969,-27.208588,,,,,,,
1504199262.817003,-0.087277,0.660278,1.714907,-0.025340,-0.088335,0.035712,-0.068846,-0.613336,-0.786816,0.012663,0.016504,0.001034,15.849520,-19.030773,-27.134491,,,,,,,
1504199262.827012,-0.087580,0.659780,1.714864,-0.020969,-0.075575,0.034626,-0.069111,-0.612943,-0.787099,0.022938,0.019910,0.007299,15.849520,-19.030773,-27.134491,,,,,,,
1504199262.837022,-0.088111,0.659073,1.714822,-0.036045,-0.101008,0.020766,-0.069567,-0.612385,-0.787493,0.017870,0.023899,0.007372,15.549868,-19.256817,-27.283569,,,,,,,
1504199262.847032,-0.088813,0.657830,1.714250,-0.034867,-0.128658,-0.047498,-0.070187,-0.611401,-0.788202,0.013348,0.037838,-0.001547,15.549868,-19.256817,-27.283569,,,,,,,
1504199262.857042,-0.088397,0.656373,1.712216,-0.022683,-0.130794,-0.143542,-0.069938,-0.610247,-0.789118,0.029090,0.078433,0.024637,15.548738,-19.031078,-27.660248,,,,,,,
1504199262.867021,-0.088090,0.656313,1.709874,-0.023318,-0.107295,-0.192685,-0.069699,-0.610200,-0.789176,0.010754,0.076813,0.040488,15.548738,-19.031078,-27.660248,,,,,,,
1504199262.877031,-0.087496,0.656216,1.707385,-0.030627,-0.088053,-0.193799,-0.069235,-0.610123,-0.789276,-0.022302,0.050766,0.036453,15.623476,-18.880886,-27.586212,,,,,,,
1504199262.887040,-0.087004,0.655887,1.705041,-0.053205,-0.099605,-0.177807,-0.068864,-0.609863,-0.789509,-0.031737,0.044738,0.027028,15.623476,-18.880886,-27.586212,,,,,,,
1504199262.897050,-0.088071,0.654363,1.703618,-0.077961,-0.118624,-0.166066,-0.069789,-0.608654,-0.790361,-0.032216,0.048412,0.016999,15.773211,-18.730358,-27.511963,,,,,,,
1504199262.907060,-0.087886,0.653549,1.701452,-0.103486,-0.107758,-0.165062,-0.069686,-0.608008,-0.790867,-0.020494,0.059211,0.016239,15.773211,-18.730358,-27.511963,,,,,,,
1504199262.917070,-0.087411,0.652515,1.699248,-0.123523,-0.077757,-0.164082,-0.069365,-0.607187,-0.791526,-0.015901,0.057352,0.016028,15.623659,-18.731640,-27.212341,,,,,,,
1504199262.927080,-0.086433,0.651409,1.697039,-0.123072,-0.021284,-0.164181,-0.068648,-0.606308,-0.792261,-0.019715,0.048645,0.018641,15.623659,-18.731640,-27.212341,,,,,,,
1504199262.937089,-0.085596,0.650049,1.695433,-0.099002,0.058413,-0.156802,-0.068055,-0.605226,-0.793140,-0.020262,0.037477,0.029788,15.622713,-18.580883,-27.588470,,,,,,,
1504199262.947099,-0.083518,0.649428,1.693430,-0.067825,0.091184,-0.151469,-0.066439,-0.604731,-0.793654,-0.019499,0.017145,0.029906,15.622713,-18.580883,-27.588470,,,,,,,
1504199262.957109,-0.081520,0.649100,1.691473,-0.038058,0.077087,-0.152460,-0.064870,-0.604470,-0.793983,-0.013637,-0.004158,0.008048,15.847979,-18.729733,-27.661774,,,,,,,
1504199262.967119,-0.079714,0.649046,1.689520,-0.010449,0.058748,-0.155582,-0.063438,-0.604427,-0.794131,0.000205,-0.010854,-0.006528,15.847979,-18.729733,-27.661774,,,,,,,
1504199262.977128,-0.077529,0.649517,1.687366,0.004470,0.060758,-0.148091,-0.061680,-0.604802,-0.793984,0.010518,-0.021632,-0.010429,16.147936,-18.578823,-27.437164,,,,,,,
1504199262.987138,-0.075896,0.649689,1.685724,0.006498,0.062848,-0.123541,-0.060376,-0.604939,-0.793980,0.014920,-0.033794,-0.011623,16.147936,-18.578823,-27.437164,,,,,,,
1504199262.997148,-0.074633,0.649732,1.684535,-0.005532,0.050120,-0.085113,-0.059371,-0.604973,-0.794029,0.012450,-0.041862,-0.022667,16.072527,-18.503857,-27.587921,,,,,,,
1504199263.007158,-0.073815,0.649562,1.683715,-0.028259,0.027899,-0.056293,-0.058729,-0.604838,-0.794180,0.015272,-0.042745,-0.036753,16.072527,-18.503857,-27.587921,,,,,,,
1504199263.017167,-0.072243,0.649321,1.682466,-0.052021,0.003584,-0.037085,-0.057492,-0.604646,-0.794417,0.030071,-0.038955,-0.045595,15.996813,-18.129498,-27.440918,,,,,,,
1504199263.027177,-0.072225,0.648758,1.682116,-0.059830,-0.028337,-0.019964,-0.057501,-0.604197,-0.794758,0.037848,-0.040655,-0.053585,15.996813,-18.129498,-27.440918,,,,,,,
1504199263.037187,-0.072536,0.648274,1.681922,-0.046145,-0.045509,-0.010304,-0.057770,-0.603811,-0.795031,0.042435,-0.033411,-0.048200,15.847826,-18.580029,-27.512909,,,,,,,
1504199263.047197,-0.072927,0.647993,1.681821,-0.021603,-0.042519,-0.005997,-0.058093,-0.603588,-0.795177,0.044116,-0.021214,-0.038334,15.847826,-18.580029,-27.512909,,,,,,,
1504199263.057207,-0.071782,0.648000,1.680858,0.012677,-0.028922,-0.012374,-0.057182,-0.603593,-0.795240,0.038185,-0.013747,-0.027148,15.847414,-18.504726,-27.663452,,,,,,,
1504199263.067216,-0.071741,0.648456,1.680562,0.054551,-0.007935,-0.031552,-0.057130,-0.603957,-0.794967,0.032792,-0.005083,-0.014680,15.847414,-18.504726,-27.663452,,,,,,,
1504199263.077226,-0.071367,0.649322,1.679995,0.092129,0.005635,-0.057128,-0.056795,-0.604646,-0.794467,0.033419,0.004701,-0.009595,15.847078,-18.280025,-27.515137,,,,,,,
1504199263.087236,-0.070808,0.650579,1.679240,0.130648,0.010660,-0.070946,-0.056297,-0.605647,-0.793739,0.033959,0.008601,-0.009712,15.847078,-18.280025,-27.515137,,,,,,,
1504199263.097246,-0.069097,0.652050,1.677925,0.164958,0.035958,-0.064533,-0.054878,-0.606817,-0.792945,0.026939,0.005423,-0.006067,15.697268,-18.355694,-27.514954,,,,,,,
1504199263.107225,-0.068246,0.653981,1.677500,0.198169,0.067628,-0.041048,-0.054123,-0.608351,-0.791821,0.022324,-0.001635,-0.000919,15.697268,-18.355694,-27.514954,,,,,,,
1504199263.117235,-0.067348,0.656096,1.677520,0.214241,0.099425,-0.003718,-0.053325,-0.610028,-0.790583,0.027690,-0.008395,0.003138,15.623140,-18.656185,-27.437897,,,,,,,
1504199263.127244,-0.066490,0.658199,1.677988,0.208893,0.119678,0.031462,-0.052561,-0.611693,-0.789347,0.033305,-0.013902,-0.002248,15.623140,-18.656185,-27.437897,,,,,,,
1504199263.137254,-0.064572,0.660530,1.678062,0.193923,0.127260,0.050629,-0.050955,-0.613535,-0.788022,0.029730,-0.016119,-0.006931,15.923403,-18.804684,-27.511017,,,,,,,
1504199263.147264,-0.063793,0.662246,1.678878,0.166179,0.127488,0.051647,-0.050274,-0.614889,-0.787009,0.027569,-0.008478,-0.007882,15.923403,-18.804684,-27.511017,,,,,,,
1504199263.157274,-0.063054,0.663591,1.679521,0.127679,0.107573,0.037740,-0.049640,-0.615949,-0.786220,0.026477,0.003233,-0.009251,15.998964,-18.805096,-27.135803,,,,,,,
1504199263.167283,-0.062400,0.664563,1.679882,0.089165,0.081272,0.016371,-0.049088,-0.616715,-0.785654,0.017945,0.013490,-0.012152,15.998964,-18.805096,-27.135803,,,,,,,
1504199263.177293,-0.061380,0.664553,1.679665,0.057074,0.057051,-0.007126,-0.048287,-0.616707,-0.785710,0.010934,0.022439,-0.007564,15.548403,-18.582119,-27.138611,,,,,,,
1504199263.187303,-0.060790,0.664885,1.679423,0.025005,0.038153,-0.025294,-0.047812,-0.616969,-0.785534,0.003638,0.026103,-0.003300,15.548403,-18.582119,-27.138611,,,,,,,
1504199263.197313,-0.060225,0.664955,1.679058,-0.000613,0.034107,-0.029601,-0.047365,-0.617024,-0.785518,-0.004881,0.024037,0.002025,15.998583,-18.655102,-27.136932,,,,,,,
1504199263.207322,-0.059621,0.664879,1.678729,-0.011253,0.041647,-0.023228,-0.046893,-0.616964,-0.785593,-0.011883,0.019583,0.007212,15.998583,-18.655102,-27.136932,,,,,,,
1504199263.217332,-0.059637,0.664485,1.678938,-0.016587,0.051255,-0.008307,-0.046920,-0.616654,-0.785835,-0.015015,0.018983,0.014457,15.999269,-18.880245,-27.060272,,,,,,,
1504199263.227342,-0.059105,0.664364,1.678993,-0.009164,0.057568,0.010908,-0.046507,-0.616559,-0.785934,-0.021654,0.015256,0.014846,15.999269,-18.880245,-27.060272,,,,,,,
1504199263.237352,-0.058762,0.664323,1.679387,-0.000768,0.057470,0.038675,-0.046239,-0.616526,-0.785975,-0.025111,0.009379,0.015468,16.074068,-18.804913,-27.060638,,,,,,,
1504199263.247362,-0.058840,0.664166,1.680248,-0.017118,0.039447,0.079240,-0.046306,-0.616403,-0.786068,-0.025365,0.003747,0.012509,16.074068,-18.804913,-27.060638,,,,,,,
1504199263.257371,-0.060117,0.663908,1.681993,-0.054887,0.010938,0.119790,-0.047319,-0.616199,-0.786168,-0.017409,-0.018612,-0.007793,16.073687,-18.654919,-27.061768,,,,,,,
1504199263.267381,-0.061322,0.662976,1.683751,-0.094746,-0.017537,0.150725,-0.048302,-0.615465,-0.786683,-0.006920,-0.025969,-0.025070,16.073687,-18.654919,-27.061768,,,,,,,
1504199263.277391,-0.062889,0.661764,1.685789,-0.115264,-0.034440,0.173135,-0.049581,-0.614509,-0.787350,0.003133,-0.026146,-0.026508,16.073778,-18.729763,-27.136169,,,,,,,
1504199263.287401,-0.064575,0.660435,1.688044,-0.120624,-0.026955,0.190191,-0.050961,-0.613460,-0.788080,0.007031,-0.027302,-0.017630,16.073778,-18.729763,-27.136169,,,,,,,
1504199263.297410,-0.066020,0.659760,1.690355,-0.100266,-0.010077,0.200869,-0.052127,-0.612927,-0.788418,0.004062,-0.030277,-0.010517,16.299257,-18.878902,-27.059509,,,,,,,
1504199263.307420,-0.067425,0.658898,1.692933,-0.061605,0.027955,0.211543,-0.053271,-0.612246,-0.788871,0.006289,-0.028135,-0.003137,16.299257,-18.878902,-27.059509,,,,,,,
1504199263.317430,-0.068341,0.658637,1.695716,0.007167,0.097704,0.225415,-0.054004,-0.612040,-0.788981,0.004642,-0.022009,0.012797,16.224489,-19.103786,-27.283020,,,,,,,
1504199263.327440,-0.068545,0.659185,1.698873,0.097472,0.200295,0.253143,-0.054142,-0.612473,-0.788635,-0.000729,-0.021393,0.031799,16.224489,-19.103786,-27.283020,,,,,,,
1504199263.337449,-0.068587,0.662535,1.703024,0.233863,0.330210,0.286242,-0.054034,-0.615118,-0.786581,-0.018751,-0.030405,0.044135,15.774111,-18.955807,-27.285248,,,,,,,
1504199263.347459,-0.066788,0.665892,1.706973,0.397034,0.453543,0.284173,-0.052481,-0.617761,-0.784613,-0.011225,-0.018485,0.071585,16.000017,-19.180248,-27.058014,,,,,,,
1504199263.357438,-0.064011,0.670697,1.710631,0.525816,0.520725,0.241582,-0.050111,-0.621532,-0.781784,0.007997,0.035824,0.082077,16.000017,-19.180248,-27.058014,,,,,,,
1504199263.367448,-0.060551,0.676476,1.713474,0.607284,0.521198,0.165936,-0.047188,-0.626049,-0.778355,-0.012291,0.084957,0.032352,16.301332,-19.479656,-26.680023,,,,,,,
1504199263.377458,-0.056748,0.682707,1.715348,0.646854,0.485786,0.090282,-0.044006,-0.630895,-0.774619,0.000884,0.089132,-0.006677,16.301332,-19.479656,-26.680023,,,,,,,
1504199263.387468,-0.053092,0.689197,1.716385,0.648676,0.410174,0.031711,-0.040955,-0.635918,-0.770669,0.028763,0.082848,-0.034415,16.528368,-19.929836,-26.076080,,,,,,,
1504199263.397478,-0.049894,0.695402,1.716873,0.608733,0.330618,-0.002374,-0.038292,-0.640694,-0.766841,0.029778,0.068246,-0.056707,16.528368,-19.929836,-26.076080,,,,,,,
1504199263.407487,-0.047245,0.700852,1.716992,0.516427,0.245713,-0.021564,-0.036095,-0.644869,-0.763440,0.042824,0.066088,-0.067416,16.529604,-20.155743,-25.624390,,,,,,,
1504199263.417497,-0.044391,0.702495,1.715964,0.349971,0.105369,-0.034418,-0.033869,-0.646124,-0.762481,0.046107,0.065527,-0.091844,16.529604,-20.155743,-25.624390,,,,,,,
1504199263.427507,-0.044286,0.704817,1.715290,0.188632,-0.082935,-0.075994,-0.033723,-0.647894,-0.760983,0.001100,0.083365,-0.138064,16.380129,-20.456112,-25.772491,,,,,,,
1504199263.437517,-0.045359,0.705318,1.713610,-0.007662,-0.258134,-0.147541,-0.034525,-0.648276,-0.760622,-0.011298,0.110404,-0.107405,16.380129,-20.456112,-25.772491,,,,,,,
1504199263.447526,-0.047224,0.703810,1.711015,-0.206793,-0.377914,-0.203180,-0.035989,-0.647127,-0.761532,0.007669,0.105196,-0.122363,16.529222,-20.229992,-25.998810,,,,,,,
1504199263.457536,-0.049414,0.698368,1.708093,-0.301767,-0.390983,-0.225732,-0.037830,-0.642969,-0.764957,-0.009899,0.070032,-0.114269,16.529222,-20.229992,-25.998810,,,,,,,
1504199263.467546,-0.051007,0.695580,1.704967,-0.279002,-0.345351,-0.224706,-0.039140,-0.640831,-0.766684,-0.018767,0.041282,-0.030405,16.303698,-20.155560,-26.224945,,,,,,,
1504199263.477556,-0.052107,0.693458,1.701929,-0.203903,-0.291627,-0.221468,-0.040054,-0.639201,-0.767996,-0.033737,0.017710,0.033972,16.303698,-20.155560,-26.224945,,,,,,,
1504199263.487565,-0.052666,0.692133,1.698920,-0.123392,-0.231549,-0.223570,-0.040528,-0.638181,-0.768819,-0.031829,0.007932,0.046773,16.377916,-19.705654,-26.003113,,,,,,,
1504199263.497575,-0.053641,0.692207,1.696677,-0.040642,-0.156584,-0.221419,-0.041275,-0.638238,-0.768732,-0.023361,0.013345,0.045267,16.377916,-19.705654,-26.003113,,,,,,,
1504199263.507585,-0.052840,0.692490,1.693911,0.035691,-0.077304,-0.210752,-0.040650,-0.638456,-0.768584,-0.027923,0.012677,0.047286,16.302355,-19.705257,-26.378296,,,,,,,
1504199263.517595,-0.051516,0.693402,1.691381,0.094805,-0.013870,-0.195818,-0.039602,-0.639157,-0.768056,-0.033991,0.002713,0.042897,16.302355,-19.705257,-26.378296,,,,,,,
1504199263.527604,-0.049884,0.694748,1.689084,0.134500,0.024147,-0.178738,-0.038306,-0.640192,-0.767259,-0.029657,-0.006827,0.036165,16.151628,-19.331219,-26.231506,,,,,,,
1504199263.537614,-0.049099,0.697261,1.687575,0.149469,0.036789,-0.162719,-0.037624,-0.642120,-0.765680,-0.020664,-0.016571,0.024576,16.151628,-19.331219,-26.231506,,,,,,,
1504199263.547624,-0.047516,0.698780,1.685668,0.139769,0.032594,-0.149920,-0.036366,-0.643284,-0.764763,-0.015133,-0.023311,0.012886,16.527727,-19.629986,-26.003326,,,,,,,
1504199263.557634,-0.046089,0.700000,1.683829,0.105501,0.020083,-0.144620,-0.035238,-0.644218,-0.764030,-0.010401,-0.023629,-0.002434,16.527727,-19.629986,-26.003326,,,,,,,
1504199263.567644,-0.044818,0.700772,1.682000,0.059487,0.004476,-0.142537,-0.034245,-0.644808,-0.763577,-0.005443,-0.023313,-0.011432,16.526628,-19.329540,-26.230591,,,,,,,
1504199263.577653,-0.043632,0.701404,1.680057,0.009199,-0.016414,-0.146858,-0.033321,-0.645291,-0.763210,0.000530,-0.023410,-0.011891,16.526628,-19.329540,-26.230591,,,,,,,
1504199263.587663,-0.042820,0.701199,1.678126,-0.039105,-0.052248,-0.145811,-0.032707,-0.645135,-0.763369,0.007500,-0.021705,-0.014204,16.527452,-19.480129,-25.929474,,,,,,,
1504199263.597642,-0.042349,0.700485,1.676161,-0.090608,-0.089119,-0.146903,-0.032368,-0.644588,-0.763844,0.015430,-0.020420,-0.015834,16.527452,-19.480129,-25.929474,,,,,,,
1504199263.607652,-0.042261,0.699350,1.674189,-0.128274,-0.128238,-0.144764,-0.032331,-0.643720,-0.764577,0.020414,-0.019320,-0.017527,16.751818,-19.403530,-26.229462,,,,,,,
1504199263.617662,-0.041929,0.698188,1.671898,-0.138478,-0.183588,-0.112667,-0.032109,-0.642830,-0.765335,0.019566,-0.018012,-0.013519,16.751818,-19.403530,-26.229462,,,,,,,
1504199263.627672,-0.043302,0.696898,1.670940,-0.126092,-0.201862,-0.058176,-0.033195,-0.641842,-0.766118,0.026908,-0.047840,-0.012095,16.751436,-19.253521,-26.230591,,,,,,,
1504199263.637681,-0.044961,0.695777,1.670492,-0.110172,-0.187117,-0.017613,-0.034499,-0.640982,-0.766780,0.040938,-0.049188,0.002101,16.751436,-19.253521,-26.230591,,,,,,,
1504199263.647691,-0.046981,0.694968,1.670883,-0.070897,-0.170460,0.049672,-0.036071,-0.640361,-0.767227,0.051559,-0.049474,0.006225,16.751131,-19.402630,-26.679474,,,,,,,
1504199263.657701,-0.046668,0.696549,1.670735,-0.024720,-0.092024,0.118982,-0.035784,-0.641574,-0.766226,0.052157,-0.066220,0.011389,16.751131,-19.402630,-26.679474,,,,,,,
1504199263.667711,-0.048420,0.696618,1.672956,0.027854,-0.012608,0.187247,-0.037124,-0.641627,-0.766118,0.051544,-0.067464,0.027409,16.526628,-19.329540,-26.230591,,,,,,,
1504199263.677720,-0.050192,0.697207,1.675922,0.082299,0.019929,0.233182,-0.038463,-0.642079,-0.765673,0.053646,-0.070094,0.025240,16.526628,-19.329540,-26.230591,,,,,,,
1504199263.687730,-0.051804,0.698212,1.679143,0.122009,0.053694,0.240663,-0.039664,-0.642849,-0.764965,0.059378,-0.045078,0.011211,16.151186,-19.330624,-26.531494,,,,,,,
1504199263.697740,-0.050434,0.700072,1.680569,0.137367,0.091981,0.218193,-0.038555,-0.644273,-0.763823,0.058468,-0.017654,0.001510,16.151186,-19.330624,-26.531494,,,,,,,
1504199263.707750,-0.050961,0.701317,1.683064,0.131371,0.113391,0.171179,-0.038917,-0.645225,-0.763001,0.036629,0.006675,-0.001159,16.602678,-19.704357,-26.152557,,,,,,,
1504199263.717759,-0.050911,0.702405,1.684878,0.110358,0.122142,0.119892,-0.038843,-0.646055,-0.762302,0.034815,0.032454,-0.007749,16.602678,-19.704357,-26.152557,,,,,,,
1504199263.727769,-0.050666,0.703310,1.686211,0.090100,0.105291,0.089999,-0.038627,-0.646746,-0.761727,0.030631,0.038546,-0.008247,16.377794,-19.705517,-26.078125,,,,,,,
1504199263.737779,-0.049330,0.702993,1.686539,0.060983,0.067177,0.088942,-0.037619,-0.646504,-0.761983,0.030325,0.033055,-0.005977,16.377794,-19.705517,-26.078125,,,,,,,
1504199263.747789,-0.049827,0.703343,1.687863,0.033913,0.026891,0.103910,-0.037986,-0.646771,-0.761738,0.032921,0.027233,-0.011257,16.452837,-19.854717,-26.301819,,,,,,,
1504199263.757799,-0.050897,0.703488,1.689498,0.018562,-0.008175,0.130630,-0.038797,-0.646882,-0.761603,0.040887,0.018250,-0.017419,16.452837,-19.854717,-26.301819,,,,,,,
1504199263.767808,-0.052357,0.703602,1.691545,0.021547,-0.014627,0.163736,-0.039905,-0.646969,-0.761472,0.049243,0.003139,-0.011905,16.302721,-19.855251,-26.377197,,,,,,,
1504199263.777819,-0.052367,0.704352,1.692849,0.040574,-0.021184,0.189389,-0.039887,-0.647540,-0.760987,0.040452,-0.011929,0.003678,16.302721,-19.855251,-26.377197,,,,,,,
1504199263.787829,-0.054380,0.704751,1.695495,0.053250,-0.029825,0.201168,-0.041404,-0.647844,-0.760647,0.031273,-0.015028,0.000637,16.454195,-20.305019,-26.148438,,,,,,,
1504199263.797839,-0.056335,0.705337,1.698206,0.075782,-0.014027,0.201179,-0.042871,-0.648291,-0.760185,0.026971,-0.007807,-0.008141,16.454195,-20.305019,-26.148438,,,,,,,
1504199263.807848,-0.057876,0.706174,1.700799,0.101766,0.025200,0.188346,-0.044011,-0.648927,-0.759576,0.009755,-0.000380,-0.001074,15.928820,-20.157391,-26.150848,,,,,,,
1504199263.817858,-0.058996,0.707298,1.703328,0.132191,0.081445,0.168020,-0.044818,-0.649783,-0.758798,-0.004513,0.009646,0.010278,15.928820,-20.157391,-26.150848,,,,,,,
1504199263.827868,-0.059080,0.708749,1.705404,0.161589,0.138773,0.141285,-0.044826,-0.650885,-0.757852,-0.014027,0.020849,0.019724,16.153963,-20.081814,-25.925873,,,,,,,
1504199263.837878,-0.058587,0.710464,1.707179,0.185436,0.171633,0.118853,-0.044387,-0.652185,-0.756759,-0.022111,0.026377,0.019729,16.153963,-20.081814,-25.925873,,,,,,,
1504199263.847857,-0.057795,0.712390,1.708709,0.202662,0.178971,0.099656,-0.043715,-0.653645,-0.755538,-0.025881,0.027088,0.013534,16.154985,-20.531673,-25.997498,,,,,,,
1504199263.857867,-0.057997,0.713673,1.710690,0.197388,0.172630,0.076182,-0.043819,-0.654615,-0.754691,-0.024739,0.029707,0.006065,16.154985,-20.531673,-25.997498,,,,,,,
1504199263.867876,-0.056831,0.715392,1.711534,0.166604,0.172916,0.045174,-0.042875,-0.655913,-0.753618,-0.021914,0.036696,-0.006194,16.305361,-20.456753,-25.622681,,,,,,,
1504199263.877886,-0.055326,0.716696,1.711883,0.119824,0.172271,0.010937,-0.041693,-0.656897,-0.752827,-0.014505,0.044027,-0.010769,16.305361,-20.456753,-25.622681,,,,,,,
1504199263.887896,-0.053821,0.717510,1.711889,0.067382,0.140754,-0.007244,-0.040531,-0.657511,-0.752354,-0.006801,0.041681,-0.006557,16.154650,-20.306973,-25.849182,,,,,,,
1504199263.897906,-0.052900,0.716745,1.711972,0.010403,0.093254,0.001282,-0.039866,-0.656934,-0.752893,-0.003347,0.032010,-0.006506,16.154650,-20.306973,-25.849182,,,,,,,
1504199263.907916,-0.052462,0.716389,1.712163,-0.050893,0.045786,0.021540,-0.039548,-0.656666,-0.753144,-0.009372,0.025364,-0.004180,15.929537,-20.307842,-25.924744,,,,,,,
1504199263.917925,-0.052417,0.715387,1.712506,-0.114087,0.021787,0.032147,-0.039549,-0.655910,-0.753802,-0.012743,0.024532,-0.004498,15.929537,-20.307842,-25.924744,,,,,,,
1504199263.927935,-0.052496,0.713835,1.712817,-0.165385,0.010489,0.031010,-0.039661,-0.654738,-0.754815,-0.007290,0.032362,-0.001594,16.530809,-20.680584,-25.695435,,,,,,,
1504199263.937945,-0.052795,0.710984,1.713154,-0.201701,0.001199,0.022427,-0.039985,-0.652580,-0.756664,-0.003640,0.038200,0.007564,16.530809,-20.680584,-25.695435,,,,,,,
1504199263.947955,-0.052877,0.708706,1.713171,-0.234809,-0.010237,0.010648,-0.040126,-0.650852,-0.758144,-0.005971,0.037555,0.010936,16.304827,-20.381298,-25.848236,,,,,,,
1504199263.957964,-0.052936,0.706175,1.713057,-0.257201,-0.013242,0.003143,-0.040258,-0.648928,-0.759784,-0.008021,0.032077,0.008746,16.304827,-20.381298,-25.848236,,,,,,,
1504199263.967974,-0.052861,0.703611,1.712885,-0.254941,0.000596,-0.000080,-0.040289,-0.646975,-0.761446,-0.011835,0.017336,0.011904,16.229036,-20.156338,-26.000122,,,,,,,
1504199263.977984,-0.053338,0.701353,1.713157,-0.232369,0.018523,-0.004338,-0.040729,-0.645252,-0.762884,-0.015225,0.011966,0.023199,16.229036,-20.156338,-26.000122,,,,,,,
1504199263.987994,-0.053804,0.699621,1.713505,-0.188441,0.036276,-0.011761,-0.041145,-0.643928,-0.763979,-0.020363,0.011481,0.028811,16.454302,-20.305172,-26.073456,,,,,,,
1504199263.998003,-0.053882,0.698163,1.713687,-0.142329,0.059342,-0.021324,-0.041255,-0.642811,-0.764913,-0.017598,0.022252,0.032201,16.454302,-20.305172,-26.073456,,,,,,,
1504199264.008013,-0.053512,0.696837,1.713657,-0.100586,0.072849,-0.026609,-0.041017,-0.641795,-0.765778,-0.012449,0.029536,0.026246,16.078661,-20.007015,-26.001617,,,,,,,
1504199264.018023,-0.052927,0.695799,1.713524,-0.066474,0.071495,-0.023343,-0.040605,-0.640999,-0.766467,-0.008193,0.025261,0.016589,16.078661,-20.007015,-26.001617,,,,,,,
1504199264.028033,-0.052352,0.695039,1.713392,-0.038822,0.062735,-0.020076,-0.040189,-0.640416,-0.766976,-0.006243,0.018788,0.007653,16.228930,-20.156185,-26.075134,,,,,,,
1504199264.038042,-0.051830,0.694665,1.713330,-0.021763,0.064717,-0.014711,-0.039802,-0.640128,-0.767236,-0.006784,0.007575,0.003183,16.228930,-20.156185,-26.075134,,,,,,,
1504199264.048052,-0.051262,0.694394,1.713301,-0.020698,0.067897,-0.009376,-0.039375,-0.639920,-0.767432,-0.005791,0.002438,0.000068,16.303057,-19.855694,-26.152191,,,,,,,
1504199264.058062,-0.050811,0.693992,1.713425,-0.033554,0.067989,0.001277,-0.039041,-0.639611,-0.767707,-0.007437,-0.002418,-0.007851,16.303057,-19.855694,-26.152191,,,,,,,
1504199264.068072,-0.050141,0.693498,1.713491,-0.047433,0.072356,0.009784,-0.038543,-0.639231,-0.768048,-0.000947,-0.008199,-0.013004,16.227877,-19.781033,-26.152924,,,,,,,
1504199264.078082,-0.049088,0.692860,1.713399,-0.068682,0.084255,0.010792,-0.037754,-0.638740,-0.768496,0.007435,-0.013207,-0.016233,16.227877,-19.781033,-26.152924,,,,,,,
1504199264.088061,-0.047870,0.692013,1.713159,-0.089031,0.072709,0.007572,-0.036844,-0.638089,-0.769081,0.012766,-0.013324,-0.016609,16.302919,-19.706005,-26.003296,,,,,,,
1504199264.098071,-0.046809,0.690930,1.712769,-0.104226,0.036616,0.001202,-0.036061,-0.637254,-0.769810,0.015675,-0.014968,-0.022762,16.302919,-19.706005,-26.003296,,,,,,,
1504199264.108080,-0.046719,0.689823,1.712642,-0.112026,-0.010197,-0.007268,-0.036024,-0.636401,-0.770517,0.014768,-0.012830,-0.026907,16.303850,-20.081005,-26.000488,,,,,,,
1504199264.118090,-0.046992,0.688680,1.712409,-0.114469,-0.052795,-0.013601,-0.036269,-0.635519,-0.771233,0.008803,-0.011667,-0.027351,16.303850,-20.081005,-26.000488,,,,,,,
1504199264.128100,-0.047528,0.687568,1.712152,-0.109308,-0.075214,-0.014620,-0.036715,-0.634660,-0.771919,0.007815,-0.011046,-0.025643,16.453295,-20.079571,-26.375122,,,,,,,
1504199264.138110,-0.047984,0.686356,1.711818,-0.097686,-0.083841,-0.006047,-0.037105,-0.633723,-0.772670,0.006480,-0.010732,-0.024464,16.453295,-20.079571,-26.375122,,,,,,,
1504199264.148119,-0.048768,0.685450,1.711738,-0.087032,-0.081805,0.000372,-0.037738,-0.633021,-0.773214,0.003131,-0.013372,-0.021616,16.152880,-19.781368,-26.153107,,,,,,,
1504199264.158129,-0.049487,0.684691,1.711729,-0.072010,-0.069144,0.003578,-0.038317,-0.632433,-0.773666,0.006121,-0.009687,-0.020874,16.152880,-19.781368,-26.153107,,,,,,,
1504199264.168139,-0.050049,0.684071,1.711742,-0.056926,-0.050089,0.004638,-0.038772,-0.631954,-0.774036,0.011184,-0.009190,-0.022519,16.002733,-19.856594,-26.377930,,,,,,,
1504199264.178149,-0.050128,0.683567,1.711543,-0.034469,-0.042812,0.005730,-0.038849,-0.631563,-0.774351,0.010071,-0.011977,-0.021197,16.002733,-19.856594,-26.377930,,,,,,,
1504199264.188158,-0.050556,0.683339,1.711575,-0.018433,-0.040810,0.002552,-0.039188,-0.631386,-0.774478,0.008487,-0.006935,-0.020306,16.078066,-20.080959,-26.526031,,,,,,,
1504199264.198168,-0.050763,0.682916,1.711471,-0.000233,-0.034563,-0.000630,-0.039361,-0.631058,-0.774737,0.003747,0.000794,-0.020597,16.078066,-20.080959,-26.526031,,,,,,,
1504199264.208178,-0.050897,0.682754,1.711369,0.021188,-0.025147,-0.002745,-0.039471,-0.630932,-0.774833,0.003155,0.005886,-0.011971,15.853060,-19.857723,-26.153290,,,,,,,
1504199264.218188,-0.051118,0.682921,1.711342,0.043573,-0.027463,-0.002702,-0.039637,-0.631062,-0.774719,0.000589,0.004841,-0.007248,15.853060,-19.857723,-26.153290,,,,,,,
1504199264.228198,-0.051586,0.683286,1.711416,0.059498,-0.037186,-0.002657,-0.039987,-0.631345,-0.774470,-0.003195,0.002637,-0.008656,16.077608,-19.856106,-26.452759,,,,,,,
1504199264.238207,-0.051936,0.683752,1.711380,0.071235,-0.039410,-0.006902,-0.040243,-0.631706,-0.774163,0.000052,0.003700,-0.008339,16.077608,-19.856106,-26.452759,,,,,,,
1504199264.248217,-0.052163,0.684392,1.711304,0.074487,-0.030915,-0.003710,-0.040398,-0.632202,-0.773750,0.003273,0.001281,-0.005211,16.002047,-19.631451,-26.454620,,,,,,,
1504199264.258227,-0.052388,0.685204,1.711286,0.077706,-0.026681,-0.000510,-0.040545,-0.632831,-0.773228,0.002459,-0.001920,-0.000652,16.002047,-19.631451,-26.454620,,,,,,,
1504199264.268237,-0.052564,0.685979,1.711219,0.072295,-0.036225,-0.000503,-0.040655,-0.633431,-0.772731,0.005865,-0.002250,-0.001424,16.302355,-19.705257,-26.378296,,,,,,,
1504199264.278246,-0.052704,0.686608,1.711042,0.057248,-0.049950,-0.000507,-0.040742,-0.633918,-0.772327,0.010591,-0.002420,-0.003628,16.302355,-19.705257,-26.378296,,,,,,,
1504199264.288256,-0.052838,0.686915,1.710743,0.029441,-0.061433,-0.005874,-0.040835,-0.634155,-0.772127,0.013690,0.003143,-0.002256,16.002886,-20.006298,-26.526794,,,,,,,
1504199264.298266,-0.053054,0.686785,1.710409,-0.003652,-0.065417,-0.009129,-0.041007,-0.634054,-0.772201,0.012580,0.006826,-0.004823,16.002886,-20.006298,-26.526794,,,,,,,
1504199264.308276,-0.053327,0.686311,1.710087,-0.029195,-0.059872,-0.013453,-0.041234,-0.633688,-0.772489,0.007695,0.012045,-0.001879,16.152834,-19.856075,-26.302582,,,,,,,
1504199264.318285,-0.053674,0.685699,1.709799,-0.044142,-0.060814,-0.013478,-0.041522,-0.633214,-0.772862,0.004535,0.014149,0.003728,16.152834,-19.856075,-26.302582,,,,,,,
1504199264.328265,-0.053903,0.685227,1.709459,-0.035647,-0.063018,-0.009191,-0.041716,-0.632848,-0.773151,0.009718,0.012411,0.008411,16.152269,-19.631069,-26.304260,,,,,,,
1504199264.338274,-0.054216,0.685019,1.709243,-0.019700,-0.062093,0.003642,-0.041965,-0.632687,-0.773269,0.011264,0.008908,0.012008,16.152269,-19.631069,-26.304260,,,,,,,
1504199264.348284,-0.054628,0.685103,1.709282,0.000563,-0.052684,0.020737,-0.042280,-0.632753,-0.773198,0.010023,0.005251,0.014974,16.302050,-19.630108,-26.453888,,,,,,,
1504199264.358294,-0.055090,0.685402,1.709562,0.023019,-0.037962,0.034625,-0.042627,-0.632985,-0.772990,0.008387,0.004551,0.014033,16.302050,-19.630108,-26.453888,,,,,,,
1504199264.368304,-0.055668,0.685916,1.710147,0.049767,-0.020081,0.048516,-0.043056,-0.633382,-0.772641,0.002910,0.004415,0.012188,16.002657,-19.781750,-26.303497,,,,,,,
1504199264.378313,-0.056228,0.686589,1.710877,0.068094,0.002147,0.046374,-0.043464,-0.633903,-0.772191,-0.002526,0.009193,0.014546,16.002657,-19.781750,-26.303497,,,,,,,
1504199264.388323,-0.056507,0.687242,1.711497,0.075840,0.027672,0.031400,-0.043656,-0.634407,-0.771765,-0.004638,0.018761,0.017935,15.927584,-19.707241,-26.229248,,,,,,,
1504199264.398333,-0.056455,0.687805,1.711906,0.071860,0.051166,0.011072,-0.043596,-0.634842,-0.771411,-0.007673,0.023102,0.016833,15.927584,-19.707241,-26.229248,,,,,,,
1504199264.408343,-0.056252,0.688359,1.712241,0.059225,0.064814,0.004647,-0.043420,-0.635271,-0.771068,-0.011527,0.017092,0.015773,16.078630,-20.081707,-26.151031,,,,,,,
1504199264.418353,-0.056081,0.688920,1.712637,0.043206,0.066002,0.009956,-0.043268,-0.635704,-0.770720,-0.013693,0.005241,0.013594,16.078630,-20.081707,-26.151031,,,,,,,
1504199264.428362,-0.055891,0.689359,1.713093,0.020759,0.067239,0.020591,-0.043106,-0.636043,-0.770449,-0.011322,-0.002980,0.010882,16.228060,-19.856030,-26.152374,,,,,,,
1504199264.438372,-0.055514,0.689639,1.713548,-0.000553,0.076994,0.031211,-0.042806,-0.636259,-0.770287,-0.004497,-0.007952,0.009133,16.228060,-19.856030,-26.152374,,,,,,,
1504199264.448382,-0.054986,0.689684,1.714029,-0.021843,0.086754,0.037561,-0.042397,-0.636293,-0.770281,-0.001044,-0.008940,0.007037,16.077944,-19.856564,-26.227753,,,,,,,
1504199264.458392,-0.054223,0.689368,1.714390,-0.044221,0.090137,0.037516,-0.041821,-0.636049,-0.770514,0.005932,-0.003843,0.003165,16.077944,-19.856564,-26.227753,,,,,,,
1504199264.468401,-0.053449,0.688859,1.714682,-0.051791,0.077414,0.037524,-0.041241,-0.635657,-0.770869,0.009015,-0.003991,-0.002355,16.078096,-19.782009,-26.003296,,,,,,,
1504199264.478411,-0.052814,0.688392,1.714942,-0.050866,0.058230,0.035423,-0.040768,-0.635296,-0.771192,0.009762,-0.007465,-0.003863,16.078096,-19.782009,-26.003296,,,,,,,
1504199264.488421,-0.052337,0.687987,1.715174,-0.043515,0.042191,0.033328,-0.040413,-0.634983,-0.771468,0.010262,-0.008129,-0.004426,15.852831,-19.857418,-26.303314,,,,,,,
1504199264.498431,-0.052006,0.687662,1.715398,-0.035094,0.027207,0.032300,-0.040169,-0.634732,-0.771688,0.010002,-0.006335,-0.003962,15.852831,-19.857418,-26.303314,,,,,,,
1504199264.508440,-0.051787,0.687246,1.715670,-0.032975,0.026124,0.033372,-0.040013,-0.634411,-0.771960,0.008031,-0.002140,-0.007840,15.928209,-20.007092,-26.302002,,,,,,,
1504199264.518450,-0.051700,0.686739,1.716062,-0.031883,0.031440,0.036566,-0.039962,-0.634019,-0.772284,0.002243,0.001344,-0.010766,15.928209,-20.007092,-26.302002,,,,,,,
1504199264.528460,-0.051605,0.686211,1.716540,-0.029668,0.043140,0.038685,-0.039907,-0.633610,-0.772623,-0.001368,0.003743,-0.010718,16.078630,-20.081707,-26.151031,,,,,,,
1504199264.538470,-0.051473,0.685717,1.717076,-0.023216,0.051608,0.041883,-0.039821,-0.633228,-0.772940,-0.001790,0.004597,-0.011530,16.078630,-20.081707,-26.151031,,,,,,,
1504199264.548479,-0.051328,0.685357,1.717665,-0.002930,0.055698,0.045114,-0.039720,-0.632949,-0.773174,-0.002394,0.003768,-0.015370,15.852831,-19.857418,-26.303314,,,,,,,
1504199264.558489,-0.051129,0.685317,1.718300,0.029153,0.066088,0.046219,-0.039567,-0.632919,-0.773207,-0.002211,0.004958,-0.011919,15.852831,-19.857418,-26.303314,,,,,,,
1504199264.568468,-0.050817,0.685649,1.718959,0.062349,0.080733,0.045184,-0.039316,-0.633176,-0.773009,-0.002448,0.008267,-0.004884,16.153551,-20.006527,-26.076447,,,,,,,
1504199264.578478,-0.050454,0.686234,1.719649,0.088103,0.095444,0.038799,-0.039017,-0.633628,-0.772653,-0.006989,0.012840,-0.001059,16.153551,-20.006527,-26.076447,,,,,,,
1504199264.588488,-0.049877,0.687027,1.720302,0.110641,0.112306,0.038809,-0.038546,-0.634241,-0.772174,-0.006132,0.012308,-0.004514,16.378664,-20.005657,-26.000885,,,,,,,
1504199264.598498,-0.049107,0.688052,1.721011,0.128932,0.135590,0.045205,-0.037919,-0.635034,-0.771553,-0.005111,0.009347,-0.005470,16.378664,-20.005657,-26.000885,,,,,,,
1504199264.608508,-0.048211,0.689289,1.721807,0.144995,0.147171,0.051617,-0.037190,-0.635989,-0.770802,-0.004314,0.007006,-0.004253,16.304644,-20.306301,-25.848816,,,,,,,
1504199264.618517,-0.047246,0.690614,1.722639,0.156761,0.152399,0.053764,-0.036407,-0.637010,-0.769995,-0.003175,0.007570,-0.007059,16.304644,-20.306301,-25.848816,,,,,,,
1504199264.628527,-0.046267,0.692037,1.723514,0.168543,0.159758,0.055907,-0.035611,-0.638107,-0.769124,-0.003909,0.007690,-0.009013,16.229753,-20.306789,-25.773987,,,,,,,
1504199264.638537,-0.045417,0.693556,1.724476,0.178150,0.158614,0.052724,-0.034913,-0.639276,-0.768184,-0.009826,0.009302,-0.006901,16.229753,-20.306789,-25.773987,,,,,,,
1504199264.648547,-0.044674,0.695126,1.725386,0.187652,0.143619,0.048499,-0.034297,-0.640482,-0.767207,-0.010411,0.008570,-0.012014,16.079836,-20.382305,-25.848816,,,,,,,
1504199264.658556,-0.043554,0.697154,1.726154,0.236964,0.170921,0.045335,-0.033381,-0.642038,-0.765946,-0.003988,0.005228,-0.008728,16.079836,-20.382305,-25.848816,,,,,,,
1504199264.668566,-0.042212,0.700385,1.726877,0.241369,0.185807,0.043181,-0.032265,-0.644512,-0.763913,0.000832,-0.003895,0.060345,16.305056,-20.157345,-25.324921,,,,,,,
1504199264.678576,-0.041062,0.703126,1.727393,0.207832,0.120030,0.031496,-0.031315,-0.646605,-0.762182,0.004795,-0.013414,0.028783,16.305056,-20.157345,-25.324921,,,,,,,
1504199264.688586,-0.040212,0.704378,1.727239,0.131337,0.010936,0.004868,-0.030634,-0.647560,-0.761398,0.023813,0.004875,-0.018280,16.305880,-20.532192,-25.397095,,,,,,,
1504199264.698595,-0.040752,0.705081,1.727172,0.052829,-0.076846,-0.011124,-0.031027,-0.648096,-0.760926,0.024221,0.004511,-0.047026,16.305880,-20.532192,-25.397095,,,,,,,
1504199264.708605,-0.041825,0.705151,1.727078,-0.005163,-0.120064,-0.004744,-0.031841,-0.648149,-0.760848,0.016781,-0.006133,-0.038942,16.531069,-20.606182,-25.395966,,,,,,,
1504199264.718615,-0.042994,0.704842,1.727278,-0.036021,-0.091070,0.025039,-0.032739,-0.647913,-0.761010,0.010400,-0.023000,-0.020484,16.531069,-20.606182,-25.395966,,,,,,,
1504199264.728625,-0.043664,0.704507,1.727917,-0.027994,-0.000594,0.057983,-0.033259,-0.647658,-0.761205,0.010920,-0.023256,-0.020289,16.456453,-20.756527,-25.395020,,,,,,,
1504199264.738635,-0.043407,0.705034,1.728606,-0.017933,0.063251,0.069627,-0.033048,-0.648060,-0.760872,0.012036,-0.039883,0.012413,16.456453,-20.756527,-25.395020,,,,,,,
1504199264.748644,-0.043496,0.704708,1.729286,-0.037397,0.015485,0.045127,-0.033125,-0.647811,-0.761081,0.017408,-0.029374,0.052798,16.305773,-20.532055,-25.472107,,,,,,,
1504199264.758654,-0.044130,0.703967,1.729235,-0.089192,-0.095912,-0.016675,-0.033629,-0.647247,-0.761538,0.004576,-0.004517,0.034579,16.305773,-20.532055,-25.472107,,,,,,,
1504199264.768664,-0.045120,0.702697,1.728297,-0.142906,-0.181717,-0.080661,-0.034419,-0.646278,-0.762326,-0.010472,0.029670,-0.011402,16.155886,-20.532864,-25.397461,,,,,,,
1504199264.778636,-0.046606,0.699688,1.727029,-0.190037,-0.220733,-0.108424,-0.035643,-0.643979,-0.764213,-0.011690,0.053708,-0.026071,16.155886,-20.532864,-25.397461,,,,,,,
1504199264.788645,-0.047957,0.697681,1.725556,-0.210424,-0.229099,-0.098838,-0.036737,-0.642442,-0.765453,-0.016013,0.044084,-0.016499,16.230654,-20.532238,-25.547302,,,,,,,
1504199264.798655,-0.049380,0.695632,1.724400,-0.208283,-0.211031,-0.071114,-0.037891,-0.640871,-0.766713,-0.023617,0.017183,-0.004145,16.230654,-20.532238,-25.547302,,,,,,,
1504199264.808665,-0.050785,0.693723,1.723668,-0.187920,-0.180328,-0.040178,-0.039030,-0.639404,-0.767879,-0.023485,-0.004334,0.009060,16.304308,-20.081600,-25.700500,,,,,,,
1504199264.818644,-0.052555,0.692511,1.723549,-0.156795,-0.146507,-0.022036,-0.040430,-0.638472,-0.768582,-0.016042,-0.016160,0.014295,16.304308,-20.081600,-25.700500,,,,,,,
1504199264.828654,-0.053567,0.691248,1.723259,-0.118130,-0.110602,-0.015628,-0.041251,-0.637499,-0.769346,-0.015390,-0.017057,0.016004,16.079378,-20.157467,-25.775482,,,,,,,
1504199264.838664,-0.054120,0.690395,1.722947,-0.075045,-0.062999,-0.020974,-0.041706,-0.636842,-0.769866,-0.015224,-0.002532,0.014922,16.079378,-20.157467,-25.775482,,,,,,,
1504199264.848673,-0.054166,0.690025,1.722593,-0.025551,-0.014384,-0.026311,-0.041754,-0.636556,-0.770099,-0.020410,0.005865,0.015186,16.080019,-20.457317,-25.848236,,,,,,,
1504199264.858683,-0.054467,0.690253,1.722697,0.020672,0.027855,-0.027369,-0.041978,-0.636732,-0.769942,-0.023818,0.010893,0.023161,16.080019,-20.457317,-25.848236,,,,,,,
1504199264.868693,-0.053876,0.690697,1.722421,0.050654,0.044652,-0.022010,-0.041507,-0.637075,-0.769684,-0.021832,0.011190,0.027191,15.853746,-20.082867,-26.076630,,,,,,,
1504199264.878703,-0.053295,0.691318,1.722269,0.063434,0.047733,-0.012386,-0.041040,-0.637553,-0.769313,-0.014396,0.006343,0.021800,15.853746,-20.082867,-26.076630,,,,,,,
1504199264.888712,-0.052833,0.691930,1.722185,0.061176,0.034960,-0.008098,-0.040663,-0.638024,-0.768942,-0.006776,0.003823,0.008932,16.379305,-20.305508,-26.073639,,,,,,,
1504199264.898722,-0.052629,0.692376,1.722133,0.045022,0.014849,-0.010225,-0.040492,-0.638368,-0.768666,-0.001974,0.003526,-0.000332,16.379305,-20.305508,-26.073639,,,,,,,
1504199264.908732,-0.052511,0.692673,1.721958,0.022496,-0.004140,-0.016635,-0.040391,-0.638597,-0.768481,0.004640,0.006181,-0.006376,16.304110,-20.230846,-26.074371,,,,,,,
1504199264.918742,-0.052516,0.692758,1.721719,0.002114,-0.019953,-0.019845,-0.040392,-0.638662,-0.768427,0.005755,0.008443,-0.011282,16.304110,-20.230846,-26.074371,,,,,,,
1504199264.928752,-0.052608,0.692667,1.721426,-0.013950,-0.029407,-0.023058,-0.040466,-0.638592,-0.768481,0.004379,0.009640,-0.010419,16.303362,-19.930843,-26.076630,,,,,,,
1504199264.938761,-0.052565,0.692190,1.721015,-0.027825,-0.030357,-0.024148,-0.040448,-0.638225,-0.768787,0.003919,0.007976,-0.005871,16.303362,-19.930843,-26.076630,,,,,,,
1504199264.948771,-0.052655,0.691830,1.720648,-0.040651,-0.034511,-0.026298,-0.040530,-0.637947,-0.769013,0.003741,0.006737,-0.002853,16.229006,-20.231045,-26.149536,,,,,,,
1504199264.958781,-0.052667,0.691289,1.720194,-0.047090,-0.039784,-0.027368,-0.040557,-0.637531,-0.769357,0.003951,0.004657,-0.000281,16.229006,-20.231045,-26.149536,,,,,,,
1504199264.968791,-0.052764,0.690705,1.719725,-0.055697,-0.049302,-0.028434,-0.040652,-0.637081,-0.769724,0.003802,0.002361,-0.000844,16.304308,-20.305843,-26.073822,,,,,,,
1504199264.978800,-0.052924,0.690056,1.719190,-0.056815,-0.058876,-0.033757,-0.040796,-0.636580,-0.770130,0.004297,0.003463,-0.001522,16.304308,-20.305843,-26.073822,,,,,,,
1504199264.988810,-0.053072,0.689395,1.718540,-0.055808,-0.069534,-0.039074,-0.040933,-0.636071,-0.770544,0.006967,0.005791,-0.001016,16.079683,-20.456860,-26.073242,,,,,,,
1504199264.998820,-0.053101,0.688809,1.717741,-0.050483,-0.073831,-0.044396,-0.040975,-0.635618,-0.770916,0.011891,0.004026,-0.001194,16.079683,-20.456860,-26.073242,,,,,,,
1504199265.008830,-0.053024,0.688393,1.716827,-0.047194,-0.069582,-0.055073,-0.040929,-0.635297,-0.771183,0.012075,-0.001834,0.000568,16.079653,-20.307308,-25.849365,,,,,,,
1504199265.018839,-0.052982,0.688094,1.715854,-0.048157,-0.065296,-0.068960,-0.040907,-0.635066,-0.771374,0.004912,-0.003743,0.005978,16.079653,-20.307308,-25.849365,,,,,,,
1504199265.028849,-0.052799,0.687716,1.714740,-0.054421,-0.055641,-0.080730,-0.040779,-0.634774,-0.771621,0.004203,0.000588,0.009078,15.853182,-19.857876,-26.078308,,,,,,,
1504199265.038859,-0.052586,0.687249,1.713626,-0.060682,-0.042794,-0.088235,-0.040630,-0.634413,-0.771926,-0.002552,-0.000398,0.006163,15.853182,-19.857876,-26.078308,,,,,,,
1504199265.048869,-0.052308,0.686734,1.712490,-0.072299,-0.032037,-0.094677,-0.040433,-0.634015,-0.772263,-0.005939,-0.001514,0.008393,15.852922,-19.932278,-26.377716,,,,,,,
1504199265.058848,-0.051848,0.686018,1.711214,-0.085040,-0.027665,-0.100044,-0.040100,-0.633461,-0.772735,-0.003143,0.004890,0.011047,15.852922,-19.932278,-26.377716,,,,,,,
1504199265.068858,-0.051191,0.685108,1.709808,-0.087142,-0.025513,-0.103253,-0.039622,-0.632756,-0.773336,0.001582,0.010823,0.007284,16.228960,-20.305737,-26.299011,,,,,,,
1504199265.078868,-0.050428,0.684239,1.708322,-0.087082,-0.021245,-0.108598,-0.039060,-0.632083,-0.773915,0.002546,0.006793,0.005132,16.228960,-20.305737,-26.299011,,,,,,,
1504199265.088877,-0.049443,0.683632,1.706644,-0.083809,-0.019128,-0.119271,-0.038317,-0.631613,-0.774337,0.004198,0.000799,0.009032,16.077837,-19.856411,-26.302765,,,,,,,
1504199265.098887,-0.048642,0.682804,1.704919,-0.091341,-0.035036,-0.132065,-0.037722,-0.630971,-0.774889,0.003603,0.000157,0.009584,16.077837,-19.856411,-26.302765,,,,,,,
1504199265.108897,-0.047651,0.681841,1.702881,-0.111825,-0.061504,-0.132056,-0.036983,-0.630224,-0.775532,0.015559,0.004415,0.009068,16.228395,-20.080730,-26.300690,,,,,,,
1504199265.118907,-0.046775,0.680538,1.700818,-0.142919,-0.077233,-0.126748,-0.036342,-0.629212,-0.776384,0.020396,0.001846,0.001375,16.228395,-20.080730,-26.300690,,,,,,,
1504199265.128916,-0.045935,0.678923,1.698878,-0.171644,-0.061018,-0.117223,-0.035736,-0.627955,-0.777429,0.017899,-0.001790,-0.001609,16.302004,-19.704800,-26.603302,,,,,,,
1504199265.138926,-0.044782,0.677201,1.697126,-0.185155,-0.005510,-0.100268,-0.034888,-0.626614,-0.778548,0.017326,-0.002139,0.004561,16.302004,-19.704800,-26.603302,,,,,,,
1504199265.148936,-0.043350,0.675690,1.695736,-0.183680,0.055204,-0.084363,-0.033814,-0.625436,-0.779543,0.009904,-0.004615,0.019472,16.151217,-19.480175,-26.755371,,,,,,,
1504199265.158946,-0.041947,0.674501,1.694500,-0.181317,0.074380,-0.098269,-0.032751,-0.624507,-0.780332,-0.001398,-0.004170,0.043958,16.151217,-19.480175,-26.755371,,,,,,,
1504199265.168955,-0.040390,0.673414,1.692927,-0.153273,0.080593,-0.148397,-0.031564,-0.623658,-0.781060,-0.013709,0.001481,0.041726,16.301226,-19.479504,-26.755005,,,,,,,
1504199265.178965,-0.038515,0.672365,1.690723,-0.102897,0.075968,-0.201669,-0.030125,-0.622838,-0.781770,-0.017010,0.023473,0.035463,16.301226,-19.479504,-26.755005,,,,,,,
1504199265.188975,-0.035717,0.671642,1.687670,-0.042820,0.091501,-0.243222,-0.027953,-0.622272,-0.782301,0.001784,0.043644,0.037932,16.525652,-19.253490,-26.756134,,,,,,,
1504199265.198985,-0.032411,0.671597,1.684229,0.005598,0.123102,-0.274148,-0.025368,-0.622237,-0.782418,0.000374,0.037413,0.040719,16.525652,-19.253490,-26.756134,,,,,,,
1504199265.208994,-0.028618,0.671992,1.680607,0.033642,0.156978,-0.280564,-0.022393,-0.622546,-0.782262,0.001626,0.036197,0.047567,16.750307,-19.027782,-26.607269,,,,,,,
1504199265.219004,-0.024672,0.672488,1.677143,0.043409,0.185655,-0.267789,-0.019299,-0.622934,-0.782036,0.003552,0.035853,0.039498,16.750307,-19.027782,-26.607269,,,,,,,
1504199265.229014,-0.020617,0.672976,1.673907,0.042445,0.209089,-0.250754,-0.016120,-0.623316,-0.781804,-0.009438,0.024927,0.027700,16.975756,-19.251614,-26.680054,,,,,,,
1504199265.239024,-0.016473,0.673451,1.670831,0.042509,0.225059,-0.237973,-0.012876,-0.623687,-0.781568,-0.012469,0.014953,0.023267,16.975756,-19.251614,-26.680054,,,,,,,
1504199265.249034,-0.012494,0.673993,1.667920,0.030761,0.224088,-0.236923,-0.009762,-0.624111,-0.781275,-0.009297,0.006527,0.021433,16.825686,-19.177441,-26.605957,,,,,,,
1504199265.259043,-0.008426,0.674348,1.664901,0.010569,0.228525,-0.245505,-0.006581,-0.624388,-0.781087,-0.008632,0.004316,0.019093,16.825686,-19.177441,-26.605957,,,,,,,
1504199265.269053,-0.003991,0.674385,1.661523,0.001143,0.233958,-0.272216,-0.003118,-0.624417,-0.781085,-0.010081,0.009488,0.004153,17.201021,-19.176205,-26.380035,,,,,,,
1504199265.279063,0.000814,0.674339,1.657501,-0.007167,0.225563,-0.330922,0.000636,-0.624381,-0.781119,-0.017741,0.011390,0.001746,17.201021,-19.176205,-26.380035,,,,,,,
1504199265.289073,0.006199,0.674289,1.652510,0.000735,0.229843,-0.410971,0.004842,-0.624342,-0.781136,-0.013204,0.020323,-0.000541,17.350451,-18.950527,-26.381348,,,,,,,
1504199265.299082,0.012542,0.673929,1.646489,0.042177,0.287136,-0.500661,0.009800,-0.624061,-0.781314,-0.012180,0.030448,-0.010831,17.350451,-18.950527,-26.381348,,,,,,,
1504199265.309062,0.020638,0.674683,1.639230,0.098818,0.378401,-0.587184,0.016115,-0.624650,-0.780739,-0.023196,0.038865,0.007485,17.649508,-18.574169,-26.383423,,,,,,,
1504199265.319071,0.030241,0.675920,1.630877,0.155303,0.454741,-0.666208,0.023589,-0.625615,-0.779775,-0.045561,0.043294,0.042364,17.649508,-18.574169,-26.383423,,,,,,,
1504199265.329081,0.040829,0.677602,1.621804,0.203855,0.497007,-0.706760,0.031800,-0.626927,-0.778429,-0.053803,0.045307,0.044634,18.249804,-18.422375,-25.933075,,,,,,,
1504199265.339091,0.051587,0.679605,1.612538,0.244379,0.491351,-0.712016,0.040108,-0.628486,-0.776786,-0.060875,0.040030,0.030891,18.249804,-18.422375,-25.933075,,,,,,,
1504199265.349101,0.062141,0.681895,1.603173,0.278248,0.455909,-0.714030,0.048214,-0.630265,-0.774881,-0.066753,0.032212,0.008906,18.775484,-18.645168,-25.855103,,,,,,,
1504199265.359110,0.072519,0.684371,1.593510,0.303677,0.418429,-0.738470,0.056140,-0.632186,-0.772780,-0.065173,0.032180,-0.009599,18.775484,-18.645168,-25.855103,,,,,,,
1504199265.369120,0.082986,0.686942,1.583197,0.321791,0.384233,-0.788546,0.064090,-0.634176,-0.770528,-0.055392,0.039770,-0.018107,19.375856,-18.568218,-25.479156,,,,,,,
1504199265.379130,0.093504,0.689449,1.572193,0.334545,0.346883,-0.838626,0.072042,-0.636112,-0.768226,-0.039434,0.049869,-0.022988,19.375856,-18.568218,-25.479156,,,,,,,
1504199265.389140,0.104100,0.691851,1.560525,0.324832,0.306515,-0.881268,0.080019,-0.637964,-0.765898,-0.031145,0.055734,-0.024874,19.825212,-18.266338,-25.405273,,,,,,,
1504199265.399149,0.114800,0.694008,1.548120,0.315219,0.267230,-0.942057,0.088052,-0.639623,-0.763629,-0.034783,0.056936,-0.027051,19.825212,-18.266338,-25.405273,,,,,,,
1504199265.409159,0.125963,0.695918,1.534572,0.316582,0.243632,-1.034860,0.096417,-0.641090,-0.761385,-0.039837,0.059517,-0.035978,20.125093,-18.040585,-25.106232,,,,,,,
1504199265.419169,0.138054,0.697651,1.519387,0.339600,0.237187,-1.168234,0.105462,-0.642419,-0.759062,-0.044809,0.068963,-0.040758,20.125093,-18.040585,-25.106232,,,,,,,
1504199265.429179,0.151521,0.699432,1.502062,0.378767,0.232768,-1.327201,0.115502,-0.643783,-0.756441,-0.049294,0.081954,-0.032850,20.949785,-17.737484,-24.806458,,,,,,,
1504199265.439189,0.166605,0.701266,1.482442,0.433033,0.245279,-1.491509,0.126702,-0.645185,-0.753447,-0.049325,0.095747,-0.023546,20.949785,-17.737484,-24.806458,,,,,,,
1504199265.449198,0.182985,0.703132,1.460756,0.484824,0.231144,-1.630157,0.138807,-0.646610,-0.750085,-0.045820,0.106129,-0.011405,21.249147,-17.436275,-24.732971,,,,,,,
1504199265.459208,0.200024,0.705056,1.437330,0.545717,0.171085,-1.742023,0.151319,-0.648077,-0.746391,-0.037580,0.114019,-0.007439,21.249147,-17.436275,-24.732971,,,,,,,
1504199265.469218,0.217202,0.706993,1.412578,0.589197,0.090885,-1.817591,0.163847,-0.649550,-0.742454,-0.033186,0.112395,-0.016518,21.923769,-17.058987,-24.359131,,,,,,,
1504199265.479228,0.234242,0.708861,1.386957,0.625162,0.023504,-1.863308,0.176193,-0.650969,-0.738373,-0.011108,0.105361,-0.019882,21.923769,-17.058987,-24.359131,,,,,,,
1504199265.489237,0.251087,0.710717,1.360894,0.665354,-0.025836,-1.871691,0.188304,-0.652378,-0.734129,0.003087,0.091907,-0.021609,22.671450,-16.006069,-24.140137,,,,,,,
1504199265.499247,0.267556,0.712760,1.334754,0.717192,-0.071035,-1.855510,0.200016,-0.653925,-0.729641,0.024456,0.069238,-0.002186,22.671450,-16.006069,-24.140137,,,,,,,
1504199265.509257,0.284070,0.714812,1.308410,0.746074,-0.067001,-1.864007,0.211661,-0.655475,-0.724949,0.010812,0.043842,0.025136,23.494600,-15.177655,-23.994293,,,,,,,
1504199265.519267,0.301902,0.716492,1.281098,0.756789,0.018248,-1.950598,0.224226,-0.656743,-0.720008,-0.031751,0.029805,0.050361,23.494600,-15.177655,-23.994293,,,,,,,
1504199265.529276,0.322233,0.717272,1.251907,0.745822,0.147444,-2.112023,0.238655,-0.657331,-0.714815,-0.057624,0.053144,0.072145,24.169252,-14.725659,-23.471008,,,,,,,
1504199265.539286,0.344849,0.716875,1.220848,0.721628,0.236234,-2.253118,0.254847,-0.657032,-0.709480,-0.052943,0.097798,0.099250,24.169252,-14.725659,-23.471008,,,,,,,
1504199265.549265,0.368037,0.715492,1.188989,0.705723,0.214046,-2.308612,0.271555,-0.655989,-0.704228,-0.009378,0.112532,0.104405,24.318209,-14.125592,-23.175110,,,,,,,
1504199265.559275,0.390217,0.713522,1.157098,0.711157,0.095715,-2.304124,0.287598,-0.654500,-0.699226,-0.000717,0.094335,0.074912,24.318209,-14.125592,-23.175110,,,,,,,
1504199265.569285,0.410454,0.711333,1.125834,0.723483,-0.060027,-2.244053,0.302259,-0.652844,-0.694575,0.001681,0.069546,0.048625,25.366762,-13.371457,-22.878174,,,,,,,
1504199265.579295,0.428328,0.709177,1.095690,0.736701,-0.215812,-2.148757,0.315209,-0.651209,-0.690340,0.029289,0.054926,0.038973,25.366762,-13.371457,-22.878174,,,,,,,
1504199265.589305,0.443925,0.707236,1.066855,0.751102,-0.347115,-2.037491,0.326479,-0.649735,-0.686480,0.037901,0.033982,0.024646,25.663820,-12.244962,-22.960876,,,,,,,
1504199265.599314,0.457493,0.705318,1.039399,0.726351,-0.445049,-1.938092,0.336313,-0.648276,-0.683105,0.028067,0.007178,0.033340,25.663820,-12.244962,-22.960876,,,,,,,
1504199265.609324,0.469603,0.702936,1.013167,0.665841,-0.506412,-1.883652,0.345259,-0.646460,-0.680357,0.003496,-0.011209,0.048277,26.112886,-11.867932,-22.962585,,,,,,,
1504199265.619334,0.480253,0.699744,0.987412,0.598806,-0.628385,-1.901698,0.353436,-0.644022,-0.678468,-0.010678,-0.006689,0.067628,26.112886,-11.867932,-22.962585,,,,,,,
1504199265.629344,0.488685,0.694845,0.962628,0.357439,-0.790502,-1.899696,0.360621,-0.640266,-0.678241,0.004262,0.015175,0.094303,26.185701,-11.042447,-23.043579,,,,,,,
1504199265.639353,0.493463,0.686009,0.941739,-0.133450,-0.879260,-1.808594,0.366523,-0.633454,-0.681467,0.030450,0.015183,0.120706,26.185701,-11.042447,-23.043579,,,,,,,
1504199265.649363,0.493737,0.674435,0.925200,-0.502744,-1.047972,-1.624275,0.370160,-0.624456,-0.687776,0.045184,0.006231,0.161821,26.182268,-9.991391,-23.576447,,,,,,,
1504199265.659373,0.491228,0.663352,0.913369,-0.406632,-0.906413,-1.200600,0.371675,-0.615761,-0.694763,0.043974,-0.052848,0.197067,26.182268,-9.991391,-23.576447,,,,,,,
1504199265.669383,0.487190,0.658860,0.903429,0.018593,-0.980667,-0.794119,0.370158,-0.612216,-0.698695,0.051671,-0.044507,0.215510,26.105165,-9.465680,-24.105621,,,,,,,
1504199265.679392,0.483095,0.654339,0.900562,-0.417184,-0.453334,-0.283451,0.368576,-0.608635,-0.702649,0.084900,0.137352,0.088758,26.105165,-9.465680,-24.105621,,,,,,,
1504199265.689402,0.479332,0.650186,0.902722,-0.379128,-0.188606,-0.002058,0.367091,-0.605335,-0.706267,0.095006,-0.224743,0.052291,25.653734,-9.166806,-24.558960,,,,,,,
1504199265.699412,0.476568,0.649704,0.903326,0.009694,-0.254696,0.014744,0.365271,-0.604951,-0.707539,0.140710,-0.353454,0.175755,25.653734,-9.166806,-24.558960,,,,,,,
1504199265.709422,0.475873,0.650462,0.902048,0.139461,-0.102211,-0.088838,0.364570,-0.605554,-0.707385,0.118112,-0.121665,0.167636,25.653170,-9.166059,-24.933960,,,,,,,
1504199265.719431,0.477417,0.651503,0.898860,0.235578,-0.028292,-0.203014,0.365371,-0.606382,-0.706261,0.034668,0.064115,0.137291,25.653170,-9.166059,-24.933960,,,,,,,
1504199265.729441,0.479881,0.653382,0.894172,0.372237,-0.047482,-0.251844,0.366584,-0.607875,-0.704346,-0.069267,0.185924,0.134446,25.653124,-9.240766,-25.083405,,,,,,,
1504199265.739451,0.482314,0.656125,0.888678,0.462499,-0.106823,-0.261190,0.367521,-0.610051,-0.701973,-0.124952,0.203420,0.049247,25.653124,-9.240766,-25.083405,,,,,,,
1504199265.749461,0.484468,0.659226,0.882117,0.535628,-0.219228,-0.343055,0.368150,-0.612505,-0.699502,-0.068773,0.220263,-0.008185,25.653246,-9.240903,-25.008423,,,,,,,
1504199265.759471,0.485767,0.662215,0.873284,0.601640,-0.474277,-0.510073,0.368202,-0.614865,-0.697401,-0.014747,0.227551,-0.027437,25.653246,-9.240903,-25.008423,,,,,,,
1504199265.769480,0.484173,0.664798,0.863172,0.593318,-0.908871,-0.607522,0.366349,-0.616900,-0.696579,0.018233,0.186465,-0.027023,25.428926,-9.467069,-24.932281,,,,,,,
1504199265.779498,0.479497,0.666928,0.850921,0.651777,-1.336437,-0.820147,0.362481,-0.618575,-0.697117,0.015174,0.126266,-0.036388,25.428926,-9.467069,-24.932281,,,,,,,
1504199265.789508,0.470656,0.668375,0.836903,0.623419,-1.881678,-0.928110,0.355897,-0.619711,-0.699496,0.061797,0.112005,-0.027982,25.203127,-9.467038,-25.457825,,,,,,,
1504199265.799487,0.457453,0.669531,0.822731,0.592493,-2.298043,-0.956249,0.346315,-0.620618,-0.703490,0.147246,-0.069598,0.015106,25.203127,-9.467038,-25.457825,,,,,,,
1504199265.809497,0.441866,0.670285,0.807542,0.584699,-2.547204,-1.076439,0.335108,-0.621210,-0.708379,0.099341,-0.247092,0.051626,24.150133,-8.944516,-26.589386,,,,,,,
1504199265.819507,0.426501,0.670508,0.789870,0.611698,-2.649486,-1.305704,0.324127,-0.621384,-0.713318,0.102829,-0.329879,0.119218,24.150133,-8.944516,-26.589386,,,,,,,
1504199265.829516,0.412926,0.670104,0.769161,0.622751,-2.626934,-1.560833,0.314515,-0.621067,-0.717883,0.104308,-0.356396,0.199679,22.948183,-8.797818,-27.643524,,,,,,,
1504199265.839526,0.402001,0.668911,0.745774,0.613056,-2.509408,-1.782010,0.306943,-0.620132,-0.721957,0.097903,-0.353150,0.258060,22.948183,-8.797818,-27.643524,,,,,,,
1504199265.849536,0.393936,0.667144,0.720466,0.606733,-2.323790,-1.928582,0.301531,-0.618745,-0.725420,0.067549,-0.336684,0.259508,22.270998,-8.424207,-28.472992,,,,,,,
1504199265.859546,0.388541,0.665577,0.694212,0.659901,-2.104672,-1.969438,0.297979,-0.617513,-0.727933,0.005213,-0.338450,0.243619,22.270998,-8.424207,-28.472992,,,,,,,
1504199265.869555,0.385583,0.665349,0.667832,0.800218,-1.864000,-1.907709,0.295878,-0.617334,-0.728941,-0.056925,-0.346320,0.231428,21.067781,-7.677793,-29.381622,,,,,,,
1504199265.879565,0.384814,0.666967,0.641742,0.957423,-1.627762,-1.816057,0.294942,-0.618605,-0.728242,-0.109990,-0.375764,0.230683,21.067781,-7.677793,-29.381622,,,,,,,
1504199265.889575,0.386189,0.670167,0.615805,1.091068,-1.419007,-1.751082,0.295196,-0.621117,-0.725998,-0.145568,-0.370857,0.216141,20.391878,-7.679639,-29.983276,,,,,,,
1504199265.899585,0.389329,0.674369,0.589971,1.164672,-1.253436,-1.696809,0.296481,-0.624404,-0.722647,-0.163622,-0.310120,0.190130,20.391878,-7.679639,-29.983276,,,,,,,
1504199265.909595,0.393623,0.678872,0.564490,1.171761,-1.139522,-1.652167,0.298500,-0.627915,-0.718763,-0.167915,-0.238692,0.150633,19.716875,-7.682675,-29.984924,,,,,,,
1504199265.919604,0.398419,0.683233,0.539543,1.136820,-1.077477,-1.606438,0.300878,-0.631303,-0.714793,-0.151220,-0.174742,0.108363,19.716875,-7.682675,-29.984924,,,,,,,
1504199265.929614,0.403122,0.687111,0.515363,1.069532,-1.057789,-1.560691,0.303274,-0.634306,-0.711112,-0.133764,-0.138063,0.075721,19.491213,-7.682782,-30.435486,,,,,,,
1504199265.939624,0.407154,0.690334,0.491866,0.990076,-1.104049,-1.534062,0.305328,-0.636795,-0.708002,-0.116561,-0.113465,0.054514,19.491213,-7.682782,-30.435486,,,,,,,
1504199265.949634,0.410195,0.692790,0.468778,0.914685,-1.192937,-1.535104,0.306854,-0.638686,-0.705634,-0.095947,-0.081284,0.039665,19.415529,-7.682218,-30.885712,,,,,,,
1504199265.959643,0.412132,0.694475,0.445706,0.845614,-1.310618,-1.565971,0.307789,-0.639982,-0.704052,-0.065968,-0.042971,0.031475,19.415529,-7.682218,-30.885712,,,,,,,
1504199265.969653,0.413037,0.695308,0.422185,0.786201,-1.450706,-1.643747,0.308212,-0.640622,-0.703284,-0.039382,-0.001056,0.031867,18.664858,-7.460446,-30.964233,,,,,,,
1504199265.979663,0.412897,0.695153,0.397791,0.720273,-1.619488,-1.744967,0.308153,-0.640503,-0.703418,-0.015459,0.041153,0.035373,18.664858,-7.460446,-30.964233,,,,,,,
1504199265.989673,0.411430,0.693957,0.372762,0.641430,-1.790315,-1.826992,0.307428,-0.639584,-0.704571,-0.006616,0.078152,0.031674,18.138994,-7.162656,-31.042816,,,,,,,
1504199265.999682,0.408594,0.691838,0.347349,0.567985,-1.942025,-1.890896,0.305966,-0.637954,-0.706682,-0.003827,0.106246,0.022265,18.138994,-7.162656,-31.042816,,,,,,,
1504199266.009692,0.404539,0.689027,0.321607,0.513843,-2.074723,-1.944126,0.303802,-0.635786,-0.709563,-0.004898,0.113890,0.022536,17.088137,-7.315732,-31.869263,,,,,,,
1504199266.019702,0.399542,0.685822,0.295647,0.483403,-2.166080,-1.977107,0.301044,-0.633310,-0.712946,-0.014484,0.108301,0.031687,17.088137,-7.315732,-31.869263,,,,,,,
1504199266.029712,0.394132,0.682555,0.269528,0.483283,-2.191635,-1.994141,0.297976,-0.630778,-0.716470,-0.027163,0.104258,0.043298,15.886370,-6.795529,-32.176178,,,,,,,
1504199266.039721,0.388973,0.679653,0.243204,0.521969,-2.161045,-2.000532,0.294968,-0.628523,-0.719689,-0.036026,0.110747,0.057198,15.886370,-6.795529,-32.176178,,,,,,,
1504199266.049701,0.384602,0.677359,0.216652,0.583424,-2.078439,-1.996301,0.292360,-0.626737,-0.722306,-0.050600,0.115308,0.077058,14.835482,-6.799054,-32.778809,,,,,,,
1504199266.059710,0.381403,0.676058,0.190082,0.678143,-1.948194,-1.953671,0.290351,-0.625723,-0.723994,-0.077185,0.120535,0.091013,14.835482,-6.799054,-32.778809,,,,,,,
1504199266.069720,0.379611,0.676116,0.163825,0.797578,-1.776627,-1.880116,0.289040,-0.625768,-0.724479,-0.110939,0.135198,0.099540,13.858828,-6.277982,-33.010132,,,,,,,
1504199266.079730,0.379374,0.677676,0.137861,0.924471,-1.602996,-1.801214,0.288506,-0.626984,-0.723640,-0.135277,0.135666,0.109001,13.858828,-6.277982,-33.010132,,,,,,,
1504199266.089740,0.380788,0.680727,0.112338,1.050343,-1.412326,-1.704199,0.288816,-0.629358,-0.721452,-0.156294,0.138041,0.108262,12.809099,-6.656812,-33.459900,,,,,,,
