timestamp(unix),attitude_roll(radians),attitude_pitch(radians),attitude_yaw(radians),rotation_rate_x(radians/s),rotation_rate_y(radians/s),rotation_rate_z(radians/s),gravity_x(G),gravity_y(G),gravity_z(G),user_acc_x(G),user_acc_y(G),user_acc_z(G),magnetic_field_x(microteslas),magnetic_field_y(microteslas),magnetic_field_z(microteslas),latitude(degree),longitude(degree),altitude(meter),speed(m/s),course(degree),timestamp(unix),User Mark
1504198043.813131,0.012646,0.420748,0.493729,-0.045266,0.059070,0.030475,0.011543,-0.408443,-0.912711,-0.027213,0.044292,-0.011865,13.553820,-2.983655,-30.860596,,,,,,,
1504198043.823140,0.012333,0.419731,0.494259,-0.026411,0.017350,0.031651,0.011263,-0.407515,-0.913129,-0.022981,0.039671,-0.010379,13.553820,-2.983655,-30.860596,,,,,,,
1504198043.833150,0.011633,0.418972,0.494781,-0.003293,-0.024406,0.033902,0.010626,-0.406821,-0.913446,-0.020254,0.037376,-0.010367,13.478624,-2.908994,-30.861359,,,,,,,
1504198043.843160,0.010599,0.418411,0.495290,0.015647,-0.057598,0.031861,0.009684,-0.406309,-0.913684,-0.019557,0.037459,-0.008923,13.478624,-2.908994,-30.861359,,,,,,,
1504198043.853133,0.009370,0.418012,0.495716,0.021947,-0.075759,0.021232,0.008563,-0.405944,-0.913858,-0.019717,0.036010,-0.005545,13.703295,-2.683270,-30.712494,,,,,,,
1504198043.863142,0.008145,0.417543,0.495987,0.014530,-0.076754,0.007346,0.007445,-0.405516,-0.914058,-0.020201,0.035765,-0.009007,13.703295,-2.683270,-30.712494,,,,,,,
1504198043.873152,0.007081,0.417011,0.496155,0.008285,-0.060716,-0.000163,0.006474,-0.405030,-0.914281,-0.020512,0.034836,-0.010463,13.328554,-2.610562,-30.413940,,,,,,,
1504198043.883162,0.006136,0.416525,0.496379,0.003096,-0.039370,0.002994,0.005611,-0.404585,-0.914483,-0.023495,0.030577,-0.007483,13.328554,-2.610562,-30.413940,,,,,,,
1504198043.893172,0.005366,0.416020,0.496686,0.000001,-0.019113,0.012560,0.004908,-0.404123,-0.914691,-0.023753,0.029718,-0.006329,13.328295,-2.684964,-30.713409,,,,,,,
1504198043.903181,0.004815,0.415494,0.497086,0.000110,0.002182,0.023198,0.004405,-0.403642,-0.914907,-0.021511,0.030168,-0.007747,13.328295,-2.684964,-30.713409,,,,,,,
1504198043.913191,0.004437,0.414888,0.497537,-0.006193,0.018209,0.027430,0.004061,-0.403088,-0.915152,-0.019793,0.033413,-0.005182,13.252993,-2.610150,-30.789154,,,,,,,
1504198043.923201,0.004221,0.414122,0.497933,-0.021153,0.015134,0.025277,0.003864,-0.402386,-0.915462,-0.014744,0.033124,-0.008214,13.252993,-2.610150,-30.789154,,,,,,,
1504198043.933211,0.004041,0.413060,0.498254,-0.041416,0.012109,0.016712,0.003701,-0.401414,-0.915889,-0.013925,0.036546,-0.013432,13.253374,-2.760144,-30.788025,,,,,,,
1504198043.943221,0.004013,0.411829,0.498385,-0.047804,0.008973,0.007103,0.003677,-0.400286,-0.916383,-0.007507,0.038546,-0.015609,13.253374,-2.760144,-30.788025,,,,,,,
1504198043.953230,0.003977,0.410649,0.498538,-0.043561,0.011061,0.013515,0.003646,-0.399204,-0.916855,-0.007125,0.037708,-0.012024,13.477465,-2.533689,-31.014160,,,,,,,
1504198043.963240,0.003741,0.409571,0.498861,-0.034101,0.002442,0.026359,0.003432,-0.398216,-0.917285,-0.011687,0.038765,-0.010693,13.477465,-2.533689,-31.014160,,,,,,,
1504198043.973250,0.003284,0.408579,0.499331,-0.018259,-0.010489,0.036019,0.003013,-0.397305,-0.917682,-0.014534,0.042935,-0.010602,13.328295,-2.684964,-30.713409,,,,,,,
1504198043.983260,0.002717,0.407816,0.499875,-0.000274,-0.022372,0.045681,0.002495,-0.396605,-0.917986,-0.010948,0.039092,-0.011671,13.328295,-2.684964,-30.713409,,,,,,,
1504198043.993269,0.001962,0.407255,0.500535,0.017770,-0.028924,0.052131,0.001801,-0.396090,-0.918210,-0.014634,0.038821,-0.009753,13.478746,-2.909131,-30.786346,,,,,,,
1504198044.003279,0.001109,0.406756,0.501196,0.026312,-0.030059,0.046813,0.001018,-0.395632,-0.918408,-0.018276,0.041995,-0.010913,13.478746,-2.909131,-30.786346,,,,,,,
1504198044.013289,0.000301,0.406327,0.501799,0.029616,-0.020493,0.039333,0.000277,-0.395238,-0.918579,-0.020205,0.039662,-0.012757,13.327990,-2.609815,-30.788971,,,,,,,
1504198044.023299,-0.000419,0.405962,0.502382,0.029746,-0.005577,0.035039,-0.000385,-0.394903,-0.918723,-0.023190,0.036703,-0.011514,13.327990,-2.609815,-30.788971,,,,,,,
1504198044.033308,-0.001025,0.405613,0.502946,0.022399,0.009398,0.032866,-0.000942,-0.394582,-0.918860,-0.026203,0.033651,-0.009561,13.403292,-2.908872,-31.086548,,,,,,,
1504198044.043318,-0.001513,0.405228,0.503475,0.011833,0.020141,0.027492,-0.001390,-0.394229,-0.919011,-0.026823,0.030184,-0.009501,13.403292,-2.908872,-31.086548,,,,,,,
1504198044.053328,-0.001856,0.404715,0.503948,-0.005147,0.029870,0.023177,-0.001706,-0.393757,-0.919213,-0.025820,0.029087,-0.008765,13.553820,-2.759397,-30.487274,,,,,,,
1504198044.063338,-0.002096,0.404127,0.504383,-0.012594,0.034187,0.024225,-0.001927,-0.393216,-0.919444,-0.023555,0.026456,-0.009114,13.553820,-2.759397,-30.487274,,,,,,,
1504198044.073348,-0.002287,0.403536,0.504838,-0.016818,0.040610,0.024207,-0.002103,-0.392673,-0.919676,-0.024417,0.025821,-0.005007,13.328859,-2.909955,-30.711731,,,,,,,
1504198044.083357,-0.002525,0.402897,0.505297,-0.022211,0.034255,0.024209,-0.002323,-0.392085,-0.919926,-0.024884,0.026637,-0.002941,13.328859,-2.909955,-30.711731,,,,,,,
1504198044.093367,-0.002829,0.402216,0.505718,-0.023376,0.021474,0.022096,-0.002603,-0.391459,-0.920192,-0.022711,0.026377,-0.005879,13.703295,-2.683270,-30.712494,,,,,,,
1504198044.103377,-0.003203,0.401477,0.506111,-0.021325,0.010798,0.019985,-0.002948,-0.390779,-0.920480,-0.021634,0.027803,-0.009986,13.703295,-2.683270,-30.712494,,,,,,,
1504198044.113387,-0.003673,0.400824,0.506452,-0.011790,0.000064,0.014684,-0.003381,-0.390177,-0.920734,-0.021734,0.029902,-0.007092,13.328783,-3.059369,-31.010590,,,,,,,
1504198044.123396,-0.004179,0.400371,0.506731,0.010551,-0.009710,0.010472,-0.003848,-0.389760,-0.920908,-0.020169,0.030538,-0.003210,13.328783,-3.059369,-31.010590,,,,,,,
1504198044.133406,-0.004758,0.400136,0.506967,0.026489,-0.018369,0.008381,-0.004382,-0.389543,-0.920998,-0.018918,0.030092,0.000313,13.477465,-2.533689,-31.014160,,,,,,,
1504198044.143416,-0.005426,0.400052,0.507223,0.037063,-0.028053,0.010553,-0.004998,-0.389467,-0.921027,-0.018196,0.028688,0.002127,13.477465,-2.533689,-31.014160,,,,,,,
1504198044.153426,-0.006127,0.400041,0.507481,0.035942,-0.033377,0.011629,-0.005643,-0.389457,-0.921028,-0.016833,0.025046,0.000984,13.328402,-2.909360,-31.011719,,,,,,,
1504198044.163435,-0.006856,0.399998,0.507761,0.030560,-0.036536,0.014828,-0.006315,-0.389416,-0.921040,-0.015811,0.023312,0.000905,13.328402,-2.909360,-31.011719,,,,,,,
1504198044.173445,-0.007505,0.399805,0.507989,0.010393,-0.026777,0.008372,-0.006913,-0.389239,-0.921111,-0.016188,0.022631,0.000930,13.628359,-2.758466,-30.787109,,,,,,,
1504198044.183455,-0.008000,0.399410,0.508149,-0.010860,-0.018076,0.004051,-0.007370,-0.388875,-0.921261,-0.014526,0.021428,0.000058,13.628359,-2.758466,-30.787109,,,,,,,
1504198044.193465,-0.008438,0.398864,0.508272,-0.027893,-0.014739,0.000814,-0.007775,-0.388372,-0.921470,-0.014548,0.019796,0.000663,13.554125,-3.058805,-30.785034,,,,,,,
1504198044.203474,-0.008862,0.398200,0.508406,-0.038538,-0.010393,0.001856,-0.008168,-0.387760,-0.921724,-0.015406,0.020038,0.002031,13.554125,-3.058805,-30.785034,,,,,,,
1504198044.213484,-0.009228,0.397448,0.508522,-0.044914,-0.007147,0.000773,-0.008509,-0.387066,-0.922013,-0.014730,0.021817,0.003830,13.628176,-2.907712,-31.160980,,,,,,,
1504198044.223494,-0.009552,0.396699,0.508624,-0.041701,-0.005045,0.000776,-0.008810,-0.386376,-0.922299,-0.013834,0.022469,0.005231,13.628176,-2.907712,-31.160980,,,,,,,
1504198044.233504,-0.009852,0.395992,0.508735,-0.038502,-0.004010,0.001848,-0.009089,-0.385723,-0.922570,-0.013417,0.021817,0.005928,13.628069,-2.907559,-31.235992,,,,,,,
1504198044.243514,-0.010157,0.395258,0.508793,-0.037460,-0.010409,-0.004542,-0.009374,-0.385046,-0.922850,-0.012050,0.023489,0.002287,13.628069,-2.907559,-31.235992,,,,,,,
1504198044.253523,-0.010486,0.394514,0.508762,-0.031096,-0.018981,-0.011986,-0.009680,-0.384360,-0.923133,-0.011240,0.025702,-0.000207,13.328630,-2.909665,-30.861725,,,,,,,
1504198044.263533,-0.010811,0.393732,0.508638,-0.028993,-0.025388,-0.017307,-0.009984,-0.383637,-0.923430,-0.009029,0.028214,-0.002916,13.328630,-2.909665,-30.861725,,,,,,,
1504198044.273543,-0.011161,0.393016,0.508500,-0.026905,-0.029671,-0.016226,-0.010310,-0.382976,-0.923701,-0.007879,0.025554,-0.004995,13.703554,-2.833127,-30.786346,,,,,,,
1504198044.283553,-0.011525,0.392342,0.508451,-0.024691,-0.025393,-0.006648,-0.010649,-0.382353,-0.923955,-0.008211,0.023528,-0.006252,13.703554,-2.833127,-30.786346,,,,,,,
1504198044.293562,-0.011913,0.391644,0.508549,-0.027893,-0.016858,0.006142,-0.011011,-0.381708,-0.924217,-0.010062,0.023371,-0.006294,13.553743,-2.908795,-30.786163,,,,,,,
1504198044.303572,-0.012289,0.390955,0.508799,-0.027895,-0.008349,0.018937,-0.011361,-0.381072,-0.924476,-0.011923,0.022383,-0.008233,13.553743,-2.908795,-30.786163,,,,,,,
1504198044.313582,-0.012640,0.390205,0.509147,-0.028910,0.002307,0.024255,-0.011690,-0.380378,-0.924757,-0.013747,0.024375,-0.009523,13.477846,-2.683682,-31.013031,,,,,,,
1504198044.323561,-0.012941,0.389425,0.509498,-0.028883,0.006566,0.024249,-0.011972,-0.379657,-0.925050,-0.013373,0.026156,-0.010405,13.477846,-2.683682,-31.013031,,,,,,,
1504198044.333571,-0.013132,0.388685,0.509806,-0.023511,0.010783,0.022118,-0.012152,-0.378972,-0.925328,-0.011652,0.025929,-0.010615,13.478029,-2.758695,-31.012482,,,,,,,
1504198044.343581,-0.013317,0.388048,0.510106,-0.021381,0.009699,0.019990,-0.012326,-0.378383,-0.925567,-0.011843,0.023494,-0.006623,13.478029,-2.758695,-31.012482,,,,,,,
1504198044.353590,-0.013568,0.387491,0.510389,-0.020475,-0.008427,0.022160,-0.012562,-0.377866,-0.925775,-0.007702,0.019727,-0.004904,13.253740,-2.910153,-30.786896,,,,,,,
1504198044.363600,-0.014001,0.386992,0.510690,-0.018529,-0.028696,0.026470,-0.012965,-0.377405,-0.925958,-0.005330,0.016641,-0.006354,13.253740,-2.910153,-30.786896,,,,,,,
1504198044.373610,-0.014622,0.386552,0.511011,-0.015460,-0.044706,0.026504,-0.013543,-0.376997,-0.926115,-0.005393,0.015516,-0.004915,13.328035,-2.759366,-31.012848,,,,,,,
1504198044.383620,-0.015321,0.386153,0.511309,-0.004868,-0.056512,0.022275,-0.014192,-0.376628,-0.926256,-0.005080,0.017588,-0.003157,13.328035,-2.759366,-31.012848,,,,,,,
1504198044.393629,-0.016247,0.386179,0.511426,0.023715,-0.096155,0.003182,-0.015050,-0.376652,-0.926233,-0.001872,0.017658,0.014703,13.403261,-2.759320,-30.862671,,,,,,,
1504198044.403639,-0.017441,0.386295,0.511297,0.008443,-0.146098,-0.009565,-0.016155,-0.376759,-0.926171,0.007076,0.013172,0.033058,13.403261,-2.759320,-30.862671,,,,,,,
1504198044.413649,-0.018923,0.386066,0.511219,0.005164,-0.151406,-0.003156,-0.017529,-0.376547,-0.926232,0.001676,0.019323,0.004280,13.403597,-2.984021,-31.010986,,,,,,,
1504198044.423659,-0.020379,0.386001,0.511336,-0.002078,-0.116194,0.007443,-0.018878,-0.376487,-0.926230,-0.007031,0.013877,0.022528,13.403597,-2.984021,-31.010986,,,,,,,
1504198044.433669,-0.021316,0.385723,0.511611,-0.024001,-0.045703,0.023292,-0.019749,-0.376229,-0.926316,-0.010052,0.012307,0.015290,13.478136,-2.758832,-30.937500,,,,,,,
1504198044.443678,-0.021290,0.385277,0.511989,-0.050082,0.037613,0.038044,-0.019728,-0.375815,-0.926485,-0.010072,0.011893,0.015459,13.478136,-2.758832,-30.937500,,,,,,,
1504198044.453688,-0.021176,0.384435,0.512609,-0.068874,0.091040,0.040052,-0.019629,-0.375035,-0.926803,-0.028085,0.009038,-0.004884,13.403597,-2.984021,-31.010986,,,,,,,
1504198044.463698,-0.020805,0.383453,0.513223,-0.085881,0.100763,0.042140,-0.019293,-0.374125,-0.927178,-0.025171,0.006434,-0.007042,13.403597,-2.984021,-31.010986,,,,,,,
1504198044.473708,-0.020474,0.382407,0.513741,-0.090332,0.074162,0.035775,-0.018994,-0.373155,-0.927575,-0.017978,0.004060,-0.009819,13.327959,-2.684506,-30.938416,,,,,,,
1504198044.483717,-0.020340,0.381418,0.514110,-0.081983,0.043201,0.023036,-0.018877,-0.372237,-0.927946,-0.015211,0.002516,-0.012606,13.327959,-2.684506,-30.938416,,,,,,,
1504198044.493727,-0.020307,0.380646,0.514231,-0.060709,0.020670,-0.000370,-0.018853,-0.371521,-0.928233,-0.011146,0.001968,-0.009908,13.328218,-2.834363,-31.012299,,,,,,,
1504198044.503737,-0.020409,0.380183,0.514115,-0.040521,-0.002919,-0.021642,-0.018950,-0.371090,-0.928403,-0.010499,0.000470,-0.002825,13.328218,-2.834363,-31.012299,,,,,,,
1504198044.513747,-0.020708,0.379911,0.513802,-0.021446,-0.029701,-0.038640,-0.019230,-0.370838,-0.928498,-0.011043,0.001301,-0.000075,13.703173,-2.907376,-31.160797,,,,,,,
1504198044.523756,-0.021195,0.379814,0.513423,0.001917,-0.045876,-0.042840,-0.019683,-0.370748,-0.928525,-0.011552,0.002828,-0.003787,13.703173,-2.907376,-31.160797,,,,,,,
1504198044.533766,-0.021747,0.379934,0.513054,0.021116,-0.047101,-0.043872,-0.020194,-0.370859,-0.928470,-0.012826,0.002252,-0.003629,13.328173,-2.684812,-30.788391,,,,,,,
1504198044.543776,-0.022248,0.380162,0.512712,0.029727,-0.035457,-0.040675,-0.020658,-0.371071,-0.928375,-0.013934,0.003975,-0.001053,13.328173,-2.684812,-30.788391,,,,,,,
1504198044.553786,-0.022453,0.380350,0.512389,0.025658,-0.007724,-0.036461,-0.020847,-0.371245,-0.928301,-0.010525,0.004546,-0.003294,13.328478,-2.759961,-30.712860,,,,,,,
1504198044.563795,-0.022339,0.380416,0.512136,0.010996,0.030749,-0.030150,-0.020741,-0.371307,-0.928278,-0.012386,0.003723,-0.005071,13.328478,-2.759961,-30.712860,,,,,,,
1504198044.573805,-0.021911,0.380281,0.511928,-0.012313,0.055441,-0.023829,-0.020344,-0.371182,-0.928337,-0.009502,0.002331,-0.006889,13.328371,-2.759809,-30.787842,,,,,,,
1504198044.583815,-0.021336,0.379891,0.511733,-0.034731,0.056686,-0.019600,-0.019813,-0.370819,-0.928494,-0.005837,0.001907,-0.010318,13.328371,-2.759809,-30.787842,,,,,,,
1504198044.593825,-0.020820,0.379370,0.511533,-0.043443,0.035444,-0.018510,-0.019338,-0.370336,-0.928697,-0.000437,0.000936,-0.013000,13.252916,-2.535291,-30.714722,,,,,,,
1504198044.603835,-0.020482,0.378911,0.511252,-0.026668,-0.001987,-0.019482,-0.019028,-0.369909,-0.928873,0.008286,0.002142,-0.015875,13.252916,-2.535291,-30.714722,,,,,,,
1504198044.613844,-0.020562,0.378801,0.510944,0.015562,-0.057743,-0.019310,-0.019103,-0.369807,-0.928912,0.015075,0.003962,-0.011868,13.477465,-2.533689,-31.014160,,,,,,,
1504198044.623854,-0.021248,0.379137,0.510592,0.064282,-0.110343,-0.031941,-0.019737,-0.370119,-0.928775,0.010399,0.008822,-0.008497,13.477465,-2.533689,-31.014160,,,,,,,
1504198044.633864,-0.022383,0.379956,0.510101,0.123818,-0.147045,-0.048851,-0.020785,-0.370880,-0.928448,0.005847,0.018386,-0.001621,13.327501,-2.683911,-31.238403,,,,,,,
1504198044.643874,-0.023550,0.381257,0.509429,0.171741,-0.165540,-0.061543,-0.021857,-0.372088,-0.927940,0.012473,0.021960,0.002113,13.327501,-2.683911,-31.238403,,,,,,,
1504198044.653883,-0.024928,0.382856,0.508722,0.198377,-0.174275,-0.068952,-0.023121,-0.373571,-0.927313,0.006214,0.023931,0.001074,13.477495,-2.683240,-31.238037,,,,,,,
1504198044.663893,-0.026386,0.384545,0.508023,0.202685,-0.170047,-0.071086,-0.024457,-0.375137,-0.926647,0.000210,0.024505,0.000591,13.477495,-2.683240,-31.238037,,,,,,,
1504198044.673903,-0.027743,0.386111,0.507387,0.189935,-0.156100,-0.060457,-0.025697,-0.376589,-0.926024,0.000688,0.023744,-0.004304,12.877550,-2.611234,-31.090088,,,,,,,
1504198044.683913,-0.029016,0.387588,0.506990,0.172948,-0.130411,-0.037048,-0.026860,-0.377956,-0.925434,-0.001918,0.018307,-0.005963,12.877550,-2.611234,-31.090088,,,,,,,
1504198044.693922,-0.030127,0.388843,0.506908,0.140095,-0.087543,-0.013697,-0.027874,-0.379118,-0.924928,-0.009174,0.014021,-0.004942,12.878038,-2.761380,-31.013947,,,,,,,
1504198044.703932,-0.030904,0.389783,0.507004,0.110539,-0.039364,-0.001024,-0.028581,-0.379988,-0.924550,-0.013060,0.015196,-0.002696,12.878038,-2.761380,-31.013947,,,,,,,
1504198044.713942,-0.031271,0.390445,0.507157,0.083206,0.012006,-0.001161,-0.028913,-0.380600,-0.924288,-0.017947,0.015243,-0.001600,12.953829,-3.210599,-31.235413,,,,,,,
1504198044.723952,-0.031097,0.390886,0.507224,0.058015,0.059105,-0.009826,-0.028747,-0.381008,-0.924125,-0.017365,0.012646,-0.000268,12.953829,-3.210599,-31.235413,,,,,,,
1504198044.733962,-0.030457,0.391188,0.507152,0.040126,0.085897,-0.017376,-0.028152,-0.381287,-0.924028,-0.012284,0.011109,0.002840,12.803484,-2.986569,-31.087463,,,,,,,
1504198044.743971,-0.029743,0.391369,0.507119,0.031446,0.077427,-0.002432,-0.027490,-0.381455,-0.923979,-0.009482,0.011170,0.004774,12.803484,-2.986569,-31.087463,,,,,,,
1504198044.753981,-0.029550,0.391543,0.507520,0.027774,0.043314,0.037117,-0.027310,-0.381615,-0.923918,-0.010669,0.011238,0.008650,12.803606,-2.986722,-31.012451,,,,,,,
1504198044.763991,-0.030009,0.391595,0.507906,0.031869,0.004942,0.009440,-0.027733,-0.381663,-0.923885,-0.024162,0.022929,0.014187,12.803606,-2.986722,-31.012451,,,,,,,
1504198044.774001,-0.030106,0.391825,0.507958,0.036064,-0.007874,0.003066,-0.027820,-0.381876,-0.923795,-0.002545,0.009302,0.001111,13.103563,-3.060071,-31.161133,,,,,,,
1504198044.784010,-0.030047,0.392338,0.507915,0.032570,-0.040880,0.009522,-0.027760,-0.382350,-0.923600,0.022252,-0.003072,0.016847,13.103563,-3.060071,-31.161133,,,,,,,
1504198044.794020,-0.031011,0.392676,0.508005,0.019603,-0.072726,-0.008590,-0.028646,-0.382662,-0.923444,-0.013529,0.004488,0.025358,13.104052,-3.210233,-31.085022,,,,,,,
1504198044.804030,-0.031705,0.392657,0.507797,0.016432,-0.078013,-0.023530,-0.029287,-0.382644,-0.923431,0.000463,0.013916,0.004746,13.104052,-3.210233,-31.085022,,,,,,,
1504198044.814040,-0.032045,0.392855,0.507451,0.026019,-0.075963,-0.017113,-0.029599,-0.382827,-0.923346,0.020078,0.007003,0.010092,13.028368,-2.985410,-31.161896,,,,,,,
1504198044.824049,-0.032628,0.393026,0.507341,0.024028,-0.054640,-0.011816,-0.030135,-0.382986,-0.923263,-0.000047,0.014821,0.021209,13.028368,-2.985410,-31.161896,,,,,,,
1504198044.834059,-0.033111,0.393139,0.507324,0.014633,-0.025798,-0.007613,-0.030579,-0.383090,-0.923205,-0.008651,0.012057,0.017809,12.728823,-3.211621,-31.235962,,,,,,,
1504198044.844069,-0.033078,0.393134,0.507284,-0.009629,0.012757,-0.001319,-0.030549,-0.383086,-0.923208,0.000352,0.001280,0.006414,12.728823,-3.211621,-31.235962,,,,,,,
1504198044.854064,-0.032842,0.392707,0.507392,-0.038102,0.058803,0.004955,-0.030336,-0.382691,-0.923378,-0.011641,0.008378,0.003197,12.803606,-3.210980,-31.385773,,,,,,,
1504198044.864073,-0.032267,0.391906,0.507561,-0.077274,0.098547,0.006953,-0.029816,-0.381951,-0.923702,-0.016815,0.009194,0.005016,12.803606,-3.210980,-31.385773,,,,,,,
1504198044.874083,-0.031301,0.390805,0.507705,-0.117568,0.129778,0.006828,-0.028936,-0.380933,-0.924150,-0.014215,0.001996,0.003373,12.804171,-3.211728,-31.010773,,,,,,,
1504198044.884093,-0.030044,0.389394,0.507782,-0.148338,0.149214,0.003539,-0.027790,-0.379628,-0.924722,-0.011791,-0.002315,0.000589,12.804171,-3.211728,-31.010773,,,,,,,
1504198044.894103,-0.028630,0.387756,0.507767,-0.170670,0.153666,-0.003979,-0.026501,-0.378112,-0.925380,-0.009479,-0.003281,0.000530,12.728380,-2.986768,-31.162628,,,,,,,
1504198044.904082,-0.027143,0.386045,0.507562,-0.180307,0.139908,-0.018915,-0.025142,-0.376528,-0.926064,-0.002980,-0.004789,0.004159,12.728380,-2.986768,-31.162628,,,,,,,
1504198044.914092,-0.025710,0.384354,0.507196,-0.177231,0.117517,-0.029545,-0.023832,-0.374960,-0.926735,0.002347,-0.005914,0.004951,12.953402,-2.911054,-31.012634,,,,,,,
1504198044.924102,-0.024479,0.382789,0.506746,-0.158146,0.097123,-0.038015,-0.022705,-0.373509,-0.927349,0.001678,-0.003993,0.003963,12.953402,-2.911054,-31.012634,,,,,,,
1504198044.934111,-0.023584,0.381457,0.506309,-0.122033,0.075515,-0.040049,-0.021887,-0.372273,-0.927865,-0.005045,0.001042,0.003030,13.103258,-2.984921,-31.236725,,,,,,,
1504198044.944121,-0.022953,0.380465,0.505946,-0.088124,0.051782,-0.031409,-0.021310,-0.371353,-0.928247,-0.005637,0.002471,0.003656,13.103258,-2.984921,-31.236725,,,,,,,
1504198044.954131,-0.022693,0.379719,0.505750,-0.066028,0.021747,-0.017441,-0.021075,-0.370660,-0.928530,-0.006467,0.004281,0.005098,13.028063,-2.910260,-31.237457,,,,,,,
1504198044.964141,-0.022825,0.379055,0.505729,-0.054599,-0.007135,-0.002427,-0.021203,-0.370043,-0.928773,-0.007881,0.005693,0.001176,13.028063,-2.910260,-31.237457,,,,,,,
1504198044.974150,-0.023047,0.378369,0.505807,-0.050408,-0.010378,0.007194,-0.021415,-0.369405,-0.929022,-0.005426,0.006384,-0.008539,13.103441,-2.835675,-30.862854,,,,,,,
1504198044.984160,-0.023115,0.377695,0.505914,-0.044889,0.013019,0.007163,-0.021484,-0.368779,-0.929269,-0.005783,0.007070,-0.014670,13.103441,-2.835675,-30.862854,,,,,,,
1504198044.994170,-0.022899,0.377064,0.506032,-0.039210,0.054531,0.003898,-0.021288,-0.368192,-0.929506,-0.011701,0.009137,-0.011885,13.102694,-2.535672,-30.865112,,,,,,,
1504198045.004180,-0.022364,0.376387,0.506159,-0.042167,0.085455,0.003840,-0.020797,-0.367563,-0.929766,-0.014055,0.013788,-0.006590,13.102694,-2.535672,-30.865112,,,,,,,
1504198045.014189,-0.021617,0.375617,0.506276,-0.049521,0.100431,0.003802,-0.020108,-0.366847,-0.930064,-0.013248,0.015193,-0.007009,13.102922,-2.760221,-31.088409,,,,,,,
1504198045.024199,-0.020948,0.374842,0.506396,-0.050766,0.081254,0.008104,-0.019492,-0.366126,-0.930361,-0.010186,0.011420,-0.012235,13.102922,-2.760221,-31.088409,,,,,,,
1504198045.034209,-0.020457,0.374086,0.506581,-0.044619,0.056682,0.018833,-0.019041,-0.365422,-0.930647,-0.005251,0.010655,-0.017641,13.252840,-2.684705,-31.013580,,,,,,,
1504198045.044219,-0.020186,0.373479,0.506840,-0.036270,0.036361,0.023153,-0.018794,-0.364857,-0.930874,-0.004324,0.007725,-0.014500,13.252840,-2.684705,-31.013580,,,,,,,
1504198045.054228,-0.020247,0.373070,0.507127,-0.021601,0.003206,0.023238,-0.018853,-0.364476,-0.931022,-0.004844,0.006993,-0.006676,13.327425,-2.609067,-31.163971,,,,,,,
1504198045.064238,-0.020396,0.372768,0.507303,0.000740,-0.009757,0.014761,-0.018994,-0.364194,-0.931129,-0.000400,0.011503,-0.009300,13.327425,-2.609067,-31.163971,,,,,,,
1504198045.074248,-0.020397,0.372814,0.507407,0.030711,0.000657,0.011592,-0.018995,-0.364237,-0.931113,0.003690,0.009104,-0.007822,13.327471,-2.534360,-31.014526,,,,,,,
1504198045.084258,-0.020355,0.373148,0.507505,0.055283,0.003654,0.009495,-0.018953,-0.364548,-0.930992,0.002916,0.011979,0.003272,13.327471,-2.534360,-31.014526,,,,,,,
1504198045.094268,-0.020399,0.373592,0.507606,0.060622,0.002547,0.006304,-0.018991,-0.364962,-0.930829,-0.001899,0.014514,0.009198,13.327913,-2.759213,-31.087860,,,,,,,
1504198045.104277,-0.020374,0.374034,0.507652,0.055288,0.001528,0.004162,-0.018964,-0.365374,-0.930668,0.001721,0.010042,0.004856,13.327913,-2.759213,-31.087860,,,,,,,
1504198045.114287,-0.020389,0.374454,0.507713,0.051979,-0.009104,0.008445,-0.018975,-0.365765,-0.930514,0.004525,0.007839,0.001986,13.328035,-2.759366,-31.012848,,,,,,,
1504198045.124297,-0.020550,0.374850,0.507853,0.047597,-0.018666,0.015926,-0.019122,-0.366133,-0.930366,0.003024,0.007017,0.002388,13.328035,-2.759366,-31.012848,,,,,,,
1504198045.134307,-0.020952,0.375299,0.508077,0.048492,-0.036794,0.021297,-0.019492,-0.366551,-0.930194,0.000190,0.003865,0.006030,13.102694,-2.759931,-31.238403,,,,,,,
1504198045.144316,-0.021530,0.375782,0.508316,0.057912,-0.058185,0.023486,-0.020026,-0.367000,-0.930005,0.002722,0.006481,0.005399,13.102694,-2.759931,-31.238403,,,,,,,
1504198045.154326,-0.022388,0.376398,0.508756,0.082102,-0.085051,0.050260,-0.020819,-0.367573,-0.929761,0.006506,0.010335,0.004819,13.102800,-2.760068,-31.163391,,,,,,,
1504198045.164336,-0.023547,0.377060,0.509289,0.103375,-0.098004,0.041781,-0.021891,-0.368188,-0.929494,0.000955,0.023721,0.008183,13.102800,-2.760068,-31.163391,,,,,,,
1504198045.174346,-0.024693,0.377953,0.509647,0.116326,-0.089570,0.024711,-0.022948,-0.369018,-0.929139,-0.005434,0.021179,0.011674,13.103487,-2.985227,-31.086731,,,,,,,
1504198045.184355,-0.025298,0.379033,0.509839,0.122862,-0.072571,0.024692,-0.023500,-0.370022,-0.928726,0.016451,0.011944,0.003356,13.103487,-2.985227,-31.086731,,,,,,,
1504198045.194365,-0.026137,0.379824,0.510142,0.116637,-0.054399,0.017178,-0.024272,-0.370757,-0.928413,-0.008367,0.027145,0.003028,13.628252,-2.758313,-30.862122,,,,,,,
1504198045.204375,-0.026841,0.380741,0.510302,0.118913,-0.044815,0.003290,-0.024916,-0.371608,-0.928055,-0.010073,0.018504,0.002457,13.628252,-2.758313,-30.862122,,,,,,,
1504198045.214385,-0.027113,0.381524,0.510290,0.118024,-0.027748,-0.006347,-0.025161,-0.372336,-0.927757,0.002913,0.027426,0.000908,12.953829,-3.210599,-31.235413,,,,,,,
1504198045.224395,-0.027468,0.382211,0.510321,0.111618,-0.023441,0.000039,-0.025483,-0.372973,-0.927492,-0.006698,0.032244,0.008455,12.953829,-3.210599,-31.235413,,,,,,,
1504198045.234404,-0.027803,0.383209,0.510499,0.083734,-0.029625,0.019215,-0.025783,-0.373899,-0.927111,0.001888,-0.003680,0.001574,13.328707,-3.208768,-31.309479,,,,,,,
1504198045.244414,-0.028291,0.384034,0.510822,0.035856,-0.012185,0.021236,-0.026227,-0.374664,-0.926790,-0.011249,-0.023881,-0.003996,13.328707,-3.208768,-31.309479,,,,,,,
1504198045.254424,-0.028364,0.384350,0.511084,-0.015034,0.025531,0.017879,-0.026291,-0.374956,-0.926670,-0.008682,-0.025388,-0.006253,13.328783,-3.059369,-31.010590,,,,,,,
1504198045.264434,-0.027964,0.384078,0.511321,-0.053131,0.066334,0.020943,-0.025923,-0.374705,-0.926782,-0.005663,-0.012060,0.000680,13.328783,-3.059369,-31.010590,,,,,,,
1504198045.274443,-0.027446,0.383617,0.511660,-0.068970,0.089899,0.026211,-0.025448,-0.374277,-0.926968,-0.013752,-0.009863,0.008404,13.103716,-2.985532,-30.936737,,,,,,,
1504198045.284453,-0.026875,0.383189,0.511996,-0.071035,0.084633,0.025123,-0.024923,-0.373880,-0.927142,-0.010996,-0.014075,0.013247,13.103716,-2.985532,-30.936737,,,,,,,
1504198045.294463,-0.026435,0.382800,0.512251,-0.059449,0.060036,0.016648,-0.024519,-0.373520,-0.927298,-0.009585,-0.010865,0.012610,13.553255,-2.982907,-31.235596,,,,,,,
1504198045.304473,-0.026183,0.382515,0.512389,-0.034075,0.026799,0.010346,-0.024288,-0.373255,-0.927411,-0.003819,-0.004232,0.010525,13.553255,-2.982907,-31.235596,,,,,,,
1504198045.314482,-0.026130,0.382472,0.512419,-0.006551,-0.004323,0.004044,-0.024239,-0.373215,-0.927428,0.003289,-0.001907,0.010741,13.178637,-2.910336,-30.862091,,,,,,,
1504198045.324492,-0.026348,0.382688,0.512430,0.014488,-0.040727,0.006278,-0.024440,-0.373416,-0.927342,0.006709,-0.002164,0.012822,13.178637,-2.910336,-30.862091,,,,,,,
1504198045.334502,-0.026920,0.382999,0.512558,0.021722,-0.064239,0.015939,-0.024966,-0.373704,-0.927212,0.005725,-0.001311,0.012722,13.628862,-3.132871,-31.084320,,,,,,,
1504198045.344512,-0.027715,0.383161,0.512694,0.014254,-0.069497,0.007396,-0.025702,-0.373854,-0.927131,-0.001397,0.004805,0.010872,13.628862,-3.132871,-31.084320,,,,,,,
1504198045.354521,-0.028203,0.383335,0.512633,-0.003702,-0.054417,-0.004404,-0.026152,-0.374015,-0.927054,0.005965,-0.008339,0.006262,13.704042,-3.207532,-31.083557,,,,,,,
1504198045.364531,-0.028276,0.383253,0.512469,-0.024721,-0.018005,-0.009842,-0.026221,-0.373940,-0.927082,0.009634,-0.005806,0.003254,13.704042,-3.207532,-31.083557,,,,,,,
1504198045.374541,-0.028228,0.382801,0.512375,-0.046791,0.022670,-0.012087,-0.026182,-0.373520,-0.927252,-0.007128,0.003632,0.004889,13.403627,-2.909329,-30.861542,,,,,,,
1504198045.384551,-0.027742,0.382163,0.512306,-0.066787,0.061189,-0.005784,-0.025738,-0.372928,-0.927503,-0.003895,0.001834,0.004102,13.403627,-2.909329,-30.861542,,,,,,,
1504198045.394561,-0.026893,0.381358,0.512267,-0.084684,0.093300,-0.002670,-0.024958,-0.372181,-0.927824,-0.002675,-0.001018,0.001280,13.103930,-2.985822,-30.786713,,,,,,,
1504198045.404570,-0.025822,0.380446,0.512164,-0.089840,0.110401,-0.011248,-0.023973,-0.371335,-0.928189,-0.003172,0.001508,0.001401,13.103930,-2.985822,-30.786713,,,,,,,
1504198045.414580,-0.024544,0.379522,0.511926,-0.086558,0.114647,-0.020856,-0.022795,-0.370476,-0.928562,0.001555,0.002449,0.001041,13.253603,-2.984708,-31.011353,,,,,,,
1504198045.424590,-0.023285,0.378652,0.511621,-0.074884,0.104964,-0.024021,-0.021633,-0.369668,-0.928912,0.001873,0.004784,-0.000104,13.253603,-2.984708,-31.011353,,,,,,,
1504198045.434600,-0.022195,0.378033,0.511328,-0.047325,0.084489,-0.020735,-0.020626,-0.369093,-0.929163,0.003872,0.004500,-0.001028,13.252916,-2.759549,-31.088043,,,,,,,
1504198045.444609,-0.021438,0.377679,0.511155,-0.026263,0.056600,-0.009976,-0.019926,-0.368764,-0.929309,0.002958,0.003408,0.001117,13.252916,-2.759549,-31.088043,,,,,,,
1504198045.454619,-0.020973,0.377438,0.511106,-0.016931,0.030936,0.002894,-0.019495,-0.368540,-0.929408,0.004984,0.004770,0.004282,13.553102,-2.833203,-31.086731,,,,,,,
1504198045.464629,-0.020770,0.377249,0.511216,-0.009678,0.012748,0.016815,-0.019308,-0.368364,-0.929481,0.004828,0.003924,-0.000634,13.553102,-2.833203,-31.086731,,,,,,,
1504198045.474639,-0.020734,0.377143,0.511418,-0.002336,0.000960,0.023252,-0.019275,-0.368266,-0.929521,0.004367,0.003322,-0.000625,13.178896,-3.060193,-30.935974,,,,,,,
1504198045.484618,-0.020779,0.377133,0.511622,0.002985,-0.003341,0.018999,-0.019317,-0.368256,-0.929524,0.002792,0.001923,0.003346,13.178896,-3.060193,-30.935974,,,,,,,
1504198045.494628,-0.020779,0.377181,0.511768,0.009472,0.004071,0.013661,-0.019317,-0.368301,-0.929506,0.002212,0.002884,0.003526,13.328402,-2.909360,-31.011719,,,,,,,
1504198045.504637,-0.020619,0.377192,0.511851,0.012817,0.018968,0.008303,-0.019168,-0.368311,-0.929505,0.003024,0.007532,0.002106,13.328402,-2.909360,-31.011719,,,,,,,
1504198045.514647,-0.020284,0.377131,0.511924,0.008759,0.043514,0.005051,-0.018857,-0.368254,-0.929534,-0.000201,0.011290,0.000777,13.403368,-2.983731,-31.160980,,,,,,,
1504198045.524657,-0.019721,0.376973,0.512016,-0.002799,0.068114,0.008190,-0.018335,-0.368108,-0.929602,-0.001852,0.010594,0.001456,13.403368,-2.983731,-31.160980,,,,,,,
1504198045.534667,-0.019007,0.376699,0.512150,-0.012324,0.082039,0.014553,-0.017674,-0.367853,-0.929716,-0.001980,0.010873,-0.000032,13.553026,-2.758359,-31.012299,,,,,,,
1504198045.544676,-0.018331,0.376358,0.512406,-0.017718,0.081007,0.024153,-0.017047,-0.367536,-0.929853,-0.003904,0.010053,-0.000185,13.553026,-2.758359,-31.012299,,,,,,,
1504198045.554686,-0.017756,0.376008,0.512778,-0.026389,0.071475,0.035896,-0.016515,-0.367210,-0.929991,-0.003429,0.007255,0.003768,13.402758,-2.609174,-30.938812,,,,,,,
1504198045.564696,-0.017389,0.375668,0.513307,-0.027679,0.054417,0.053003,-0.016176,-0.366894,-0.930122,-0.002669,0.004147,0.003471,13.402758,-2.609174,-30.938812,,,,,,,
1504198045.574706,-0.017252,0.375399,0.514023,-0.022566,0.037308,0.070120,-0.016050,-0.366643,-0.930223,-0.001101,0.001653,0.003923,13.477846,-2.683682,-31.013031,,,,,,,
1504198045.584716,-0.017308,0.375272,0.514876,-0.011994,0.029753,0.077624,-0.016102,-0.366526,-0.930269,-0.003826,-0.000326,0.005861,13.477846,-2.683682,-31.013031,,,,,,,
1504198045.594725,-0.017459,0.375276,0.515694,-0.001311,0.025411,0.068044,-0.016243,-0.366529,-0.930265,-0.006782,-0.000216,0.008588,13.478777,-2.834439,-30.636902,,,,,,,
1504198045.604735,-0.017602,0.375344,0.516313,0.001938,0.017945,0.046715,-0.016376,-0.366593,-0.930237,-0.006726,0.001160,0.013123,13.478777,-2.834439,-30.636902,,,,,,,
1504198045.614745,-0.017689,0.375403,0.516664,0.003071,0.011566,0.023246,-0.016456,-0.366647,-0.930215,-0.005379,0.002862,0.011651,13.553209,-2.833356,-31.011719,,,,,,,
1504198045.624755,-0.017760,0.375439,0.516822,-0.002208,0.008427,0.007232,-0.016522,-0.366681,-0.930200,-0.006610,0.001797,0.011667,13.553209,-2.833356,-31.011719,,,,,,,
1504198045.634764,-0.017857,0.375480,0.516869,-0.011741,0.009581,-0.004528,-0.016612,-0.366719,-0.930183,-0.010792,-0.003047,0.013512,13.403749,-2.909482,-30.786530,,,,,,,
1504198045.644774,-0.017965,0.375433,0.516861,-0.025564,0.011829,-0.009892,-0.016713,-0.366675,-0.930199,-0.013240,-0.005792,0.012169,13.403749,-2.909482,-30.786530,,,,,,,
1504198045.654784,-0.017982,0.375289,0.516761,-0.036134,0.017251,-0.020593,-0.016730,-0.366541,-0.930251,-0.013940,-0.009237,0.008468,13.328478,-2.984220,-31.086182,,,,,,,
1504198045.664794,-0.017884,0.375156,0.516472,-0.040343,0.014104,-0.036605,-0.016639,-0.366418,-0.930302,-0.010720,-0.012122,0.010990,13.328478,-2.984220,-31.086182,,,,,,,
1504198045.674803,-0.017789,0.375014,0.515994,-0.039379,-0.007204,-0.049375,-0.016552,-0.366285,-0.930355,-0.004719,-0.010256,0.014431,13.478182,-2.684140,-30.788025,,,,,,,
1504198045.684813,-0.017847,0.374787,0.515389,-0.043854,-0.038062,-0.056800,-0.016607,-0.366074,-0.930437,0.001638,-0.007690,0.012743,13.478182,-2.684140,-30.788025,,,,,,,
1504198045.694823,-0.018036,0.374375,0.514620,-0.055667,-0.057128,-0.071731,-0.016786,-0.365691,-0.930585,0.004411,-0.004213,0.005796,13.553926,-2.983808,-30.785583,,,,,,,
1504198045.704833,-0.018051,0.373732,0.513720,-0.058686,-0.038979,-0.079241,-0.016804,-0.365092,-0.930820,0.007404,0.003001,-0.003735,13.553926,-2.983808,-30.785583,,,,,,,
1504198045.714843,-0.017789,0.373068,0.512816,-0.050987,-0.009205,-0.078213,-0.016564,-0.364474,-0.931066,0.005975,0.005465,-0.007487,13.478624,-2.908994,-30.861359,,,,,,,
1504198045.724852,-0.017421,0.372505,0.511999,-0.042355,0.007766,-0.070756,-0.016226,-0.363950,-0.931277,0.001837,0.007276,-0.002118,13.478624,-2.908994,-30.861359,,,,,,,
1504198045.734862,-0.017003,0.371985,0.511365,-0.028553,0.012959,-0.049393,-0.015839,-0.363465,-0.931473,0.003953,0.011628,-0.002716,13.553026,-2.758359,-31.012299,,,,,,,
1504198045.744872,-0.016680,0.371594,0.511049,-0.009544,0.009573,-0.016265,-0.015541,-0.363101,-0.931620,0.006767,0.013735,-0.007100,13.553743,-2.908795,-30.786163,,,,,,,
1504198045.754882,-0.016498,0.371367,0.511051,-0.003265,0.010562,0.009361,-0.015372,-0.362890,-0.931705,0.006064,0.010610,-0.003964,13.553743,-2.908795,-30.786163,,,,,,,
1504198045.764891,-0.016364,0.371215,0.511239,0.000943,0.012645,0.024308,-0.015249,-0.362748,-0.931763,0.005651,0.007829,-0.003830,13.553743,-2.908795,-30.786163,,,,,,,
1504198045.774901,-0.016180,0.371178,0.511515,0.011615,0.017879,0.031789,-0.015078,-0.362713,-0.931779,0.008211,0.005292,-0.004684,13.478289,-2.908536,-31.086365,,,,,,,
1504198045.784911,-0.016038,0.371321,0.511845,0.015939,0.024239,0.030718,-0.014944,-0.362847,-0.931729,0.002112,0.000603,-0.000659,13.478289,-2.908536,-31.086365,,,,,,,
1504198045.794921,-0.015802,0.371411,0.512096,0.004417,0.042462,0.016790,-0.014724,-0.362930,-0.931700,-0.003785,-0.000565,-0.000612,13.403032,-2.759030,-31.012665,,,,,,,
1504198045.804930,-0.015362,0.371271,0.512155,-0.013435,0.065007,-0.004628,-0.014315,-0.362800,-0.931757,-0.009504,0.001609,-0.004889,13.403032,-2.759030,-31.012665,,,,,,,
1504198045.814940,-0.014673,0.370973,0.512227,-0.031393,0.092850,0.003831,-0.013674,-0.362522,-0.931875,-0.009763,-0.001598,-0.008402,13.478029,-2.758695,-31.012482,,,,,,,
1504198045.824950,-0.013924,0.370405,0.512325,-0.057775,0.120781,-0.010138,-0.012979,-0.361993,-0.932090,-0.025000,0.001046,-0.004235,13.478029,-2.758695,-31.012482,,,,,,,
1504198045.834960,-0.012981,0.369862,0.512127,-0.075695,0.128414,-0.041135,-0.012103,-0.361487,-0.932299,-0.027905,-0.012307,-0.001097,13.552721,-2.683194,-31.087860,,,,,,,
1504198045.844969,-0.011560,0.369380,0.511471,-0.078865,0.115679,-0.066736,-0.010780,-0.361037,-0.932489,-0.002495,-0.023134,-0.009756,13.552721,-2.683194,-31.087860,,,,,,,
1504198045.854979,-0.010540,0.368685,0.510576,-0.062032,0.068681,-0.094376,-0.009832,-0.360389,-0.932750,-0.008876,0.001472,0.002529,13.703142,-2.757825,-30.936951,,,,,,,
1504198045.864989,-0.009937,0.368236,0.509452,-0.032564,0.008780,-0.109163,-0.009270,-0.359970,-0.932918,-0.003318,0.004685,0.006053,13.702654,-2.607678,-31.013062,,,,,,,
1504198045.874999,-0.009526,0.368191,0.508159,0.001257,-0.034116,-0.113299,-0.008887,-0.359928,-0.932938,0.011436,0.002034,0.009750,13.702654,-2.607678,-31.013062,,,,,,,
1504198045.885009,-0.009410,0.368534,0.506855,0.029909,-0.055658,-0.116414,-0.008778,-0.360248,-0.932815,0.008839,0.002125,0.019287,13.852343,-2.531857,-31.088257,,,,,,,
1504198045.895018,-0.009579,0.369042,0.505735,0.052065,-0.072911,-0.093931,-0.008934,-0.360722,-0.932630,0.008507,0.008031,0.023405,13.852343,-2.531857,-31.088257,,,,,,,
1504198045.905028,-0.009932,0.369591,0.504833,0.057400,-0.065508,-0.082193,-0.009261,-0.361234,-0.932429,0.001068,0.010419,0.021647,13.703173,-2.683118,-30.787476,,,,,,,
1504198045.915038,-0.010224,0.370166,0.504144,0.042608,-0.035571,-0.063058,-0.009531,-0.361770,-0.932219,-0.006399,0.003051,0.020659,13.703173,-2.683118,-30.787476,,,,,,,
1504198045.925048,-0.010192,0.370268,0.503638,0.010766,-0.003360,-0.045024,-0.009501,-0.361865,-0.932182,-0.002264,0.010272,0.010658,14.153215,-2.830655,-31.010254,,,,,,,
1504198045.935057,-0.010038,0.369971,0.503184,-0.018923,0.016069,-0.051513,-0.009359,-0.361588,-0.932291,-0.011118,0.009263,-0.000738,14.153215,-2.830655,-31.010254,,,,,,,
1504198045.945067,-0.009569,0.369651,0.502579,-0.019962,0.017149,-0.055786,-0.008922,-0.361290,-0.932411,0.003582,0.004158,-0.008355,13.627459,-2.533017,-31.013794,,,,,,,
1504198045.955077,-0.009117,0.369511,0.501825,-0.000805,0.002090,-0.070671,-0.008501,-0.361160,-0.932465,0.005938,0.003631,-0.006133,13.627459,-2.533017,-31.013794,,,,,,,
1504198045.965087,-0.009183,0.369811,0.500913,0.048936,-0.061169,-0.090754,-0.008562,-0.361439,-0.932356,0.000506,0.003224,-0.001543,14.003023,-2.756330,-31.011169,,,,,,,
1504198045.975096,-0.010212,0.370819,0.499766,0.126074,-0.170470,-0.116045,-0.009518,-0.362379,-0.931982,-0.001224,0.002089,-0.006143,14.003023,-2.756330,-31.011169,,,,,,,
1504198045.985106,-0.012263,0.372579,0.498343,0.209621,-0.278757,-0.141326,-0.011421,-0.364018,-0.931322,0.000236,0.006780,-0.010084,13.627382,-2.458158,-30.939392,,,,,,,
1504198045.995116,-0.014922,0.375178,0.496641,0.285050,-0.336891,-0.169913,-0.013883,-0.366438,-0.930339,0.001615,0.007765,-0.008245,13.627382,-2.458158,-30.939392,,,,,,,
1504198046.005126,-0.018017,0.378447,0.494714,0.338135,-0.384192,-0.193220,-0.016741,-0.369478,-0.929089,-0.001112,0.003862,-0.002003,13.627459,-2.533017,-31.013794,,,,,,,
1504198046.015135,-0.021350,0.382213,0.492472,0.384017,-0.406911,-0.230459,-0.019808,-0.372975,-0.927630,-0.006986,0.001912,-0.008604,13.627459,-2.533017,-31.013794,,,,,,,
1504198046.025145,-0.024409,0.386290,0.489755,0.408864,-0.396414,-0.275265,-0.022608,-0.376754,-0.926037,-0.005026,0.002533,-0.011325,13.328371,-2.759809,-30.787842,,,,,,,
1504198046.035155,-0.027229,0.390409,0.486552,0.406810,-0.410209,-0.313670,-0.025177,-0.380567,-0.924411,0.005112,0.004559,-0.011899,13.328371,-2.759809,-30.787842,,,,,,,
1504198046.045165,-0.030282,0.394395,0.483096,0.397007,-0.448468,-0.334968,-0.027953,-0.384250,-0.922806,0.005629,0.009601,-0.022446,13.103365,-2.985074,-31.161713,,,,,,,
1504198046.055144,-0.033638,0.398327,0.479582,0.393608,-0.472949,-0.334931,-0.030998,-0.387877,-0.921190,-0.003227,0.017225,-0.036925,13.103365,-2.985074,-31.161713,,,,,,,
1504198046.065154,-0.036955,0.402253,0.476330,0.402178,-0.449607,-0.305069,-0.033998,-0.391493,-0.919553,0.001863,0.033705,-0.037616,13.028185,-2.910413,-31.162445,,,,,,,
1504198046.075164,-0.039724,0.405918,0.473423,0.401524,-0.377173,-0.273176,-0.036486,-0.394862,-0.918016,0.008776,0.046077,-0.028121,13.028185,-2.910413,-31.162445,,,,,,,
1504198046.085173,-0.041363,0.409381,0.470700,0.396048,-0.250335,-0.257399,-0.037935,-0.398042,-0.916583,0.014589,0.048692,-0.029417,12.504915,-3.513074,-31.009247,,,,,,,
1504198046.095183,-0.041146,0.412439,0.467951,0.357752,-0.093381,-0.244935,-0.037685,-0.400845,-0.915371,0.035518,0.044461,-0.027623,12.504915,-3.513074,-31.009247,,,,,,,
1504198046.105193,-0.039072,0.415319,0.464999,0.294978,0.055278,-0.257051,-0.035741,-0.403482,-0.914289,0.046301,0.016305,-0.029802,12.655626,-3.887097,-31.156067,,,,,,,
1504198046.115203,-0.035688,0.417735,0.461580,0.216855,0.133765,-0.297890,-0.032613,-0.405691,-0.913428,0.050435,-0.002634,-0.023858,12.655626,-3.887097,-31.156067,,,,,,,
1504198046.125212,-0.032030,0.419023,0.457464,0.122072,0.115445,-0.363137,-0.029254,-0.406868,-0.913019,0.045398,0.014061,-0.013648,12.805300,-3.661725,-31.007385,,,,,,,
1504198046.135222,-0.028850,0.419359,0.452826,0.024207,0.106741,-0.436943,-0.026347,-0.407175,-0.912970,0.008906,0.008509,-0.023294,12.805300,-3.661725,-31.007385,,,,,,,
1504198046.145232,-0.025723,0.418941,0.447222,-0.083323,0.073630,-0.536339,-0.023496,-0.406794,-0.913218,0.010221,-0.005835,-0.027685,12.804949,-3.437024,-30.859070,,,,,,,
1504198046.155242,-0.022621,0.417386,0.440486,-0.199477,0.028871,-0.636797,-0.020677,-0.405372,-0.913918,0.007692,-0.018135,0.001015,12.804949,-3.437024,-30.859070,,,,,,,
1504198046.165251,-0.019201,0.414650,0.432705,-0.315318,0.029918,-0.726662,-0.017572,-0.402869,-0.915089,-0.015127,-0.020120,0.017094,12.729158,-3.212064,-31.010956,,,,,,,
1504198046.175261,-0.015209,0.410918,0.424256,-0.413866,0.081932,-0.779227,-0.013943,-0.399451,-0.916649,-0.024372,-0.003091,0.028526,12.729158,-3.212064,-31.010956,,,,,,,
1504198046.185271,-0.010663,0.406043,0.415605,-0.526657,0.115902,-0.785887,-0.009796,-0.394977,-0.918639,-0.027497,0.003757,0.038436,12.878405,-2.911389,-31.012817,,,,,,,
1504198046.195281,-0.007070,0.399813,0.407111,-0.666525,-0.019361,-0.768812,-0.006512,-0.389246,-0.921111,-0.021732,0.001917,0.027129,12.878405,-2.911389,-31.012817,,,,,,,
1504198046.205291,-0.006367,0.391949,0.399008,-0.833497,-0.329179,-0.731196,-0.005884,-0.381990,-0.924148,0.005900,-0.017577,-0.015656,13.102434,-2.610074,-31.164520,,,,,,,
1504198046.215300,-0.009303,0.382298,0.391434,-1.014560,-0.658077,-0.679694,-0.008631,-0.373053,-0.927770,0.037394,-0.041604,-0.080027,13.102434,-2.610074,-31.164520,,,,,,,
1504198046.225310,-0.014832,0.371183,0.384337,-1.147537,-0.848835,-0.635825,-0.013821,-0.362718,-0.931796,0.037182,-0.052397,-0.107434,12.725435,-1.861615,-31.246094,,,,,,,
1504198046.235320,-0.021041,0.359350,0.377501,-1.202144,-0.859065,-0.613486,-0.019696,-0.351665,-0.935919,0.027264,-0.038700,-0.078257,12.725435,-1.861615,-31.246094,,,,,,,
1504198046.245330,-0.026362,0.347567,0.370621,-1.184009,-0.731333,-0.622219,-0.024783,-0.340611,-0.939878,0.020343,-0.012050,0.001447,12.198183,-0.963971,-31.254150,,,,,,,
1504198046.255339,-0.030147,0.336537,0.363341,-1.095155,-0.589227,-0.668214,-0.028452,-0.330220,-0.943475,-0.004065,0.022741,0.068093,12.198183,-0.963971,-31.254150,,,,,,,
1504198046.265349,-0.033133,0.326843,0.355292,-0.956889,-0.561509,-0.750213,-0.031374,-0.321055,-0.946541,-0.039946,0.038417,0.093864,11.970476,-0.064374,-31.561432,,,,,,,
1504198046.275359,-0.036439,0.318726,0.346392,-0.800192,-0.633040,-0.836275,-0.034596,-0.313357,-0.949005,-0.047176,0.037142,0.073379,11.970476,-0.064374,-31.561432,,,,,,,
1504198046.285369,-0.040236,0.312172,0.336804,-0.651879,-0.682106,-0.896799,-0.038281,-0.307127,-0.950898,-0.032642,0.018919,0.032960,11.669115,0.384585,-31.715576,,,,,,,
1504198046.295378,-0.043932,0.307195,0.327042,-0.495816,-0.652478,-0.907255,-0.041862,-0.302387,-0.952266,-0.049309,-0.003537,0.015513,11.669115,0.384585,-31.715576,,,,,,,
1504198046.305388,-0.046761,0.303985,0.317483,-0.315760,-0.541024,-0.891128,-0.044601,-0.299325,-0.953108,-0.055405,-0.017005,0.030989,11.142717,0.757815,-32.019684,,,,,,,
1504198046.315398,-0.048590,0.302613,0.308205,-0.134668,-0.432777,-0.873927,-0.046364,-0.298015,-0.953435,-0.051705,-0.001637,0.058385,11.142717,0.757815,-32.019684,,,,,,,
1504198046.325408,-0.049548,0.302940,0.299128,0.030317,-0.341440,-0.863128,-0.047273,-0.298327,-0.953292,-0.033019,0.033877,0.057754,10.766863,1.280520,-31.724548,,,,,,,
1504198046.335417,-0.049502,0.304623,0.290213,0.154888,-0.235913,-0.855626,-0.047204,-0.299934,-0.952791,-0.022422,0.059638,0.037142,10.766863,1.280520,-31.724548,,,,,,,
1504198046.345427,-0.048703,0.307151,0.281454,0.224685,-0.171501,-0.841743,-0.046405,-0.302344,-0.952069,-0.031018,0.052466,0.030361,10.766069,1.505816,-31.876251,,,,,,,
1504198046.355437,-0.047849,0.309888,0.272992,0.237352,-0.168443,-0.809704,-0.045553,-0.304952,-0.951278,-0.038691,0.025045,0.014083,10.766069,1.505816,-31.876251,,,,,,,
1504198046.365447,-0.047050,0.312359,0.264986,0.199813,-0.161792,-0.759613,-0.044757,-0.307304,-0.950558,-0.035092,0.003471,-0.010929,10.540926,1.430255,-32.101227,,,,,,,
1504198046.375457,-0.046158,0.314196,0.257490,0.132578,-0.131455,-0.707480,-0.043883,-0.309052,-0.950032,-0.031953,-0.006103,-0.023402,10.540926,1.430255,-32.101227,,,,,,,
1504198046.385466,-0.044847,0.315303,0.250431,0.063485,-0.073387,-0.666074,-0.042622,-0.310105,-0.949746,-0.030681,-0.008636,-0.018027,10.466265,1.429477,-31.876404,,,,,,,
1504198046.395476,-0.043463,0.315886,0.243702,0.006936,-0.056967,-0.639515,-0.041300,-0.310659,-0.949624,-0.016546,-0.012171,-0.008857,10.466265,1.429477,-31.876404,,,,,,,
1504198046.405486,-0.042424,0.315752,0.237074,-0.058762,-0.124640,-0.624566,-0.040315,-0.310531,-0.949708,-0.004424,-0.022675,-0.012877,10.466158,1.429614,-31.951385,,,,,,,
1504198046.415496,-0.042810,0.314761,0.230636,-0.148698,-0.280570,-0.597761,-0.040695,-0.309590,-0.949999,0.011886,-0.036770,-0.031431,10.466158,1.429614,-31.951385,,,,,,,
1504198046.425505,-0.045235,0.312718,0.224629,-0.258286,-0.477921,-0.547435,-0.043026,-0.307646,-0.950528,0.026364,-0.065294,-0.061344,10.240770,1.578616,-31.953064,,,,,,,
1504198046.435515,-0.049534,0.309568,0.219225,-0.371891,-0.632634,-0.479046,-0.047160,-0.304647,-0.951297,0.029185,-0.085932,-0.076398,10.240770,1.578616,-31.953064,,,,,,,
1504198046.445525,-0.055100,0.305408,0.214525,-0.460412,-0.717227,-0.407534,-0.052524,-0.300682,-0.952277,0.033435,-0.083229,-0.069833,10.014116,2.103045,-32.182587,,,,,,,
1504198046.455535,-0.061257,0.300636,0.210435,-0.507848,-0.741407,-0.347799,-0.058473,-0.296127,-0.953357,0.045076,-0.070892,-0.034421,10.014116,2.103045,-32.182587,,,,,,,
1504198046.465544,-0.067592,0.295674,0.206798,-0.517606,-0.734976,-0.306199,-0.064610,-0.291385,-0.954421,0.055333,-0.057461,0.007247,9.339159,2.174716,-32.034821,,,,,,,
1504198046.475554,-0.073599,0.290875,0.203380,-0.491657,-0.680863,-0.288103,-0.070443,-0.286791,-0.955400,0.058572,-0.053358,0.030442,9.339159,2.174716,-32.034821,,,,,,,
1504198046.485564,-0.078718,0.286855,0.200022,-0.405535,-0.585667,-0.289189,-0.075424,-0.282937,-0.956168,0.059677,-0.050269,0.044639,8.962435,2.773334,-32.190247,,,,,,,
1504198046.495574,-0.082762,0.284094,0.196624,-0.263673,-0.468535,-0.307296,-0.079354,-0.280288,-0.956630,0.050576,-0.039826,0.053341,8.962435,2.773334,-32.190247,,,,,,,
1504198046.505583,-0.085680,0.282854,0.193156,-0.114462,-0.366382,-0.325363,-0.082175,-0.279097,-0.956740,0.041037,-0.019243,0.054625,8.961046,3.148929,-32.493103,,,,,,,
1504198046.515593,-0.088085,0.282989,0.189677,0.011749,-0.333312,-0.334810,-0.084472,-0.279227,-0.956502,0.034210,-0.007760,0.047750,8.961046,3.148929,-32.493103,,,,,,,
1504198046.525603,-0.090009,0.284463,0.186249,0.085196,-0.344586,-0.316519,-0.086275,-0.280642,-0.955927,0.024919,-0.012861,0.017252,8.286303,3.220294,-32.195282,,,,,,,
1504198046.535613,-0.092882,0.285874,0.183322,0.121040,-0.377949,-0.283308,-0.088984,-0.281996,-0.955280,0.020198,-0.020449,-0.014874,8.286303,3.220294,-32.195282,,,,,,,
1504198046.545623,-0.096267,0.287443,0.180816,0.138638,-0.420759,-0.243708,-0.092174,-0.283501,-0.954532,0.019176,-0.012489,-0.032056,8.061495,3.144290,-32.195282,,,,,,,
1504198046.555632,-0.100079,0.289169,0.178695,0.154291,-0.445429,-0.212683,-0.095763,-0.285155,-0.953685,0.024200,0.003493,-0.035832,8.061495,3.144290,-32.195282,,,,,,,
1504198046.565642,-0.103510,0.290633,0.176610,0.150928,-0.456064,-0.197729,-0.098993,-0.286558,-0.952935,0.025842,0.007307,-0.027442,8.061724,2.919742,-32.418610,,,,,,,
1504198046.575652,-0.107610,0.292133,0.174777,0.120938,-0.463289,-0.186027,-0.102852,-0.287995,-0.952093,0.028008,-0.002822,-0.020472,8.061724,2.919742,-32.418610,,,,,,,
1504198046.585662,-0.111703,0.293125,0.173141,0.066471,-0.453277,-0.159454,-0.106716,-0.288945,-0.951379,0.028881,-0.023021,-0.023383,7.461840,2.916888,-32.345093,,,,,,,
1504198046.595671,-0.115582,0.293503,0.171782,0.008983,-0.415544,-0.124396,-0.110393,-0.289307,-0.950850,0.020091,-0.038574,-0.019854,7.461840,2.916888,-32.345093,,,,,,,
1504198046.605681,-0.118550,0.294218,0.170669,-0.031018,-0.326807,-0.088330,-0.113190,-0.289992,-0.950312,0.011658,-0.034898,-0.007940,7.311983,2.766513,-32.494354,,,,,,,
1504198046.615691,-0.120564,0.293940,0.169921,-0.036427,-0.186131,-0.061903,-0.115113,-0.289725,-0.950162,0.002839,-0.018578,0.014478,7.311983,2.766513,-32.494354,,,,,,,
1504198046.625670,-0.121119,0.293791,0.169231,-0.018186,-0.042420,-0.066394,-0.115646,-0.289583,-0.950141,-0.006470,0.001939,0.039863,7.237108,2.766025,-32.419525,,,,,,,
1504198046.635680,-0.120558,0.293836,0.168295,-0.003444,0.045938,-0.099614,-0.115112,-0.289626,-0.950193,-0.009736,0.015487,0.057614,7.237108,2.766025,-32.419525,,,,,,,
1504198046.645690,-0.119888,0.293891,0.166952,-0.007373,0.056675,-0.150874,-0.114473,-0.289678,-0.950254,-0.005492,0.016393,0.049497,7.387224,2.766559,-32.344147,,,,,,,
1504198046.655699,-0.118963,0.293893,0.164931,-0.029755,0.024949,-0.206361,-0.113594,-0.289680,-0.950359,-0.004509,-0.001595,0.030269,7.387224,2.766559,-32.344147,,,,,,,
1504198046.665709,-0.118346,0.293702,0.162363,-0.054479,-0.025950,-0.251145,-0.113014,-0.289497,-0.950484,-0.005073,-0.026787,0.016936,7.387438,2.766253,-32.194122,,,,,,,
1504198046.675719,-0.118054,0.293354,0.159446,-0.070647,-0.063085,-0.277793,-0.112748,-0.289164,-0.950617,-0.007110,-0.038976,0.011911,7.387438,2.766253,-32.194122,,,,,,,
1504198046.685729,-0.118164,0.294039,0.156474,-0.062043,-0.064216,-0.290583,-0.112830,-0.289820,-0.950407,-0.008844,-0.029394,0.019575,7.463167,2.616138,-31.967804,,,,,,,
1504198046.695739,-0.117567,0.294083,0.153347,-0.018942,-0.016610,-0.299131,-0.112261,-0.289862,-0.950462,-0.011946,-0.001520,0.032722,7.463167,2.616138,-31.967804,,,,,,,
1504198046.705748,-0.116782,0.294295,0.150294,0.040432,0.059637,-0.317306,-0.111507,-0.290065,-0.950489,-0.012959,0.028774,0.048633,7.461535,2.992038,-32.420654,,,,,,,
1504198046.715758,-0.115372,0.294604,0.147062,0.080524,0.121134,-0.345095,-0.110157,-0.290361,-0.950556,-0.016979,0.047548,0.060083,7.461535,2.992038,-32.420654,,,,,,,
1504198046.725768,-0.113424,0.295063,0.143519,0.087277,0.148809,-0.373950,-0.108290,-0.290800,-0.950636,-0.016740,0.048246,0.051161,7.461885,2.991595,-32.195618,,,,,,,
1504198046.735778,-0.111429,0.295651,0.139668,0.065996,0.139418,-0.402788,-0.106374,-0.291363,-0.950680,-0.021998,0.031018,0.025662,7.461885,2.991595,-32.195618,,,,,,,
1504198046.745787,-0.109856,0.296268,0.135605,0.034826,0.100256,-0.420916,-0.104858,-0.291953,-0.950667,-0.029129,0.010626,0.003890,7.611879,2.992267,-32.195251,,,,,,,
1504198046.755797,-0.108628,0.296821,0.131413,0.008914,0.057844,-0.428354,-0.103674,-0.292482,-0.950635,-0.029825,0.000825,-0.004749,7.611879,2.992267,-32.195251,,,,,,,
1504198046.765807,-0.107895,0.297000,0.127105,-0.013737,0.018608,-0.443265,-0.102971,-0.292653,-0.950658,-0.033458,0.007771,-0.001109,7.462450,2.766589,-32.193939,,,,,,,
1504198046.775817,-0.107327,0.296569,0.122456,-0.029977,-0.025994,-0.469896,-0.102444,-0.292241,-0.950842,-0.027515,0.026616,0.001120,7.462450,2.766589,-32.193939,,,,,,,
1504198046.785826,-0.107022,0.295906,0.117441,-0.054914,-0.090766,-0.496508,-0.102176,-0.291607,-0.951066,-0.019299,0.026195,-0.005432,7.236498,3.140582,-32.197296,,,,,,,
1504198046.795836,-0.107554,0.295285,0.112174,-0.098411,-0.201220,-0.510263,-0.102701,-0.291013,-0.951191,-0.019446,0.008343,-0.017162,7.236498,3.140582,-32.197296,,,,,,,
1504198046.805846,-0.109227,0.294360,0.106838,-0.145428,-0.337242,-0.500498,-0.104321,-0.290128,-0.951285,-0.015751,-0.002231,-0.036981,7.461275,3.141894,-32.346771,,,,,,,
1504198046.815856,-0.112049,0.293036,0.101563,-0.184844,-0.454149,-0.486483,-0.107048,-0.288860,-0.951368,-0.012795,-0.003346,-0.052111,7.461275,3.141894,-32.346771,,,,,,,
1504198046.825865,-0.115715,0.291454,0.096395,-0.207873,-0.523238,-0.472525,-0.110588,-0.287345,-0.951422,-0.009957,0.005042,-0.044855,7.085756,3.439914,-32.199921,,,,,,,
1504198046.835875,-0.119595,0.289799,0.091244,-0.210066,-0.531742,-0.474648,-0.114335,-0.285760,-0.951456,-0.005065,0.013207,-0.026266,7.085756,3.439914,-32.199921,,,,,,,
1504198046.845885,-0.123283,0.288121,0.086024,-0.196925,-0.495609,-0.485363,-0.117902,-0.284151,-0.951503,-0.002963,0.015642,-0.001134,6.710375,3.588229,-32.201965,,,,,,,
1504198046.855861,-0.126349,0.286920,0.080634,-0.172924,-0.441442,-0.504630,-0.120862,-0.283000,-0.951474,-0.003161,0.011164,0.019407,6.710375,3.588229,-32.201965,,,,,,,
1504198046.865871,-0.128886,0.286097,0.075032,-0.142535,-0.393713,-0.531346,-0.123305,-0.282210,-0.951395,-0.008867,0.008071,0.030940,6.259554,3.961047,-32.130920,,,,,,,
1504198046.875880,-0.130997,0.285645,0.069201,-0.113316,-0.358763,-0.558042,-0.125330,-0.281776,-0.951259,-0.008825,0.006065,0.037456,6.259554,3.961047,-32.130920,,,,,,,
1504198046.885890,-0.132878,0.285506,0.063161,-0.092822,-0.345057,-0.580445,-0.127124,-0.281643,-0.951061,-0.012174,-0.000599,0.039104,6.034258,4.035190,-32.207031,,,,,,,
1504198046.895900,-0.134693,0.285458,0.056937,-0.084192,-0.345110,-0.599643,-0.128852,-0.281597,-0.950842,-0.013162,0.006755,0.029745,6.034258,4.035190,-32.207031,,,,,,,
1504198046.905910,-0.136450,0.285255,0.050435,-0.101148,-0.347075,-0.626353,-0.130530,-0.281403,-0.950671,-0.012460,0.022125,0.023180,5.959169,3.885455,-32.506134,,,,,,,
1504198046.915919,-0.138055,0.284756,0.043496,-0.138322,-0.350990,-0.666972,-0.132075,-0.280923,-0.950599,-0.008016,0.032694,0.022468,5.959169,3.885455,-32.506134,,,,,,,
1504198046.925929,-0.139550,0.283912,0.035968,-0.185089,-0.361206,-0.719337,-0.133529,-0.280113,-0.950635,-0.002107,0.032524,0.018475,5.809511,3.884326,-32.281464,,,,,,,
1504198046.935939,-0.140990,0.282750,0.027795,-0.234039,-0.378861,-0.773829,-0.134944,-0.278998,-0.950763,0.003611,0.014731,0.021121,5.809511,3.884326,-32.281464,,,,,,,
1504198046.945949,-0.142459,0.281214,0.019052,-0.287274,-0.392230,-0.817661,-0.136401,-0.277523,-0.950987,0.008227,-0.011601,0.031370,5.433504,4.108233,-32.584106,,,,,,,
1504198046.955958,-0.143773,0.279133,0.009956,-0.348939,-0.377848,-0.838074,-0.137732,-0.275523,-0.951376,0.009360,-0.028799,0.039099,5.433504,4.108233,-32.584106,,,,,,,
1504198046.965968,-0.144826,0.276415,0.000677,-0.416982,-0.351707,-0.844642,-0.138841,-0.272909,-0.951968,0.004534,-0.030894,0.047916,5.133623,4.330997,-32.136505,,,,,,,
1504198046.975978,-0.145591,0.272968,-0.008776,-0.493562,-0.326559,-0.852291,-0.139706,-0.269591,-0.952787,0.003903,-0.020952,0.050718,5.133623,4.330997,-32.136505,,,,,,,
1504198046.985988,-0.146232,0.268812,-0.018517,-0.565999,-0.324876,-0.872700,-0.140479,-0.265587,-0.953797,0.008078,-0.008141,0.054505,4.757265,4.779605,-32.290802,,,,,,,
1504198046.995997,-0.146844,0.263994,-0.028515,-0.633161,-0.325376,-0.884557,-0.141247,-0.260938,-0.954966,0.018536,-0.008715,0.054774,4.757265,4.779605,-32.290802,,,,,,,
1504198047.006007,-0.147535,0.258573,-0.038450,-0.690920,-0.328122,-0.860102,-0.142114,-0.255701,-0.956254,0.030236,-0.026312,0.059662,4.456591,5.227664,-31.994904,,,,,,,
1504198047.016017,-0.148363,0.252541,-0.048107,-0.746536,-0.324502,-0.827115,-0.143131,-0.249865,-0.957643,0.039676,-0.037794,0.067629,4.456591,5.227664,-31.994904,,,,,,,
1504198047.026027,-0.149226,0.246053,-0.057570,-0.787095,-0.312469,-0.804791,-0.144195,-0.243577,-0.959103,0.039107,-0.049346,0.076199,4.230577,5.676501,-31.923859,,,,,,,
1504198047.036037,-0.149826,0.239324,-0.066978,-0.802815,-0.275047,-0.801682,-0.145012,-0.237046,-0.960615,0.026985,-0.089675,0.098692,4.230577,5.676501,-31.923859,,,,,,,
1504198047.046046,-0.149552,0.235087,-0.075197,-0.406470,-0.137775,-0.683823,-0.144897,-0.232927,-0.961639,0.031402,-0.071562,0.124130,3.854479,6.199527,-31.778717,,,,,,,
1504198047.056056,-0.149259,0.236621,-0.079852,0.243432,-0.072036,-0.391412,-0.144562,-0.234419,-0.961327,0.045120,-0.058672,0.096779,3.854479,6.199527,-31.778717,,,,,,,
1504198047.066066,-0.149828,0.242417,-0.081330,0.616616,-0.114739,-0.196423,-0.144903,-0.240050,-0.959885,0.106650,-0.060274,-0.054535,3.930193,6.049411,-31.552399,,,,,,,
1504198047.076076,-0.151840,0.248626,-0.082701,0.559041,-0.275117,-0.247475,-0.146606,-0.246072,-0.958100,0.125839,-0.011557,-0.137054,3.930193,6.049411,-31.552399,,,,,,,
1504198047.086085,-0.155453,0.253050,-0.085598,0.339249,-0.489489,-0.376634,-0.149897,-0.250358,-0.956479,0.046504,-0.019890,-0.107837,3.630434,5.823504,-31.776459,,,,,,,
1504198047.096095,-0.161046,0.255801,-0.089917,0.165032,-0.724512,-0.477925,-0.155133,-0.253021,-0.954942,-0.003558,-0.024903,-0.073622,3.630434,5.823504,-31.776459,,,,,,,
1504198047.106105,-0.168334,0.257475,-0.095056,0.061471,-0.898365,-0.529033,-0.162017,-0.254640,-0.953367,0.014923,0.008882,-0.092684,3.406069,5.522647,-31.849762,,,,,,,
1504198047.116115,-0.176923,0.258417,-0.100770,-0.022639,-1.036155,-0.571632,-0.170157,-0.255550,-0.951704,0.034751,0.031276,-0.106127,3.406069,5.522647,-31.849762,,,,,,,
1504198047.126124,-0.186457,0.258748,-0.107167,-0.096817,-1.142045,-0.629213,-0.179207,-0.255870,-0.949955,0.044457,0.024059,-0.095897,2.431307,5.517962,-31.702179,,,,,,,
1504198047.136134,-0.196807,0.258629,-0.114357,-0.159166,-1.241628,-0.695325,-0.189036,-0.255755,-0.948079,0.045237,0.012011,-0.081126,2.431307,5.517962,-31.702179,,,,,,,
1504198047.146144,-0.207868,0.258020,-0.122331,-0.236370,-1.328307,-0.757215,-0.199543,-0.255167,-0.946083,0.046925,-0.003851,-0.077935,1.830812,5.665423,-31.779785,,,,,,,
1504198047.156154,-0.219441,0.256587,-0.131034,-0.347625,-1.392347,-0.801058,-0.210557,-0.253781,-0.944066,0.043046,-0.005863,-0.084361,1.830812,5.665423,-31.779785,,,,,,,
1504198047.166163,-0.231516,0.254228,-0.140350,-0.457894,-1.458539,-0.832087,-0.222078,-0.251498,-0.942035,0.036683,0.009845,-0.085904,0.706011,5.585361,-31.781982,,,,,,,
1504198047.176173,-0.244147,0.251002,-0.150207,-0.562864,-1.525846,-0.857768,-0.234154,-0.248375,-0.939937,0.031136,0.016197,-0.065068,0.706011,5.585361,-31.781982,,,,,,,
1504198047.186183,-0.257142,0.247177,-0.160715,-0.638684,-1.563534,-0.904799,-0.246588,-0.244668,-0.937727,0.034079,0.004677,-0.039430,-0.043867,5.806094,-31.335510,,,,,,,
1504198047.196193,-0.269865,0.243384,-0.171901,-0.647749,-1.533561,-0.964642,-0.258744,-0.240988,-0.935402,0.046753,-0.013590,-0.018623,-0.043867,5.806094,-31.335510,,,,,,,
1504198047.206203,-0.281906,0.239859,-0.183864,-0.661813,-1.471561,-1.040561,-0.270223,-0.237566,-0.933028,0.043279,-0.035383,-0.000581,-1.169798,6.176044,-31.341095,,,,,,,
1504198047.216182,-0.292947,0.236441,-0.196673,-0.696017,-1.388092,-1.108014,-0.280741,-0.234244,-0.930760,0.035135,-0.040216,0.009495,-1.169798,6.176044,-31.341095,,,,,,,
1504198047.226192,-0.303071,0.233147,-0.210051,-0.697176,-1.297455,-1.158344,-0.290378,-0.231041,-0.928602,0.043170,-0.038017,0.025022,-2.595579,6.619189,-31.122986,,,,,,,
1504198047.236201,-0.312229,0.230104,-0.223912,-0.699466,-1.212140,-1.204397,-0.299084,-0.228079,-0.926568,0.055401,-0.044550,0.030389,-2.595579,6.619189,-31.122986,,,,,,,
1504198047.246211,-0.320451,0.227447,-0.238215,-0.678252,-1.124884,-1.253614,-0.306882,-0.225491,-0.924650,0.060147,-0.051501,0.036710,-3.196669,7.141192,-30.978424,,,,,,,
1504198047.256221,-0.327924,0.225560,-0.252964,-0.625192,-1.066648,-1.316602,-0.313920,-0.223652,-0.922732,0.076249,-0.058040,0.054568,-3.196669,7.141192,-30.978424,,,,,,,
1504198047.266231,-0.334952,0.224756,-0.268087,-0.530703,-1.034322,-1.384809,-0.320456,-0.222868,-0.920673,0.085776,-0.072145,0.061465,-4.321135,7.060687,-30.755615,,,,,,,
1504198047.276240,-0.341922,0.224993,-0.283746,-0.470694,-1.052846,-1.466862,-0.326848,-0.223099,-0.918367,0.083272,-0.091873,0.076570,-4.321135,7.060687,-30.755615,,,,,,,
1504198047.286250,-0.349031,0.226216,-0.299737,-0.392668,-1.081094,-1.521139,-0.333274,-0.224292,-0.915763,0.083961,-0.102674,0.104789,-4.770720,6.983371,-30.606140,,,,,,,
