timestamp(unix),attitude_roll(radians),attitude_pitch(radians),attitude_yaw(radians),rotation_rate_x(radians/s),rotation_rate_y(radians/s),rotation_rate_z(radians/s),gravity_x(G),gravity_y(G),gravity_z(G),user_acc_x(G),user_acc_y(G),user_acc_z(G),magnetic_field_x(microteslas),magnetic_field_y(microteslas),magnetic_field_z(microteslas),latitude(degree),longitude(degree),altitude(meter),speed(m/s),course(degree),timestamp(unix),User Mark
1504199062.351178,-0.061673,0.687335,2.226983,-0.027587,0.073133,-0.054497,-0.047640,-0.634479,-0.771470,0.073351,0.154758,-0.077910,25.808748,19.151031,-30.028564,,,,,,,
1504199062.361188,-0.060371,0.686721,2.225971,-0.077696,0.061851,-0.080182,-0.046658,-0.634005,-0.771920,0.058331,0.150957,-0.086463,25.808748,19.151031,-30.028564,,,,,,,
1504199062.371198,-0.059130,0.685719,2.224640,-0.114104,0.031272,-0.102606,-0.045738,-0.633230,-0.772611,0.047462,0.144720,-0.086352,26.033968,19.151733,-29.877991,,,,,,,
1504199062.381208,-0.058203,0.684468,2.223065,-0.135798,-0.021815,-0.116426,-0.045067,-0.632261,-0.773444,0.045129,0.144346,-0.080377,26.033968,19.151733,-29.877991,,,,,,,
1504199062.391218,-0.057882,0.683031,2.221446,-0.157656,-0.086637,-0.116350,-0.044872,-0.631147,-0.774364,0.046032,0.148344,-0.074498,25.958666,19.226547,-29.953735,,,,,,,
1504199062.401227,-0.058392,0.681365,2.219909,-0.178633,-0.169590,-0.107701,-0.045328,-0.629854,-0.775390,0.050852,0.146089,-0.081498,25.958666,19.226547,-29.953735,,,,,,,
1504199062.411237,-0.059753,0.679437,2.218470,-0.204891,-0.245041,-0.098007,-0.046456,-0.628356,-0.776538,0.065865,0.140440,-0.091809,25.957842,19.601410,-29.881561,,,,,,,
1504199062.421216,-0.062046,0.677364,2.217171,-0.215247,-0.331283,-0.085064,-0.048317,-0.626741,-0.777728,0.081932,0.133135,-0.102933,25.957842,19.601410,-29.881561,,,,,,,
1504199062.431226,-0.065210,0.675276,2.216086,-0.212696,-0.400588,-0.065724,-0.050863,-0.625113,-0.778876,0.092931,0.124609,-0.106363,25.507051,19.824677,-30.034363,,,,,,,
1504199062.441236,-0.069032,0.673411,2.215296,-0.181094,-0.436038,-0.041056,-0.053919,-0.623656,-0.779837,0.094660,0.117995,-0.101266,25.507051,19.824677,-30.034363,,,,,,,
1504199062.451246,-0.073080,0.672044,2.214988,-0.122436,-0.416313,-0.004698,-0.057138,-0.622587,-0.780462,0.094735,0.118665,-0.085581,25.206377,20.048477,-30.111755,,,,,,,
1504199062.461255,-0.076950,0.671309,2.215268,-0.054914,-0.350847,0.039067,-0.060193,-0.622012,-0.780691,0.093244,0.115954,-0.072672,25.206377,20.048477,-30.111755,,,,,,,
1504199062.471265,-0.080343,0.671167,2.216253,0.005368,-0.252296,0.090233,-0.062849,-0.621900,-0.780570,0.085889,0.116682,-0.069848,24.905245,20.272888,-30.489197,,,,,,,
1504199062.481275,-0.083012,0.671505,2.217910,0.055160,-0.134472,0.136010,-0.064914,-0.622165,-0.780190,0.075076,0.122745,-0.068351,24.905245,20.272888,-30.489197,,,,,,,
1504199062.491285,-0.084873,0.672226,2.220020,0.093214,-0.028254,0.163641,-0.066328,-0.622729,-0.779621,0.068129,0.130236,-0.068233,24.906420,19.897583,-30.336395,,,,,,,
1504199062.501294,-0.085986,0.673239,2.222375,0.123690,0.055663,0.177422,-0.067142,-0.623522,-0.778918,0.063739,0.136553,-0.072050,24.906420,19.897583,-30.336395,,,,,,,
1504199062.511304,-0.086416,0.674672,2.224773,0.172259,0.121337,0.170986,-0.067400,-0.624641,-0.777998,0.058946,0.145424,-0.079226,25.056231,19.749008,-30.709900,,,,,,,
1504199062.521314,-0.086509,0.676601,2.227004,0.217279,0.134840,0.150760,-0.067367,-0.626147,-0.776789,0.059982,0.174242,-0.071508,25.056231,19.749008,-30.709900,,,,,,,
1504199062.531324,-0.086399,0.678896,2.228935,0.249378,0.128212,0.122007,-0.067158,-0.627934,-0.775364,0.052754,0.180729,-0.091061,25.281496,19.600159,-30.783234,,,,,,,
1504199062.541333,-0.086128,0.681431,2.230408,0.263356,0.116417,0.081491,-0.066811,-0.629905,-0.773793,0.048409,0.179069,-0.102580,25.281496,19.600159,-30.783234,,,,,,,
1504199062.551343,-0.085549,0.684030,2.231296,0.263578,0.114334,0.033462,-0.066223,-0.631921,-0.772198,0.046905,0.179208,-0.111408,25.057512,19.373550,-30.482056,,,,,,,
1504199062.561353,-0.084526,0.686552,2.231522,0.249994,0.118760,-0.016737,-0.065297,-0.633874,-0.770675,0.044042,0.181512,-0.107743,25.057512,19.373550,-30.482056,,,,,,,
1504199062.571363,-0.082914,0.688895,2.231011,0.223701,0.131822,-0.072311,-0.063932,-0.635684,-0.769297,0.038999,0.186359,-0.104116,25.057695,19.298553,-30.481506,,,,,,,
1504199062.581373,-0.080711,0.690960,2.229760,0.188852,0.142822,-0.126828,-0.062131,-0.637278,-0.768126,0.038312,0.186808,-0.104723,25.057695,19.298553,-30.481506,,,,,,,
1504199062.591382,-0.077993,0.692748,2.227810,0.159259,0.147379,-0.175988,-0.059954,-0.638654,-0.767155,0.040179,0.183881,-0.102291,25.284426,18.923523,-29.953156,,,,,,,
1504199062.601392,-0.074921,0.694351,2.225290,0.142358,0.145426,-0.213373,-0.057520,-0.639887,-0.766313,0.042124,0.179423,-0.100005,25.284426,18.923523,-29.953156,,,,,,,
1504199062.611402,-0.071590,0.695849,2.222379,0.131834,0.147670,-0.239013,-0.054899,-0.641037,-0.765544,0.043272,0.166596,-0.095418,25.433702,19.074646,-30.178894,,,,,,,
1504199062.621412,-0.067966,0.697390,2.219226,0.139541,0.166805,-0.256112,-0.052057,-0.642219,-0.764751,0.043513,0.155891,-0.084767,25.433702,19.074646,-30.178894,,,,,,,
1504199062.631421,-0.063884,0.699059,2.215960,0.154848,0.210373,-0.260431,-0.048866,-0.643498,-0.763886,0.047478,0.157521,-0.068801,25.284197,18.923813,-30.103149,,,,,,,
1504199062.641431,-0.059246,0.700876,2.212699,0.169169,0.266732,-0.260506,-0.045254,-0.644888,-0.762936,0.043515,0.161825,-0.051212,25.284197,18.923813,-30.103149,,,,,,,
1504199062.651441,-0.054048,0.702755,2.209425,0.174921,0.318899,-0.260588,-0.041222,-0.646322,-0.761950,0.040062,0.160131,-0.043088,25.508791,19.000122,-30.253174,,,,,,,
1504199062.661451,-0.048483,0.704527,2.206104,0.160217,0.346728,-0.262797,-0.036926,-0.647674,-0.761023,0.050597,0.155379,-0.056864,25.508791,19.000122,-30.253174,,,,,,,
1504199062.671386,-0.042715,0.706115,2.202783,0.144327,0.364968,-0.256453,-0.032491,-0.648883,-0.760194,0.058782,0.145739,-0.077315,25.734270,19.075241,-29.803162,,,,,,,
1504199062.681396,-0.036851,0.707699,2.199650,0.151909,0.390461,-0.238339,-0.027996,-0.650087,-0.759344,0.061260,0.141542,-0.086268,25.734270,19.075241,-29.803162,,,,,,,
1504199062.691406,-0.030856,0.709497,2.196840,0.179787,0.424303,-0.211665,-0.023406,-0.651452,-0.758329,0.056304,0.143884,-0.072970,25.959124,19.225952,-29.653748,,,,,,,
1504199062.701416,-0.022033,0.706423,2.192531,0.221270,0.435682,-0.182803,-0.016759,-0.649117,-0.760504,0.056676,0.143777,-0.066370,25.959124,19.225952,-29.653748,,,,,,,
1504199062.711426,-0.016609,0.708964,2.190505,0.258135,0.395917,-0.150647,-0.012606,-0.651048,-0.758932,0.062640,0.141236,-0.071329,26.260317,18.926697,-29.350708,,,,,,,
1504199062.721436,-0.012300,0.711734,2.188923,0.278533,0.300873,-0.114153,-0.009313,-0.653148,-0.757173,0.068060,0.130611,-0.091994,26.260317,18.926697,-29.350708,,,,,,,
1504199062.731446,-0.009428,0.714533,2.187807,0.276387,0.187901,-0.078733,-0.007122,-0.655265,-0.755365,0.078152,0.119178,-0.120977,26.635469,18.778687,-29.498718,,,,,,,
1504199062.741455,-0.002670,0.710391,2.183793,0.265877,0.105977,-0.047675,-0.002024,-0.652130,-0.758104,0.076350,0.106888,-0.128233,26.635469,18.778687,-29.498718,,,,,,,
1504199062.751465,-0.001616,0.712953,2.183403,0.251657,0.076234,-0.025232,-0.001222,-0.654071,-0.756433,0.076601,0.108355,-0.121100,26.861101,18.704102,-29.197540,,,,,,,
1504199062.761475,-0.000575,0.715291,2.183241,0.226171,0.102001,-0.008243,-0.000434,-0.655837,-0.754902,0.078055,0.110000,-0.104961,26.861101,18.704102,-29.197540,,,,,,,
1504199062.771485,0.000741,0.717285,2.183314,0.189133,0.151305,0.009752,0.000558,-0.657341,-0.753593,0.071158,0.107673,-0.091164,26.786226,18.703613,-29.122742,,,,,,,
1504199062.781493,0.007349,0.713394,2.180412,0.141473,0.212500,0.021279,0.005557,-0.654404,-0.756125,0.064405,0.097000,-0.076685,26.786226,18.703613,-29.122742,,,,,,,
1504199062.791503,0.009609,0.714410,2.180865,0.088482,0.268329,0.039234,0.007259,-0.655171,-0.755445,0.067127,0.095326,-0.066851,26.861071,18.853653,-28.973663,,,,,,,
1504199062.801513,0.012139,0.714908,2.181595,0.036418,0.309227,0.061487,0.009167,-0.655548,-0.755098,0.067646,0.095901,-0.068693,26.861071,18.853653,-28.973663,,,,,,,
1504199062.811523,0.014742,0.715027,2.182641,0.003446,0.336115,0.083798,0.011131,-0.655638,-0.754993,0.070595,0.093901,-0.073162,27.011263,18.779327,-28.972717,,,,,,,
1504199062.821532,0.022516,0.710506,2.180580,-0.009434,0.348012,0.105075,0.017066,-0.652217,-0.757840,0.068627,0.082149,-0.069949,27.011263,18.779327,-28.972717,,,,,,,
1504199062.831542,0.025104,0.710407,2.182083,-0.012595,0.359748,0.115723,0.019029,-0.652142,-0.757858,0.067580,0.079998,-0.070572,27.161669,18.704697,-28.821808,,,,,,,
1504199062.841552,0.027846,0.710409,2.183618,0.001437,0.379879,0.115712,0.021108,-0.652144,-0.757802,0.063991,0.082365,-0.064998,27.161669,18.704697,-28.821808,,,,,,,
1504199062.851562,0.030851,0.710588,2.184971,0.019727,0.388271,0.098650,0.023380,-0.652279,-0.757618,0.062343,0.085156,-0.057949,27.312014,18.704926,-28.596436,,,,,,,
1504199062.861572,0.037922,0.706280,2.183468,0.043031,0.367904,0.085897,0.028843,-0.649009,-0.760234,0.061062,0.090415,-0.062138,27.312014,18.704926,-28.596436,,,,,,,
1504199062.871582,0.040806,0.706872,2.184407,0.061062,0.343265,0.067826,0.031020,-0.649459,-0.759764,0.052506,0.108474,-0.075395,27.687685,18.481461,-28.518829,,,,,,,
1504199062.881592,0.043571,0.707641,2.185027,0.079035,0.307977,0.044436,0.033099,-0.650043,-0.759176,0.040372,0.122150,-0.078013,27.687685,18.481461,-28.518829,,,,,,,
1504199062.891602,0.046310,0.708581,2.185284,0.096064,0.285488,0.016753,0.035150,-0.650757,-0.758472,0.032691,0.133941,-0.080731,27.462725,18.555145,-28.369965,,,,,,,
1504199062.901612,0.048202,0.701891,2.185713,0.093810,0.256047,-0.008723,0.036794,-0.645663,-0.762736,0.027263,0.140841,-0.074163,27.462725,18.555145,-28.369965,,,,,,,
1504199062.911621,0.050795,0.702627,2.185306,0.067000,0.224324,-0.032197,0.038747,-0.646225,-0.762163,0.029307,0.144241,-0.084822,28.137682,18.483490,-28.517731,,,,,,,
1504199062.921631,0.053124,0.702883,2.184718,0.013411,0.185353,-0.046097,0.040514,-0.646420,-0.761905,0.034025,0.136990,-0.099621,28.137682,18.483490,-28.517731,,,,,,,
1504199062.931610,0.054975,0.702511,2.184062,-0.052096,0.128357,-0.052514,0.041937,-0.646137,-0.762069,0.042352,0.125659,-0.118852,28.063021,18.482697,-28.292908,,,,,,,
1504199062.941619,0.057577,0.694297,2.182555,-0.120062,0.053229,-0.041828,0.044224,-0.639845,-0.767230,0.054470,0.104521,-0.131940,28.063021,18.482697,-28.292908,,,,,,,
1504199062.951629,0.057807,0.692726,2.182315,-0.165409,-0.001829,-0.022596,0.044458,-0.638637,-0.768223,0.066763,0.086452,-0.139736,27.912828,18.557022,-28.293823,,,,,,,
1504199062.961639,0.058833,0.691149,2.182298,-0.152474,0.160016,-0.003646,0.045306,-0.637423,-0.769181,0.072187,0.092593,-0.100707,27.912828,18.557022,-28.293823,,,,,,,
1504199062.971648,0.060521,0.689773,2.182780,-0.133049,0.214157,0.038988,0.046657,-0.636362,-0.769978,0.076619,0.108286,0.064397,28.362444,18.709045,-28.293854,,,,,,,
1504199062.981658,0.062784,0.688494,2.183623,-0.130373,0.297227,0.063397,0.048450,-0.635375,-0.770683,0.055005,0.095748,0.033027,28.362444,18.709045,-28.293854,,,,,,,
1504199062.991668,0.068254,0.685967,2.182266,-0.117433,0.193819,0.079592,0.052774,-0.633422,-0.772005,0.041998,0.069259,0.020647,28.287447,18.708710,-28.294037,,,,,,,
1504199063.001678,0.068279,0.684855,2.183377,-0.117651,0.031851,0.077742,0.052842,-0.632560,-0.772706,0.064208,0.060051,-0.045790,28.287447,18.708710,-28.294037,,,,,,,
1504199063.011688,0.066782,0.683688,2.184529,-0.124140,-0.109824,0.082250,0.051734,-0.631657,-0.773520,0.094185,0.074314,-0.096506,28.062304,18.857407,-28.145721,,,,,,,
1504199063.021698,0.064433,0.682553,2.185615,-0.116072,-0.174881,0.071705,0.049963,-0.630776,-0.774354,0.093943,0.084435,-0.125121,28.062304,18.857407,-28.145721,,,,,,,
1504199063.031708,0.066885,0.675363,2.183560,-0.093307,-0.137688,0.041770,0.052163,-0.625180,-0.778735,0.084632,0.106565,-0.115262,28.211931,19.008072,-28.146484,,,,,,,
1504199063.041718,0.065587,0.674535,2.183824,-0.082202,-0.105774,0.005442,0.051186,-0.624534,-0.779319,0.071494,0.152122,-0.071527,28.211931,19.008072,-28.146484,,,,,,,
1504199063.051727,0.064685,0.673617,2.183532,-0.095916,-0.114139,-0.039398,0.050521,-0.623817,-0.779936,0.048280,0.155173,-0.056963,27.837114,18.931396,-28.146851,,,,,,,
1504199063.061737,0.063503,0.672328,2.182633,-0.134749,-0.199014,-0.090551,0.049650,-0.622809,-0.780797,0.040057,0.145133,-0.068920,27.837114,18.931396,-28.146851,,,,,,,
1504199063.071747,0.061549,0.663355,2.181142,-0.188816,-0.311518,-0.144881,0.048466,-0.615764,-0.786439,0.038311,0.127239,-0.092025,28.060762,19.382706,-28.299652,,,,,,,
1504199063.081757,0.059054,0.660949,2.178982,-0.244748,-0.400514,-0.197124,0.046590,-0.613866,-0.788034,0.049052,0.127981,-0.108878,28.060762,19.382706,-28.299652,,,,,,,
1504199063.091767,0.056601,0.657892,2.176285,-0.307548,-0.408477,-0.239915,0.044763,-0.611450,-0.790016,0.054053,0.134170,-0.104973,27.611101,19.155975,-28.449066,,,,,,,
1504199063.101775,0.054872,0.654258,2.173139,-0.362336,-0.345116,-0.277480,0.043519,-0.608571,-0.792305,0.051207,0.132085,-0.087013,27.611101,19.155975,-28.449066,,,,,,,
1504199063.111785,0.055140,0.646545,2.169014,-0.400020,-0.266985,-0.307575,0.043989,-0.602432,-0.796957,0.043932,0.125900,-0.052347,27.459902,19.455902,-28.751709,,,,,,,
1504199063.121795,0.055238,0.642095,2.165223,-0.434619,-0.205935,-0.332293,0.044215,-0.598875,-0.799621,0.039846,0.122465,-0.025635,27.459902,19.455902,-28.751709,,,,,,,
1504199063.131805,0.055647,0.637337,2.161340,-0.463256,-0.188643,-0.338778,0.044699,-0.595058,-0.802439,0.043832,0.117198,-0.017385,27.534594,19.531387,-28.827057,,,,,,,
1504199063.141814,0.056175,0.632320,2.157404,-0.487676,-0.177779,-0.345244,0.045290,-0.591017,-0.805386,0.043089,0.108123,-0.013461,27.534594,19.531387,-28.827057,,,,,,,
1504199063.151824,0.057707,0.626063,2.152842,-0.507841,-0.171191,-0.359171,0.046737,-0.585959,-0.808992,0.048982,0.108847,-0.006911,27.382784,19.981613,-29.280823,,,,,,,
1504199063.161834,0.058568,0.620664,2.148563,-0.522558,-0.160386,-0.385901,0.047617,-0.581575,-0.812098,0.060858,0.114428,-0.007620,27.382784,19.981613,-29.280823,,,,,,,
1504199063.171844,0.059727,0.615048,2.143922,-0.545774,-0.149503,-0.420117,0.048753,-0.576998,-0.815289,0.070327,0.111406,-0.012393,27.306780,20.206879,-29.582733,,,,,,,
1504199063.181823,0.061123,0.609062,2.138819,-0.580813,-0.155562,-0.463930,0.050101,-0.572099,-0.818653,0.070703,0.099625,-0.029629,27.306780,20.206879,-29.582733,,,,,,,
1504199063.191833,0.066720,0.599553,2.130841,-0.607800,-0.209567,-0.496996,0.055042,-0.564273,-0.823751,0.069958,0.083973,-0.045130,27.605455,20.733231,-29.585907,,,,,,,
1504199063.201843,0.067108,0.593057,2.125182,-0.617005,-0.303248,-0.512857,0.055607,-0.558899,-0.827369,0.066158,0.077652,-0.063439,27.605455,20.733231,-29.585907,,,,,,,
1504199063.211853,0.066489,0.586589,2.119495,-0.610311,-0.401336,-0.514808,0.055334,-0.553523,-0.830993,0.067103,0.084743,-0.068009,27.378801,21.257660,-29.815430,,,,,,,
1504199063.221863,0.065014,0.580254,2.113855,-0.597025,-0.471779,-0.510391,0.054334,-0.548237,-0.834556,0.066042,0.094929,-0.066765,27.378801,21.257660,-29.815430,,,,,,,
1504199063.231873,0.063649,0.573665,2.108048,-0.591665,-0.468620,-0.511456,0.053424,-0.542714,-0.838217,0.063672,0.091328,-0.060694,27.377031,21.559006,-30.492676,,,,,,,
1504199063.241883,0.062509,0.567388,2.102405,-0.598557,-0.397167,-0.512662,0.052680,-0.537431,-0.841661,0.063623,0.092103,-0.043166,27.377031,21.559006,-30.492676,,,,,,,
1504199063.251892,0.062341,0.561022,2.096802,-0.606233,-0.288415,-0.510732,0.052751,-0.532052,-0.845067,0.051620,0.097603,-0.033030,27.150560,22.008453,-30.721588,,,,,,,
1504199063.261902,0.063216,0.554695,2.091327,-0.596862,-0.176616,-0.499171,0.053702,-0.526684,-0.848363,0.032419,0.098797,-0.018946,27.150560,22.008453,-30.721588,,,,,,,
1504199063.271912,0.064835,0.548515,2.086091,-0.543992,-0.089695,-0.478952,0.055285,-0.521420,-0.851507,0.008604,0.101910,-0.003504,27.373568,22.759613,-30.801697,,,,,,,
1504199063.281922,0.067159,0.543413,2.080933,-0.455939,-0.015834,-0.473593,0.057441,-0.517061,-0.854019,-0.006523,0.123186,0.001953,27.373568,22.759613,-30.801697,,,,,,,
1504199063.291930,0.070344,0.539290,2.075508,-0.353875,0.055814,-0.500228,0.060310,-0.513527,-0.855951,-0.006416,0.141213,-0.005133,27.522127,23.285446,-30.880249,,,,,,,
1504199063.301940,0.074492,0.536146,2.069475,-0.250670,0.120021,-0.553532,0.063981,-0.510826,-0.857300,-0.005768,0.134270,-0.025162,27.522127,23.285446,-30.880249,,,,,,,
1504199063.311950,0.078154,0.530789,2.063385,-0.159339,0.167243,-0.614294,0.067332,-0.506214,-0.859775,-0.008204,0.111423,-0.039868,27.746218,23.511902,-31.106415,,,,,,,
1504199063.321960,0.083680,0.529222,2.055862,-0.086469,0.169902,-0.673947,0.072148,-0.504862,-0.860179,-0.012166,0.108210,-0.051991,27.746218,23.511902,-31.106415,,,,,,,
1504199063.331969,0.089258,0.528041,2.047682,-0.048110,0.132342,-0.723982,0.076999,-0.503842,-0.860357,-0.005084,0.127530,-0.070063,27.895021,24.037430,-31.034973,,,,,,,
1504199063.341980,0.094384,0.527014,2.039006,-0.029329,0.053376,-0.765439,0.081456,-0.502955,-0.860466,0.000880,0.148173,-0.086007,27.895021,24.037430,-31.034973,,,,,,,
1504199063.351990,0.098180,0.524962,2.029984,-0.013198,-0.089511,-0.808922,0.084823,-0.501180,-0.861176,0.005418,0.161763,-0.100036,28.045015,24.038101,-31.034607,,,,,,,
1504199063.362000,0.100849,0.524069,2.020374,-0.004741,-0.254712,-0.843840,0.087166,-0.500408,-0.861391,0.010811,0.161968,-0.125761,28.045015,24.038101,-31.034607,,,,,,,
1504199063.372009,0.102217,0.523092,2.010354,-0.012079,-0.396336,-0.883097,0.088394,-0.499561,-0.861757,0.006683,0.153934,-0.135268,28.043627,24.637955,-30.964081,,,,,,,
1504199063.382019,0.102832,0.521865,1.999808,-0.033864,-0.483483,-0.933149,0.088987,-0.498498,-0.862311,0.013582,0.155999,-0.139352,28.043627,24.637955,-30.964081,,,,,,,
1504199063.392029,0.103203,0.520304,1.988890,-0.049913,-0.506765,-0.961956,0.089387,-0.497144,-0.863052,0.021331,0.159756,-0.135361,27.818102,24.936646,-30.816895,,,,,,,
1504199063.402039,0.103987,0.518834,1.977772,-0.044072,-0.453516,-0.978051,0.090139,-0.495868,-0.863707,0.004984,0.159137,-0.110277,27.818102,24.936646,-30.816895,,,,,,,
1504199063.412049,0.105771,0.517584,1.966531,-0.013331,-0.350397,-0.986719,0.091746,-0.494782,-0.864160,-0.008189,0.156220,-0.075094,27.666246,25.312164,-31.420135,,,,,,,
1504199063.422058,0.108701,0.516694,1.955103,0.026006,-0.243081,-1.000716,0.094325,-0.494009,-0.864325,-0.008418,0.164327,-0.055124,27.666246,25.312164,-31.420135,,,,,,,
1504199063.432068,0.112586,0.515710,1.943365,0.040605,-0.172838,-1.034971,0.097736,-0.493152,-0.864435,-0.006718,0.162891,-0.051260,27.590731,25.387283,-31.645844,,,,,,,
1504199063.442046,0.116688,0.514781,1.931142,0.022409,-0.206742,-1.077639,0.101335,-0.492344,-0.864482,-0.000734,0.139515,-0.071645,27.590731,25.387283,-31.645844,,,,,,,
1504199063.452056,0.119786,0.513370,1.918517,-0.023396,-0.355508,-1.116950,0.104095,-0.491116,-0.864852,0.006439,0.108654,-0.111268,27.589739,25.687576,-31.798126,,,,,,,
1504199063.462066,0.120877,0.511353,1.905627,-0.080527,-0.579849,-1.145473,0.105158,-0.489358,-0.865720,0.012045,0.089394,-0.139193,27.589739,25.687576,-31.798126,,,,,,,
1504199063.472076,0.119781,0.508711,1.892604,-0.132332,-0.797853,-1.162257,0.104364,-0.487051,-0.867115,0.022528,0.087958,-0.145488,27.363955,26.136124,-31.577057,,,,,,,
1504199063.482085,0.116890,0.505809,1.879588,-0.157064,-0.955358,-1.162022,0.102020,-0.484515,-0.868813,0.027908,0.097903,-0.125648,27.363955,26.136124,-31.577057,,,,,,,
1504199063.492095,0.112859,0.502899,1.866730,-0.155706,-1.041701,-1.144789,0.098676,-0.481968,-0.870615,0.028063,0.102268,-0.091940,27.062761,26.435379,-31.880035,,,,,,,
1504199063.502105,0.108315,0.500489,1.854294,-0.102650,-1.047517,-1.095586,0.094844,-0.479854,-0.872207,0.017964,0.093975,-0.057176,27.062761,26.435379,-31.880035,,,,,,,
1504199063.512115,0.104080,0.498975,1.842481,-0.009449,-0.958843,-1.029402,0.091225,-0.478526,-0.873322,-0.002083,0.096248,-0.006912,26.685381,27.109589,-32.336029,,,,,,,
1504199063.522125,0.102545,0.498291,1.830923,0.041527,-0.580987,-1.018239,0.089918,-0.477925,-0.873786,-0.010450,0.108494,0.036994,26.685381,27.109589,-32.336029,,,,,,,
1504199063.532135,0.107205,0.497438,1.819322,0.011590,0.078866,-1.018387,0.094033,-0.477176,-0.873763,-0.017540,0.152621,0.152419,26.459261,27.334320,-32.713287,,,,,,,
1504199063.542145,0.116045,0.496448,1.808362,0.012873,0.411258,-0.957062,0.101808,-0.476306,-0.873366,-0.048158,0.140261,0.296446,26.459261,27.334320,-32.713287,,,,,,,
1504199063.552155,0.125366,0.495422,1.797570,0.004311,0.409196,-0.954938,0.110005,-0.475403,-0.872864,-0.036274,0.055389,0.245423,26.682940,27.860336,-32.716675,,,,,,,
1504199063.562165,0.134039,0.493702,1.786521,-0.062407,0.309626,-1.000776,0.117680,-0.473889,-0.872686,-0.016483,0.020352,0.146383,26.682940,27.860336,-32.716675,,,,,,,
1504199063.572174,0.141044,0.491028,1.775034,-0.149130,0.107928,-1.049672,0.123967,-0.471532,-0.873092,-0.009053,0.006033,0.098037,26.832445,28.235413,-32.419098,,,,,,,
1504199063.582184,0.146257,0.487284,1.763313,-0.243266,-0.078805,-1.085797,0.128774,-0.468228,-0.874174,-0.009068,0.017452,0.037092,26.832445,28.235413,-32.419098,,,,,,,
1504199063.592194,0.149649,0.482901,1.751385,-0.274369,-0.249017,-1.112236,0.132042,-0.464350,-0.875753,-0.004815,0.053813,0.026403,27.131502,28.611771,-32.421173,,,,,,,
1504199063.602204,0.150441,0.478691,1.738918,-0.254524,-0.601840,-1.163882,0.133028,-0.460618,-0.877573,0.053465,0.206238,-0.037100,27.131502,28.611771,-32.421173,,,,,,,
1504199063.612212,0.149352,0.474187,1.726932,-0.293456,-0.643117,-1.125450,0.132380,-0.456615,-0.879760,0.081899,0.158184,-0.184571,26.680040,29.060196,-32.650665,,,,,,,
1504199063.622222,0.147580,0.470497,1.715197,-0.170003,-0.774207,-1.058826,0.131067,-0.453330,-0.881654,0.073690,-0.094781,-0.089339,26.680040,29.060196,-32.650665,,,,,,,
1504199063.632232,0.142326,0.468187,1.705220,-0.078901,-1.003195,-0.866132,0.126582,-0.451270,-0.883364,0.119390,0.057715,-0.142545,26.453722,29.359924,-33.028503,,,,,,,
1504199063.642242,0.135536,0.467687,1.696983,0.093617,-1.065542,-0.686400,0.120611,-0.450823,-0.884427,0.076487,-0.022215,-0.124774,26.453722,29.359924,-33.028503,,,,,,,
1504199063.652251,0.127658,0.469551,1.690612,0.317798,-1.062263,-0.491750,0.113533,-0.452486,-0.884515,0.031288,-0.104216,-0.037177,25.927446,29.733017,-33.257599,,,,,,,
1504199063.662261,0.119803,0.474309,1.685412,0.612074,-1.015788,-0.377110,0.106323,-0.456724,-0.883232,0.038712,-0.022036,-0.036812,25.927446,29.733017,-33.257599,,,,,,,
1504199063.672282,0.110188,0.481057,1.680910,0.681437,-1.223182,-0.283760,0.097485,-0.462716,-0.881130,0.004444,-0.019904,-0.062428,25.252367,29.804840,-33.184814,,,,,,,
1504199063.682292,0.100741,0.484545,1.677633,0.244158,-1.042735,-0.242140,0.088994,-0.465806,-0.880400,-0.003575,0.002809,-0.084871,25.252367,29.804840,-33.184814,,,,,,,
1504199063.692271,0.092097,0.483499,1.674575,-0.152286,-1.019167,-0.296238,0.081425,-0.464880,-0.881622,0.058757,0.139684,0.148361,24.427263,29.577026,-33.635193,,,,,,,
1504199063.702281,0.082142,0.479816,1.670399,-0.393377,-1.239738,-0.443569,0.072785,-0.461616,-0.884089,-0.024231,0.177009,0.147242,24.427263,29.577026,-33.635193,,,,,,,
1504199063.712290,0.072574,0.474015,1.664043,-0.576766,-1.230536,-0.668057,0.064516,-0.456462,-0.887401,-0.104051,0.137141,0.088603,23.827089,29.425079,-34.010529,,,,,,,
1504199063.722300,0.065123,0.466897,1.654717,-0.666491,-1.152779,-0.951211,0.058112,-0.450118,-0.891076,-0.137992,0.058394,0.222619,23.827089,29.425079,-34.010529,,,,,,,
1504199063.732310,0.059329,0.459891,1.642151,-0.608440,-1.136986,-1.227596,0.053133,-0.443851,-0.894524,-0.142672,0.002154,0.265099,23.074648,30.172455,-34.393036,,,,,,,
1504199063.742320,0.054696,0.453983,1.627749,-0.480508,-1.084646,-1.337409,0.049131,-0.438548,-0.897364,-0.119154,-0.047459,0.233896,23.074648,30.172455,-34.393036,,,,,,,
1504199063.752330,0.050043,0.450008,1.613443,-0.272822,-1.097068,-1.283657,0.045042,-0.434973,-0.899316,-0.025709,-0.095453,0.232935,22.247393,30.844498,-34.775146,,,,,,,
1504199063.762339,0.044158,0.448356,1.600273,-0.057493,-1.179952,-1.163588,0.039781,-0.433485,-0.900283,0.089690,-0.145129,0.205077,22.247393,30.844498,-34.775146,,,,,,,
1504199063.772349,0.036967,0.448692,1.587614,0.123899,-1.299748,-1.143850,0.033300,-0.433788,-0.900400,0.163584,-0.103520,0.187753,21.270739,31.365570,-35.006500,,,,,,,
1504199063.782359,0.028339,0.450675,1.573739,0.267878,-1.526697,-1.281962,0.025506,-0.435573,-0.899792,0.173728,0.006954,0.199993,21.270739,31.365570,-35.006500,,,,,,,
1504199063.792369,0.017937,0.453464,1.557541,0.319987,-1.826318,-1.514037,0.016123,-0.438082,-0.898790,0.155050,0.087527,0.176424,20.369921,31.512115,-35.309845,,,,,,,
1504199063.802378,0.006131,0.456096,1.538124,0.265011,-2.088748,-1.822149,0.005504,-0.440446,-0.897762,0.160603,0.119844,0.168957,20.369921,31.512115,-35.309845,,,,,,,
1504199063.812388,-0.005566,0.457640,1.514891,0.109972,-2.213916,-2.170170,-0.004993,-0.441832,-0.897084,0.172428,0.107482,0.198002,19.094469,31.506989,-35.613007,,,,,,,
1504199063.822398,-0.015784,0.456989,1.487857,-0.169932,-2.203799,-2.509039,-0.014164,-0.441248,-0.897274,0.194630,0.111673,0.222469,19.094469,31.506989,-35.613007,,,,,,,
1504199063.832408,-0.023911,0.453190,1.457154,-0.516837,-2.149470,-2.820350,-0.021495,-0.437836,-0.898798,0.192623,0.139343,0.182123,17.367678,31.950134,-36.070648,,,,,,,
1504199063.842417,-0.030050,0.446445,1.423710,-0.835910,-2.025138,-3.037805,-0.027101,-0.431762,-0.901580,0.120195,0.144744,0.149551,17.367678,31.950134,-36.070648,,,,,,,
1504199063.852427,-0.033646,0.436842,1.388703,-1.125812,-1.793523,-3.156130,-0.030481,-0.423080,-0.905579,0.014505,0.093444,0.151093,15.489840,32.767746,-36.606445,,,,,,,
1504199063.862437,-0.034668,0.425798,1.352953,-1.223688,-1.529451,-3.217607,-0.031567,-0.413048,-0.910162,-0.040821,0.037453,0.138861,15.489840,32.767746,-36.606445,,,,,,,
1504199063.872447,-0.033545,0.415785,1.317096,-1.058527,-1.300622,-3.235871,-0.030681,-0.403908,-0.914285,-0.074498,-0.010139,0.167917,14.437624,33.737717,-36.466370,,,,,,,
1504199063.882456,-0.031052,0.408065,1.281787,-0.815087,-1.116195,-3.189876,-0.028498,-0.396834,-0.917448,-0.120214,-0.031709,0.194395,14.437624,33.737717,-36.466370,,,,,,,
1504199063.892466,-0.027240,0.402607,1.247878,-0.575016,-0.900924,-3.060684,-0.025059,-0.391818,-0.919701,-0.152599,0.001178,0.187539,13.385408,34.707703,-36.326294,,,,,,,
1504199063.902476,-0.022324,0.399407,1.215790,-0.336264,-0.713868,-2.905767,-0.020565,-0.388872,-0.921062,-0.174259,0.022280,0.178096,13.385408,34.707703,-36.326294,,,,,,,
1504199063.912486,-0.016285,0.397856,1.185089,-0.172227,-0.549094,-2.801168,-0.015013,-0.387443,-0.921772,-0.200152,0.016761,0.162006,12.483675,35.303955,-36.483002,,,,,,,
1504199063.922496,-0.009425,0.397338,1.155415,-0.060838,-0.437155,-2.707241,-0.008691,-0.386965,-0.922054,-0.229377,0.035174,0.139033,12.483675,35.303955,-36.483002,,,,,,,
1504199063.932505,-0.002404,0.397768,1.127110,0.058388,-0.387128,-2.572630,-0.002216,-0.387362,-0.921925,-0.247830,0.072970,0.103718,11.808901,35.300629,-36.334686,,,,,,,
1504199063.942515,0.004071,0.399351,1.100276,0.197379,-0.401199,-2.438939,0.003751,-0.388820,-0.921306,-0.254895,0.084514,0.074443,11.808901,35.300629,-36.334686,,,,,,,
1504199063.952494,0.009537,0.402583,1.074973,0.391439,-0.454106,-2.284803,0.008775,-0.391796,-0.920010,-0.259690,0.097424,0.045239,11.283464,35.523117,-36.262634,,,,,,,
1504199063.962504,0.013825,0.407973,1.051508,0.621602,-0.510537,-2.101779,0.012690,-0.396750,-0.917839,-0.247553,0.104483,0.021553,11.283464,35.523117,-36.262634,,,,,,,
1504199063.972514,0.017013,0.415469,1.029812,0.825222,-0.561404,-1.935889,0.015565,-0.403619,-0.914795,-0.217057,0.100488,0.003219,10.834368,35.295639,-36.037048,,,,,,,
1504199063.982524,0.019439,0.424146,1.009362,0.915076,-0.597424,-1.825728,0.017715,-0.411542,-0.911218,-0.182602,0.112287,-0.027701,10.834368,35.295639,-36.037048,,,,,,,
1504199063.992533,0.021553,0.432938,0.989512,0.910401,-0.617683,-1.776600,0.019563,-0.419539,-0.907526,-0.150285,0.129287,-0.061041,10.235353,34.768402,-36.259613,,,,,,,
1504199064.002543,0.023549,0.441265,0.969939,0.856803,-0.627932,-1.742517,0.021291,-0.427084,-0.903961,-0.129537,0.136770,-0.089233,10.235353,34.768402,-36.259613,,,,,,,
1504199064.012553,0.025419,0.449141,0.950882,0.824418,-0.638383,-1.683848,0.022896,-0.434192,-0.900530,-0.113442,0.136950,-0.101302,9.261568,34.239166,-36.333069,,,,,,,
1504199064.022563,0.027087,0.456669,0.932039,0.783619,-0.665760,-1.676399,0.024308,-0.440961,-0.897197,-0.102006,0.110166,-0.092000,9.261568,34.239166,-36.333069,,,,,,,
1504199064.032572,0.028612,0.463346,0.912437,0.686365,-0.737334,-1.758631,0.025592,-0.446944,-0.894196,-0.113375,0.077910,-0.079666,8.512545,33.711243,-36.556000,,,,,,,
1504199064.042582,0.030028,0.468352,0.892208,0.505937,-0.773108,-1.793037,0.026791,-0.451416,-0.891911,-0.126080,0.088455,-0.099696,8.512545,33.711243,-36.556000,,,,,,,
1504199064.052592,0.031187,0.471640,0.872202,0.349806,-0.797431,-1.760176,0.027778,-0.454348,-0.890391,-0.125495,0.098116,-0.118322,7.914553,33.182632,-36.103516,,,,,,,
1504199064.062602,0.031725,0.473878,0.852992,0.257410,-0.825528,-1.677029,0.028224,-0.456340,-0.889358,-0.141506,0.051906,-0.113572,7.914553,33.182632,-36.103516,,,,,,,
1504199064.072612,0.031532,0.475653,0.835169,0.225820,-0.825403,-1.546860,0.028027,-0.457919,-0.888552,-0.159299,0.013644,-0.098173,7.466768,32.430176,-35.873962,,,,,,,
1504199064.082621,0.030820,0.477646,0.818943,0.251846,-0.811922,-1.395268,0.027366,-0.459690,-0.887658,-0.167228,-0.000362,-0.074852,7.466768,32.430176,-35.873962,,,,,,,
1504199064.092631,0.029605,0.479950,0.804214,0.275892,-0.795202,-1.269302,0.026256,-0.461735,-0.886629,-0.164424,-0.003582,-0.061018,6.717714,32.051804,-35.872986,,,,,,,
1504199064.102641,0.028020,0.482465,0.790682,0.287247,-0.778353,-1.165774,0.024818,-0.463964,-0.885506,-0.149864,0.015646,-0.053489,6.717714,32.051804,-35.872986,,,,,,,
1504199064.112651,0.026192,0.484993,0.778150,0.283967,-0.742173,-1.092193,0.023168,-0.466202,-0.884375,-0.126699,0.030030,-0.049219,6.193102,31.899445,-35.873169,,,,,,,
1504199064.122660,0.024833,0.487270,0.765987,0.239458,-0.686425,-1.063549,0.021940,-0.468216,-0.883342,-0.104994,0.038330,-0.038045,6.193102,31.899445,-35.873169,,,,,,,
1504199064.132670,0.024180,0.488884,0.754000,0.170654,-0.608086,-1.047795,0.021346,-0.469641,-0.882599,-0.100219,0.051871,-0.026763,5.519014,31.446716,-36.021484,,,,,,,
1504199064.142680,0.024172,0.489972,0.742532,0.122017,-0.518233,-0.992533,0.021326,-0.470601,-0.882088,-0.104959,0.057424,-0.012809,5.519014,31.446716,-36.021484,,,,,,,
1504199064.152690,0.024073,0.490918,0.732205,0.126352,-0.450171,-0.897646,0.021228,-0.471436,-0.881645,-0.118457,0.039979,0.001976,5.294649,31.370102,-35.721466,,,,,,,
1504199064.162699,0.024124,0.492487,0.723005,0.196352,-0.425302,-0.773750,0.021255,-0.472819,-0.880903,-0.133758,0.024592,0.013365,5.294649,31.370102,-35.721466,,,,,,,
1504199064.172709,0.023552,0.494807,0.715185,0.261877,-0.430226,-0.656213,0.020725,-0.474861,-0.879817,-0.134128,0.018257,0.010996,4.994661,31.368759,-35.722198,,,,,,,
1504199064.182719,0.022426,0.497397,0.708310,0.273103,-0.447446,-0.581445,0.019707,-0.477140,-0.878606,-0.130684,0.026365,0.000509,4.994661,31.368759,-35.722198,,,,,,,
1504199064.192729,0.015437,0.497861,0.704616,0.237466,-0.463191,-0.533449,0.013562,-0.477547,-0.878501,-0.118085,0.053551,-0.018258,4.396196,31.065002,-35.196442,,,,,,,
1504199064.202738,0.013444,0.499884,0.698818,0.203001,-0.481060,-0.497186,0.011799,-0.479324,-0.877559,-0.108112,0.071883,-0.031270,4.396196,31.065002,-35.196442,,,,,,,
1504199064.212718,0.011130,0.501722,0.693467,0.186733,-0.489492,-0.457705,0.009758,-0.480936,-0.876701,-0.098382,0.071757,-0.030998,4.021502,30.763916,-35.495087,,,,,,,
1504199064.222727,0.008596,0.503632,0.688480,0.200419,-0.493898,-0.427786,0.007528,-0.482610,-0.875803,-0.092459,0.063634,-0.018240,4.021502,30.763916,-35.495087,,,,,,,
1504199064.232737,0.003902,0.504554,0.684740,0.235413,-0.501661,-0.402098,0.003416,-0.483417,-0.875384,-0.085997,0.063541,-0.004575,3.647676,30.386932,-35.343201,,,,,,,
1504199064.242747,0.001112,0.507284,0.680230,0.288757,-0.494654,-0.390277,0.000972,-0.485805,-0.874067,-0.081645,0.070690,0.006223,3.647676,30.386932,-35.343201,,,,,,,
1504199064.252757,-0.001449,0.510705,0.675808,0.361563,-0.460093,-0.385942,-0.001264,-0.488792,-0.872399,-0.079852,0.074715,0.013757,3.273211,30.309799,-35.118561,,,,,,,
1504199064.262767,-0.003386,0.514855,0.671222,0.425109,-0.398789,-0.407288,-0.002947,-0.492409,-0.870359,-0.076368,0.083062,0.014448,3.273211,30.309799,-35.118561,,,,,,,
1504199064.272776,-0.004749,0.518381,0.666592,0.456044,-0.286041,-0.441594,-0.004125,-0.495475,-0.868613,-0.076289,0.100669,0.004919,3.348955,30.010132,-35.116119,,,,,,,
1504199064.282786,-0.003857,0.523003,0.661155,0.458421,-0.147490,-0.482396,-0.003341,-0.499484,-0.866317,-0.084717,0.101824,-0.002625,3.348955,30.010132,-35.116119,,,,,,,
1504199064.292796,-0.001543,0.527490,0.655396,0.441323,-0.030112,-0.502913,-0.001333,-0.503366,-0.864072,-0.100245,0.092172,-0.014208,3.050249,29.633331,-34.889069,,,,,,,
1504199064.302806,0.001628,0.531745,0.649624,0.420487,0.039313,-0.492398,0.001403,-0.507038,-0.861922,-0.115081,0.079045,-0.030259,3.050249,29.633331,-34.889069,,,,,,,
1504199064.312815,0.000780,0.533511,0.646369,0.386291,0.064074,-0.451945,0.000672,-0.508559,-0.861027,-0.123780,0.053878,-0.043209,2.676378,29.181656,-34.886627,,,,,,,
1504199064.322825,0.003784,0.536884,0.641535,0.319756,0.046456,-0.402928,0.003251,-0.511461,-0.859300,-0.131669,0.036134,-0.056074,2.676378,29.181656,-34.886627,,,,,,,
1504199064.332835,0.006195,0.539383,0.637166,0.228552,0.006673,-0.363522,0.005316,-0.513607,-0.858009,-0.130727,0.035381,-0.069451,2.827547,28.807022,-34.733398,,,,,,,
1504199064.342845,0.007889,0.541018,0.633264,0.145792,-0.043836,-0.323016,0.006763,-0.515009,-0.857158,-0.127353,0.035150,-0.077885,2.827547,28.807022,-34.733398,,,,,,,
1504199064.352854,0.001466,0.537662,0.633548,0.073663,-0.095457,-0.294241,0.001259,-0.512129,-0.858907,-0.115929,0.031065,-0.078654,2.902620,28.732513,-34.807678,,,,,,,
1504199064.362864,0.001924,0.537884,0.630255,0.006094,-0.130081,-0.279353,0.001652,-0.512320,-0.858793,-0.111042,0.031028,-0.078875,2.902620,28.732513,-34.807678,,,,,,,
1504199064.372874,0.002157,0.537581,0.626901,-0.038843,-0.153142,-0.291132,0.001852,-0.512059,-0.858948,-0.110678,0.035970,-0.071350,2.677965,28.506790,-34.956543,,,,,,,
1504199064.382884,0.002247,0.536912,0.623473,-0.075231,-0.169887,-0.295435,0.001931,-0.511485,-0.859290,-0.115105,0.038142,-0.060296,2.677965,28.506790,-34.956543,,,,,,,
1504199064.392894,-0.005053,0.532316,0.623774,-0.122382,-0.181213,-0.289099,-0.004354,-0.507530,-0.861623,-0.110652,0.033882,-0.053172,2.528337,28.580368,-34.582458,,,,,,,
1504199064.402903,-0.005272,0.530603,0.620469,-0.192912,-0.191295,-0.282799,-0.004547,-0.506054,-0.862490,-0.114426,0.031002,-0.052351,2.528337,28.580368,-34.582458,,,,,,,
1504199064.412913,-0.005658,0.527907,0.617264,-0.298697,-0.203224,-0.270153,-0.004888,-0.503726,-0.863849,-0.116481,0.027210,-0.056408,2.603518,28.505707,-34.581726,,,,,,,
1504199064.422923,-0.006222,0.524003,0.614331,-0.423660,-0.204351,-0.245817,-0.005387,-0.500350,-0.865807,-0.114943,0.020278,-0.053902,2.603518,28.505707,-34.581726,,,,,,,
1504199064.432933,-0.011233,0.518020,0.613759,-0.536949,-0.209848,-0.224655,-0.009759,-0.495160,-0.868747,-0.111854,0.012815,-0.044354,2.528337,28.580368,-34.582458,,,,,,,
1504199064.442942,-0.012138,0.512269,0.611287,-0.582970,-0.213754,-0.202312,-0.010580,-0.490156,-0.871570,-0.115503,0.012968,-0.030209,2.528337,28.580368,-34.582458,,,,,,,
1504199064.452952,-0.013233,0.506707,0.609163,-0.542591,-0.213057,-0.168086,-0.011570,-0.485301,-0.874271,-0.119137,0.006969,-0.009045,2.228411,28.728424,-34.284302,,,,,,,
1504199064.462931,-0.014535,0.501813,0.607512,-0.474452,-0.207264,-0.129552,-0.012743,-0.481016,-0.876619,-0.120268,-0.007235,0.010881,2.228411,28.728424,-34.284302,,,,,,,
1504199064.472941,-0.023908,0.500351,0.609835,-0.410568,-0.213233,-0.125141,-0.020975,-0.479733,-0.877164,-0.110876,-0.005176,0.020978,2.227617,28.953720,-34.436035,,,,,,,
1504199064.482951,-0.025300,0.496661,0.608154,-0.358259,-0.222167,-0.145315,-0.022241,-0.476493,-0.878897,-0.106223,0.001273,0.022360,2.227617,28.953720,-34.436035,,,,,,,
1504199064.492961,-0.026749,0.493639,0.606134,-0.287882,-0.247222,-0.177171,-0.023553,-0.473833,-0.880300,-0.101768,0.009432,0.026952,2.152697,29.102798,-34.137329,,,,,,,
1504199064.502970,-0.028352,0.491462,0.603884,-0.199444,-0.274570,-0.197250,-0.024993,-0.471915,-0.881290,-0.100358,0.017493,0.025455,2.152697,29.102798,-34.137329,,,,,,,
1504199064.512980,-0.036504,0.490626,0.604357,-0.120635,-0.304013,-0.226938,-0.032191,-0.471178,-0.881450,-0.093785,0.021242,0.024593,1.927095,29.252075,-34.289001,,,,,,,
1504199064.522990,-0.038353,0.489954,0.601553,-0.061979,-0.320458,-0.248156,-0.033833,-0.470585,-0.881706,-0.100887,0.030964,0.014488,1.927095,29.252075,-34.289001,,,,,,,
1504199064.533000,-0.040306,0.489946,0.598810,0.006241,-0.321032,-0.236295,-0.035554,-0.470578,-0.881642,-0.109267,0.034452,0.003926,1.552431,29.249954,-34.064911,,,,,,,
1504199064.543009,-0.042021,0.490403,0.596518,0.045977,-0.260667,-0.191502,-0.037058,-0.470982,-0.881364,-0.115789,0.014683,-0.004058,1.552431,29.249954,-34.064911,,,,,,,
1504199064.553019,-0.050632,0.493468,0.598505,0.071063,-0.144884,-0.127599,-0.044572,-0.473683,-0.879567,-0.113890,-0.016124,-0.003627,1.552370,29.324799,-33.990479,,,,,,,
1504199064.563029,-0.050550,0.494290,0.597632,0.078359,0.004178,-0.068075,-0.044480,-0.474407,-0.879181,-0.113707,-0.047810,0.001557,1.552370,29.324799,-33.990479,,,,,,,
1504199064.573039,-0.049299,0.495082,0.597028,0.076049,0.123531,-0.055481,-0.043362,-0.475104,-0.878861,-0.106144,-0.054330,-0.002121,1.553118,29.024796,-33.988220,,,,,,,
1504199064.583049,-0.047292,0.495762,0.596396,0.060507,0.178010,-0.060941,-0.041583,-0.475702,-0.878623,-0.096509,-0.036062,-0.021447,1.553118,29.024796,-33.988220,,,,,,,
1504199064.593058,-0.050136,0.496208,0.597783,0.054935,0.136497,-0.088622,-0.044071,-0.476094,-0.878289,-0.084545,-0.016749,-0.051978,1.478151,29.099167,-33.838959,,,,,,,
1504199064.603068,-0.049026,0.496745,0.596732,0.047722,0.031069,-0.094853,-0.043083,-0.476567,-0.878082,-0.087395,-0.008983,-0.086991,1.478151,29.099167,-33.838959,,,,,,,
1504199064.613078,-0.049362,0.497133,0.595887,0.027247,-0.110516,-0.066886,-0.043369,-0.476907,-0.877883,-0.092831,-0.011343,-0.115754,1.254778,28.498001,-33.760040,,,,,,,
1504199064.623088,-0.051456,0.496928,0.595686,-0.043591,-0.253860,0.001557,-0.045213,-0.476727,-0.877888,-0.100600,-0.035205,-0.133922,1.254778,28.498001,-33.760040,,,,,,,
1504199064.633097,-0.055132,0.495730,0.596313,-0.141964,-0.365020,0.080571,-0.048471,-0.475674,-0.878285,-0.108099,-0.061710,-0.141292,1.254778,28.498001,-33.760040,,,,,,,
1504199064.643107,-0.060003,0.493588,0.597685,-0.226091,-0.435793,0.148864,-0.052809,-0.473789,-0.879054,-0.113130,-0.082516,-0.138265,1.254778,28.498001,-33.760040,,,,,,,
1504199064.653117,-0.065587,0.490850,0.599724,-0.270389,-0.466395,0.210750,-0.057801,-0.471376,-0.880036,-0.107024,-0.090285,-0.126388,1.404329,28.723526,-33.686340,,,,,,,
1504199064.663127,-0.071275,0.487692,0.602128,-0.310932,-0.449040,0.238402,-0.062912,-0.468589,-0.881174,-0.090439,-0.084085,-0.114340,1.404329,28.723526,-33.686340,,,,,,,
1504199064.673098,-0.076537,0.484079,0.604475,-0.358531,-0.402818,0.229699,-0.067677,-0.465393,-0.882513,-0.075130,-0.070602,-0.106546,0.953981,28.946198,-33.539154,,,,,,,
1504199064.683108,-0.080999,0.479967,0.606515,-0.406970,-0.337393,0.206016,-0.071769,-0.461750,-0.884102,-0.065774,-0.056744,-0.102943,0.953981,28.946198,-33.539154,,,,,,,
1504199064.693118,-0.084628,0.475457,0.608102,-0.446813,-0.273090,0.168475,-0.075152,-0.457745,-0.885902,-0.057554,-0.051014,-0.100274,0.278582,29.242722,-33.318054,,,,,,,
1504199064.703128,-0.087325,0.470580,0.609198,-0.488725,-0.201309,0.129849,-0.077734,-0.453403,-0.887909,-0.051935,-0.049313,-0.095687,0.278582,29.242722,-33.318054,,,,,,,
1504199064.713107,-0.089048,0.465409,0.609857,-0.511412,-0.124364,0.095517,-0.079472,-0.448788,-0.890097,-0.045559,-0.048144,-0.082269,0.353319,29.392914,-33.243988,,,,,,,
1504199064.723117,-0.089885,0.460432,0.610052,-0.485058,-0.059531,0.049550,-0.080416,-0.444335,-0.892244,-0.035123,-0.045396,-0.065886,0.353319,29.392914,-33.243988,,,,,,,
1504199064.733126,-0.090687,0.456773,0.609949,-0.420165,0.002865,-0.027296,-0.081278,-0.441055,-0.893792,-0.025579,-0.039323,-0.049338,0.202333,29.916794,-33.023315,,,,,,,
1504199064.743136,-0.089897,0.453487,0.608579,-0.309688,0.021227,-0.114664,-0.080702,-0.438103,-0.895295,-0.025423,-0.030464,-0.034713,0.202333,29.916794,-33.023315,,,,,,,
1504199064.753146,-0.088681,0.451316,0.606392,-0.210012,0.025821,-0.197757,-0.079697,-0.436150,-0.896338,-0.022079,-0.028388,-0.029703,0.277178,30.066833,-32.874237,,,,,,,
1504199064.763156,-0.087256,0.450070,0.603433,-0.127638,0.008168,-0.270166,-0.078467,-0.435029,-0.896991,-0.027124,-0.033920,-0.023404,0.277178,30.066833,-32.874237,,,,,,,
1504199064.773166,-0.088406,0.451799,0.601049,-0.056297,-0.035054,-0.312652,-0.079432,-0.436585,-0.896150,-0.040853,-0.040679,-0.026214,0.501619,30.068588,-33.248688,,,,,,,
1504199064.783175,-0.087712,0.452019,0.597461,0.011495,-0.103799,-0.324154,-0.078801,-0.436782,-0.896109,-0.067378,-0.045502,-0.031961,0.501619,30.068588,-33.248688,,,,,,,
1504199064.793185,-0.087829,0.453042,0.594121,0.100418,-0.175952,-0.299323,-0.078867,-0.437703,-0.895654,-0.099767,-0.044094,-0.039771,0.651278,30.293961,-33.100006,,,,,,,
1504199064.803195,-0.088868,0.455076,0.591473,0.208491,-0.232317,-0.238194,-0.079719,-0.439530,-0.894683,-0.127282,-0.044005,-0.047623,0.651278,30.293961,-33.100006,,,,,,,
1504199064.813205,-0.096693,0.459267,0.592350,0.292135,-0.264045,-0.168595,-0.086538,-0.443291,-0.892191,-0.140635,-0.043479,-0.056601,0.426805,30.217499,-32.875000,,,,,,,
1504199064.823214,-0.098818,0.462590,0.591420,0.328193,-0.247365,-0.098114,-0.088289,-0.446268,-0.890534,-0.148879,-0.047995,-0.064071,0.426805,30.217499,-32.875000,,,,,,,
1504199064.833224,-0.100917,0.465881,0.591291,0.323932,-0.202648,-0.027751,-0.090009,-0.449210,-0.888881,-0.148654,-0.054894,-0.068731,0.352449,29.917313,-32.947937,,,,,,,
1504199064.843234,-0.102792,0.468734,0.591809,0.271782,-0.151129,0.028640,-0.091543,-0.451757,-0.887432,-0.138758,-0.052149,-0.079228,0.352449,29.917313,-32.947937,,,,,,,
1504199064.853244,-0.104314,0.470713,0.592620,0.179196,-0.103509,0.057215,-0.092801,-0.453522,-0.886400,-0.122546,-0.035293,-0.094129,-0.021345,29.615036,-32.646606,,,,,,,
1504199064.863253,-0.105565,0.471734,0.593481,0.088622,-0.082528,0.067695,-0.093861,-0.454431,-0.885823,-0.109615,-0.007254,-0.107204,-0.021345,29.615036,-32.646606,,,,,,,
1504199064.873263,-0.106845,0.472111,0.594429,0.034087,-0.086360,0.085753,-0.094976,-0.454767,-0.885532,-0.104258,0.009470,-0.112698,-0.095976,29.464691,-32.645660,,,,,,,
1504199064.883273,-0.108483,0.471972,0.595725,-0.013276,-0.112653,0.127346,-0.096433,-0.454643,-0.885438,-0.110095,0.012245,-0.115722,-0.095976,29.464691,-32.645660,,,,,,,
1504199064.893283,-0.110658,0.471296,0.597485,-0.062877,-0.147460,0.176422,-0.098393,-0.454042,-0.885531,-0.123989,0.011308,-0.116178,-0.246229,29.613861,-32.572144,,,,,,,
1504199064.903293,-0.113512,0.470009,0.599841,-0.118862,-0.185804,0.238345,-0.100986,-0.452895,-0.885826,-0.133359,0.012221,-0.118919,-0.246229,29.613861,-32.572144,,,,,,,
1504199064.913302,-0.116898,0.468110,0.602798,-0.170566,-0.209949,0.298072,-0.104085,-0.451201,-0.886332,-0.131252,0.013396,-0.112356,-0.170362,29.314056,-32.494690,,,,,,,
1504199064.923312,-0.124708,0.463347,0.608149,-0.216931,-0.226676,0.361003,-0.111270,-0.446945,-0.887614,-0.117002,0.000274,-0.099446,-0.170362,29.314056,-32.494690,,,,,,,
1504199064.933322,-0.129074,0.460495,0.612131,-0.238826,-0.275548,0.394141,-0.115308,-0.444392,-0.888381,-0.102526,-0.004980,-0.086671,-0.546492,29.762375,-32.498993,,,,,,,
1504199064.943332,-0.134326,0.457938,0.616128,-0.188356,-0.375053,0.383730,-0.120124,-0.442100,-0.888886,-0.092400,0.007087,-0.085815,-0.546492,29.762375,-32.498993,,,,,,,
1504199064.953341,-0.140802,0.456597,0.619886,-0.043125,-0.521124,0.338341,-0.125961,-0.440896,-0.888676,-0.085785,0.029107,-0.087170,-0.695814,29.536545,-32.422699,,,,,,,
1504199064.963351,-0.149417,0.456424,0.623423,0.195920,-0.702011,0.250479,-0.133624,-0.440741,-0.887633,-0.079023,0.047247,-0.082536,-0.695814,29.536545,-32.422699,,,,,,,
1504199064.973330,-0.158776,0.460348,0.625909,0.497234,-0.858874,0.125325,-0.141650,-0.444260,-0.884629,-0.075437,0.041855,-0.057739,-0.996824,29.985046,-32.351807,,,,,,,
1504199064.983340,-0.168584,0.467185,0.627370,0.749230,-0.923671,-0.018224,-0.149806,-0.450375,-0.880182,-0.068089,0.073712,-0.032080,-0.996824,29.985046,-32.351807,,,,,,,
1504199064.993350,-0.177403,0.475564,0.627530,0.846623,-0.847591,-0.170828,-0.156892,-0.457840,-0.875082,-0.060622,0.095382,-0.010615,-1.444868,29.382431,-32.048401,,,,,,,
1504199065.003360,-0.183890,0.484948,0.626044,0.932255,-0.656303,-0.348205,-0.161772,-0.466162,-0.869783,-0.058809,0.101340,0.004915,-1.444868,29.382431,-32.048401,,,,,,,
1504199065.013369,-0.186754,0.495799,0.622520,1.036915,-0.374562,-0.558799,-0.163314,-0.475734,-0.864295,-0.062913,0.069286,0.026877,-1.969557,29.304916,-31.974121,,,,,,,
1504199065.023379,-0.185327,0.508194,0.616972,1.156885,-0.037551,-0.755588,-0.160981,-0.486601,-0.858665,-0.065505,0.031416,0.047767,-1.969557,29.304916,-31.974121,,,,,,,
1504199065.033389,-0.179461,0.522056,0.609488,1.274640,0.299462,-0.936369,-0.154723,-0.498664,-0.852875,-0.061449,0.028754,0.058243,-2.116957,28.403793,-31.742737,,,,,,,
1504199065.043399,-0.169978,0.537899,0.600125,1.470415,0.519681,-1.116809,-0.145273,-0.512333,-0.846410,-0.061132,0.035450,0.059026,-2.116957,28.403793,-31.742737,,,,,,,
1504199065.053408,-0.158065,0.555640,0.589085,1.627844,0.646391,-1.245915,-0.133727,-0.527487,-0.838972,-0.072922,0.028082,0.033613,-1.889402,27.429642,-31.659882,,,,,,,
1504199065.063418,-0.144810,0.574066,0.577251,1.672102,0.699325,-1.264078,-0.121173,-0.543051,-0.830911,-0.082990,0.024023,0.001000,-1.889402,27.429642,-31.659882,,,,,,,
1504199065.073428,-0.131334,0.591663,0.565617,1.577832,0.706404,-1.176726,-0.108696,-0.557742,-0.822866,-0.100548,0.002002,-0.041056,-1.361250,26.082306,-31.798462,,,,,,,
1504199065.083438,-0.118704,0.607249,0.554903,1.377017,0.634381,-1.031781,-0.097253,-0.570611,-0.815442,-0.122443,-0.018928,-0.086337,-1.361250,26.082306,-31.798462,,,,,,,
1504199065.093448,-0.108238,0.619811,0.545577,1.089795,0.452212,-0.852634,-0.087932,-0.580881,-0.809225,-0.137288,-0.025335,-0.134898,-0.758192,24.959702,-31.638519,,,,,,,
1504199065.103457,-0.101547,0.629671,0.537668,0.855892,0.115122,-0.701941,-0.081931,-0.588879,-0.804058,-0.134973,-0.034595,-0.189289,-0.758192,24.959702,-31.638519,,,,,,,
1504199065.113467,-0.099715,0.637301,0.531243,0.661880,-0.307539,-0.557432,-0.080009,-0.595028,-0.799713,-0.131493,-0.051334,-0.233140,-0.756498,24.284698,-31.633453,,,,,,,
1504199065.123477,-0.103192,0.643213,0.526088,0.512498,-0.772094,-0.443727,-0.082425,-0.599770,-0.795916,-0.113589,-0.061363,-0.259351,-0.756498,24.284698,-31.633453,,,,,,,
1504199065.133487,-0.112379,0.647819,0.522126,0.401137,-1.289169,-0.336268,-0.089423,-0.603448,-0.792372,-0.103631,-0.071585,-0.277116,-0.529387,23.535400,-31.477295,,,,,,,
1504199065.143496,-0.127746,0.651838,0.519627,0.374996,-1.814421,-0.214771,-0.101278,-0.606648,-0.788493,-0.084086,-0.077998,-0.303518,-0.529387,23.535400,-31.477295,,,,,,,
1504199065.153506,-0.148916,0.655798,0.518885,0.384576,-2.266455,-0.078397,-0.117590,-0.609792,-0.783790,-0.055033,-0.073543,-0.320702,-1.353102,23.156250,-31.251495,,,,,,,
1504199065.163516,-0.174247,0.659536,0.519953,0.376585,-2.514814,0.056520,-0.137008,-0.612750,-0.778310,-0.031953,-0.045926,-0.324489,-1.353102,23.156250,-31.251495,,,,,,,
1504199065.173526,-0.201454,0.662642,0.522476,0.330836,-2.568888,0.157939,-0.157748,-0.615202,-0.772426,-0.019727,0.003401,-0.307438,-2.702238,23.074280,-30.804230,,,,,,,
1504199065.183535,-0.229444,0.665632,0.525156,0.346197,-2.669148,0.126121,-0.178885,-0.617556,-0.765914,-0.011713,0.047259,-0.277543,-2.702238,23.074280,-30.804230,,,,,,,
1504199065.193545,-0.257604,0.669015,0.526917,0.367798,-2.702250,0.020544,-0.199846,-0.620214,-0.758549,0.006914,0.079824,-0.251476,-4.275709,22.915710,-30.056976,,,,,,,
1504199065.203555,-0.284705,0.673351,0.527216,0.443498,-2.671810,-0.134152,-0.219569,-0.623609,-0.750267,0.035579,0.089292,-0.191505,-4.275709,22.915710,-30.056976,,,,,,,
1504199065.213565,-0.308853,0.679042,0.525823,0.538036,-2.439030,-0.319060,-0.236539,-0.628048,-0.741354,0.041593,0.090450,-0.139277,-5.473524,22.533661,-29.232117,,,,,,,
1504199065.223544,-0.328593,0.686403,0.522538,0.642277,-2.074173,-0.526598,-0.249628,-0.633759,-0.732145,0.020013,0.077179,-0.084216,-5.473524,22.533661,-29.232117,,,,,,,
1504199065.233554,-0.342044,0.695041,0.517276,0.690146,-1.539444,-0.711052,-0.257606,-0.640417,-0.723536,-0.022988,0.057821,-0.046163,-6.596296,22.002411,-28.630951,,,,,,,
1504199065.243564,-0.348801,0.704563,0.510074,0.710158,-1.011958,-0.883799,-0.260394,-0.647701,-0.716016,-0.078336,0.037517,-0.021838,-6.596296,22.002411,-28.630951,,,,,,,
1504199065.253573,-0.349893,0.714836,0.500749,0.722650,-0.622940,-1.054180,-0.258881,-0.655493,-0.709443,-0.128525,0.028022,-0.045745,-7.493956,21.472015,-27.954193,,,,,,,
1504199065.263583,-0.346545,0.725472,0.489733,0.712711,-0.333965,-1.165717,-0.254122,-0.663488,-0.703708,-0.165296,0.023931,-0.086972,-7.493956,21.472015,-27.954193,,,,,,,
1504199065.273593,-0.340673,0.736066,0.477449,0.676694,-0.206798,-1.227913,-0.247623,-0.671377,-0.698524,-0.178845,0.001868,-0.119759,-7.490980,20.421570,-27.721313,,,,,,,
1504199065.283603,-0.333596,0.745829,0.464643,0.578921,-0.142084,-1.201511,-0.240515,-0.678581,-0.694032,-0.191568,-0.011132,-0.160536,-7.490980,20.421570,-27.721313,,,,,,,
1504199065.293612,-0.326292,0.754061,0.452032,0.443066,-0.132530,-1.115304,-0.233641,-0.684604,-0.690455,-0.196779,0.002506,-0.175298,-7.488935,19.746109,-27.491241,,,,,,,
1504199065.303622,-0.319946,0.760781,0.440169,0.341661,-0.197885,-0.996883,-0.227803,-0.689488,-0.687541,-0.193736,0.005955,-0.173863,-7.488935,19.746109,-27.491241,,,,,,,
1504199065.313632,-0.315435,0.766246,0.430305,0.286941,-0.241338,-0.790892,-0.223526,-0.693435,-0.684969,-0.192749,-0.003037,-0.165616,-7.262632,19.222122,-27.486755,,,,,,,
1504199065.323642,-0.313798,0.770781,0.423422,0.278458,-0.351275,-0.549480,-0.221432,-0.696696,-0.682336,-0.183521,-0.043859,-0.120352,-7.262632,19.222122,-27.486755,,,,,,,
1504199065.333651,-0.316445,0.774965,0.419293,0.319064,-0.629921,-0.366393,-0.222329,-0.699691,-0.678972,-0.181892,-0.089601,-0.081755,-7.261274,18.771820,-27.333374,,,,,,,
1504199065.343661,-0.323706,0.779883,0.417661,0.477293,-0.907353,-0.233271,-0.226155,-0.703196,-0.674069,-0.183848,-0.099294,-0.060245,-7.261274,18.771820,-27.333374,,,,,,,
1504199065.353671,-0.334841,0.786820,0.418762,0.758257,-1.063224,-0.126837,-0.232038,-0.708112,-0.666886,-0.179522,-0.089084,-0.033706,-15.664061,-13.398252,-26.805542,,,,,,,
1504199065.363681,-0.348438,0.796365,0.422410,1.048903,-1.102978,-0.064354,-0.238766,-0.714819,-0.657286,-0.186985,-0.102366,-0.010911,-16.261427,-14.450940,-26.799133,,,,,,,
1504199065.373690,-0.363402,0.807223,0.428214,1.175763,-1.058299,0.028651,-0.245800,-0.722370,-0.646346,-0.212436,-0.085400,-0.015381,-16.261427,-14.450940,-26.799133,,,,,,,
1504199065.383700,-0.378957,0.817419,0.436270,1.130044,-0.936613,0.191670,-0.253086,-0.729382,-0.635570,-0.216381,-0.034747,-0.037023,-16.261427,-14.450940,-26.799133,,,,,,,
1504199065.393710,-0.394916,0.825646,0.446785,0.993542,-0.790797,0.412129,-0.260879,-0.734986,-0.625890,-0.202653,0.019364,-0.053187,-16.859373,-14.680585,-25.823914,,,,,,,
1504199065.403720,-0.411838,0.831219,0.459808,0.812611,-0.721353,0.647589,-0.269789,-0.738754,-0.617622,-0.185854,0.065063,-0.069435,-16.859373,-14.680585,-25.823914,,,,,,,
1504199065.413730,-0.430415,0.834456,0.474585,0.669359,-0.791732,0.805440,-0.280216,-0.740931,-0.610328,-0.153301,0.111155,-0.084039,-17.232756,-15.282422,-25.745331,,,,,,,
1504199065.423739,-0.450808,0.836252,0.489632,0.566440,-0.968870,0.834394,-0.292023,-0.742136,-0.603288,-0.102447,0.124247,-0.076735,-17.232756,-15.282422,-25.745331,,,,,,,
1504199065.433749,-0.471521,0.837348,0.503449,0.494650,-1.055577,0.756502,-0.304086,-0.742871,-0.596385,-0.055732,0.043743,-0.032964,-18.056807,-15.436887,-25.371216,,,,,,,
1504199065.443759,-0.490717,0.838445,0.515790,0.474487,-0.971124,0.655982,-0.315093,-0.743604,-0.589720,-0.042176,-0.030321,0.015730,-18.056807,-15.436887,-25.371216,,,,,,,
1504199065.453769,-0.507206,0.839524,0.527122,0.427643,-0.725596,0.601031,-0.324384,-0.744326,-0.583742,-0.035663,-0.039686,0.042253,-18.506315,-15.364804,-24.922913,,,,,,,
1504199065.463778,-0.519325,0.839780,0.537136,0.317526,-0.380454,0.556468,-0.331339,-0.744496,-0.579603,-0.014379,-0.010219,0.053678,-18.506315,-15.364804,-24.922913,,,,,,,
1504199065.473788,-0.526620,0.838772,0.544955,0.119741,-0.077182,0.480873,-0.335936,-0.743823,-0.577819,0.000731,0.038851,0.053024,-19.480772,-15.444638,-24.699738,,,,,,,
1504199065.483767,-0.529411,0.836237,0.549952,-0.106378,0.145349,0.394696,-0.338498,-0.742126,-0.578505,0.013852,0.079605,0.053038,-19.480772,-15.444638,-24.699738,,,,,,,
1504199065.493777,-0.528504,0.832558,0.552504,-0.263580,0.316158,0.313000,-0.339348,-0.739655,-0.581166,0.037636,0.089524,0.078663,-19.706297,-15.370191,-24.925873,,,,,,,
1504199065.503787,-0.525257,0.828598,0.553459,-0.314681,0.415760,0.235883,-0.338925,-0.736984,-0.584794,0.063046,0.083252,0.127061,-19.706297,-15.370191,-24.925873,,,,,,,
1504199065.513797,-0.520945,0.825239,0.553730,-0.263860,0.456972,0.166517,-0.337631,-0.734710,-0.588394,0.087143,0.076690,0.179367,-19.781645,-15.370084,-25.151031,,,,,,,
1504199065.523806,-0.516702,0.822873,0.553781,-0.186011,0.413771,0.104819,-0.335989,-0.733103,-0.591331,0.110235,0.064523,0.234138,-19.633451,-14.918515,-25.604034,,,,,,,
1504199065.533816,-0.512542,0.821320,0.553569,-0.126121,0.399478,0.053713,-0.334084,-0.732045,-0.593715,0.119179,0.026647,0.272533,-19.633451,-14.918515,-25.604034,,,,,,,
1504199065.543826,-0.508740,0.820441,0.553860,-0.046204,0.396672,0.069867,-0.332138,-0.731447,-0.595542,0.118362,0.018663,0.301124,-19.633451,-14.918515,-25.604034,,,,,,,
1504199065.553836,-0.506399,0.820010,0.555517,0.040458,0.335149,0.137372,-0.330895,-0.731152,-0.596594,0.135949,0.022916,0.304022,-19.483183,-15.291944,-26.050903,,,,,,,
1504199065.563845,-0.506170,0.819993,0.558305,0.104137,0.182206,0.174044,-0.330764,-0.731141,-0.596681,0.163223,0.036698,0.280870,-19.484053,-15.216046,-26.501434,,,,,,,
1504199065.573855,-0.508127,0.820212,0.561221,0.118429,-0.043799,0.155254,-0.331854,-0.731291,-0.595892,0.187628,0.066282,0.255453,-19.484053,-15.216046,-26.501434,,,,,,,
1504199065.583865,-0.512189,0.820758,0.563747,0.138121,-0.276218,0.113002,-0.334076,-0.731663,-0.594191,0.202972,0.077656,0.245162,-19.484358,-15.140897,-26.577026,,,,,,,
1504199065.593875,-0.518067,0.821717,0.566177,0.176293,-0.451271,0.094163,-0.337215,-0.732316,-0.591607,0.206905,0.074845,0.259790,-19.484358,-15.140897,-26.577026,,,,,,,
1504199065.603885,-0.526080,0.823136,0.569007,0.236610,-0.645710,0.096746,-0.341422,-0.733282,-0.587987,0.204902,0.069692,0.284184,-19.933439,-15.368360,-26.351440,,,,,,,
1504199065.613894,-0.536784,0.825438,0.572489,0.351208,-0.867217,0.082391,-0.346832,-0.734845,-0.582846,0.199676,0.053266,0.298941,-19.933439,-15.368360,-26.351440,,,,,,,
1504199065.623904,-0.550056,0.829197,0.577128,0.532505,-1.016819,0.073363,-0.353091,-0.737389,-0.575833,0.189120,0.019356,0.317319,-20.306517,-15.821103,-25.823975,,,,,,,
1504199065.633914,-0.565312,0.834601,0.583248,0.724086,-1.084449,0.058870,-0.359695,-0.741029,-0.567006,0.182082,-0.009627,0.345342,-20.306517,-15.821103,-25.823975,,,,,,,
1504199065.643924,-0.581795,0.841720,0.590847,0.924845,-1.076489,0.036789,-0.366083,-0.745790,-0.556579,0.168344,-0.027342,0.363418,-20.830503,-16.049053,-25.523560,,,,,,,
1504199065.653933,-0.599298,0.850530,0.600607,1.148404,-0.995231,0.053044,-0.372047,-0.751630,-0.544640,0.154350,-0.040454,0.367776,-20.830503,-16.049053,-25.523560,,,,,,,
1504199065.663943,-0.617917,0.860873,0.612870,1.354823,-0.921292,0.071417,-0.377599,-0.758412,-0.531254,0.153722,-0.041820,0.354633,-21.578688,-16.279079,-24.698730,,,,,,,
1504199065.673944,-0.637481,0.872470,0.626931,1.508996,-0.870321,0.045977,-0.382658,-0.765919,-0.516662,0.153303,-0.015483,0.310226,-21.578688,-16.279079,-24.698730,,,,,,,
1504199065.683954,-0.657139,0.885334,0.642074,1.633924,-0.770043,-0.026567,-0.386689,-0.774127,-0.501198,0.156404,0.028750,0.261574,-21.650419,-16.956509,-23.643799,,,,,,,
1504199065.693963,-0.675545,0.899223,0.657247,1.688001,-0.615858,-0.139890,-0.389088,-0.782843,-0.485558,0.163761,0.066703,0.222192,-21.650419,-16.956509,-23.643799,,,,,,,
1504199065.703973,-0.691292,0.913574,0.671484,1.649772,-0.396978,-0.253487,-0.389482,-0.791692,-0.470666,0.171739,0.106161,0.185831,-21.948271,-17.409206,-22.966156,,,,,,,
1504199065.713983,-0.703585,0.927904,0.683880,1.552777,-0.194652,-0.376763,-0.387858,-0.800365,-0.457145,0.195582,0.124859,0.162986,-21.948271,-17.409206,-22.966156,,,,,,,
1504199065.723993,-0.713307,0.942354,0.694292,1.485606,-0.133230,-0.501874,-0.384676,-0.808944,-0.444560,0.236406,0.123123,0.139598,-21.944990,-18.310543,-22.284393,,,,,,,
1504199065.734003,-0.722968,0.957313,0.702878,1.442056,-0.334117,-0.648896,-0.380903,-0.817648,-0.431700,0.296217,0.082830,0.101973,-21.944990,-18.310543,-22.284393,,,,,,,
1504199065.743982,-0.733599,0.973216,0.708295,1.372943,-0.725431,-0.895963,-0.376717,-0.826699,-0.417915,0.338448,0.032937,0.041022,-21.790770,-19.361980,-21.226135,,,,,,,
1504199065.753992,-0.744634,0.990521,0.709218,1.290285,-1.113375,-1.202834,-0.371553,-0.836312,-0.403151,0.331301,0.025887,-0.028810,-21.790770,-19.361980,-21.226135,,,,,,,
1504199065.764001,-0.753192,1.008849,0.704985,1.149837,-1.225968,-1.461191,-0.364443,-0.846219,-0.388708,0.296206,0.067838,-0.092051,-21.563246,-19.962307,-20.546051,,,,,,,
1504199065.774011,-0.755378,1.026771,0.695323,0.881941,-0.945460,-1.635069,-0.354837,-0.855632,-0.376808,0.238901,0.134395,-0.123879,-21.563246,-19.962307,-20.546051,,,,,,,
1504199065.784021,-0.746600,1.042923,0.678662,0.499406,-0.420047,-1.748736,-0.342085,-0.863880,-0.369715,0.168058,0.166141,-0.120687,-21.259901,-20.712902,-19.564667,,,,,,,
1504199065.794031,-0.724369,1.054922,0.653947,-0.141889,0.291640,-1.665710,-0.326889,-0.869862,-0.369438,0.102371,0.143314,-0.116097,-21.259901,-20.712902,-19.564667,,,,,,,
1504199065.804040,-0.690040,1.058645,0.621579,-0.932048,0.663344,-1.373132,-0.311953,-0.871692,-0.377940,-0.113111,-0.003659,-0.239461,-20.581861,-21.835186,-19.404572,,,,,,,
1504199065.814050,-0.650470,1.054497,0.584297,-1.630720,0.698690,-1.137442,-0.298944,-0.869652,-0.392858,-0.307562,-0.116050,-0.463801,-20.581861,-21.835186,-19.404572,,,,,,,
1504199065.824060,-0.611507,1.046221,0.543619,-1.899992,0.238453,-1.152040,-0.287537,-0.865537,-0.410084,-0.182098,-0.010745,-0.426891,-19.908888,-21.605206,-20.379578,,,,,,,
1504199065.834070,-0.580999,1.035652,0.506407,-1.927714,-0.256041,-0.877961,-0.279899,-0.860195,-0.426287,-0.006020,0.037349,-0.249646,-19.908888,-21.605206,-20.379578,,,,,,,
