timestamp(unix),attitude_roll(radians),attitude_pitch(radians),attitude_yaw(radians),rotation_rate_x(radians/s),rotation_rate_y(radians/s),rotation_rate_z(radians/s),gravity_x(G),gravity_y(G),gravity_z(G),user_acc_x(G),user_acc_y(G),user_acc_z(G),magnetic_field_x(microteslas),magnetic_field_y(microteslas),magnetic_field_z(microteslas),latitude(degree),longitude(degree),altitude(meter),speed(m/s),course(degree),timestamp(unix),User Mark
1504199500.540208,0.025098,0.705249,0.456062,0.441851,-0.275553,0.112028,0.019109,-0.648224,-0.761210,0.045298,0.138717,-0.166112,18.449923,-10.614316,-29.516144,,,,,,,
1504199500.550218,0.021176,0.708867,0.456864,0.330532,-0.355563,0.055404,0.016074,-0.650974,-0.758930,0.050455,0.128559,-0.142590,18.449923,-10.614316,-29.516144,,,,,,,
1504199500.560228,0.017387,0.711266,0.457067,0.211213,-0.361992,0.009310,0.013170,-0.652793,-0.757421,0.057722,0.118415,-0.130762,18.450136,-10.838864,-29.739441,,,,,,,
1504199500.570238,0.014156,0.712752,0.456925,0.132713,-0.318699,-0.012251,0.010710,-0.653918,-0.756490,0.074633,0.123339,-0.119029,18.450136,-10.838864,-29.739441,,,,,,,
1504199500.580248,0.011588,0.713815,0.456679,0.099099,-0.256610,-0.018823,0.008759,-0.654722,-0.755819,0.081131,0.123670,-0.081675,18.150331,-10.915204,-29.739624,,,,,,,
1504199500.590257,0.009553,0.714631,0.456445,0.072800,-0.208444,-0.016818,0.007216,-0.655339,-0.755300,0.083345,0.105595,-0.046534,18.150331,-10.915204,-29.739624,,,,,,,
1504199500.600267,0.007919,0.714970,0.456118,0.017559,-0.184535,-0.026563,0.005980,-0.655595,-0.755089,0.080705,0.095704,-0.038231,18.225405,-10.989728,-29.813873,,,,,,,
1504199500.610277,0.006593,0.714612,0.455647,-0.055791,-0.158344,-0.038478,0.004980,-0.655324,-0.755331,0.058908,0.115606,-0.046198,18.225405,-10.989728,-29.813873,,,,,,,
1504199500.620287,0.005676,0.713391,0.455011,-0.147197,-0.124541,-0.054707,0.004292,-0.654402,-0.756135,0.051113,0.112470,-0.043654,18.300890,-11.139539,-29.737579,,,,,,,
1504199500.630296,0.005178,0.711094,0.454097,-0.254716,-0.107649,-0.076271,0.003923,-0.652663,-0.757638,0.055418,0.113097,-0.036811,18.300890,-11.139539,-29.737579,,,,,,,
1504199500.640306,0.004946,0.707906,0.452815,-0.333482,-0.104835,-0.109502,0.003758,-0.650244,-0.759716,0.057918,0.110876,-0.040607,18.000597,-11.065732,-29.813873,,,,,,,
1504199500.650316,0.004753,0.704171,0.451132,-0.381538,-0.128917,-0.139430,0.003622,-0.647402,-0.762140,0.051523,0.097994,-0.028220,18.000597,-11.065732,-29.813873,,,,,,,
1504199500.660326,0.005055,0.700033,0.449000,-0.420582,-0.095527,-0.172646,0.003866,-0.644243,-0.764811,0.038965,0.102235,-0.028127,17.924700,-10.616376,-29.667419,,,,,,,
1504199500.670335,0.006256,0.695658,0.446518,-0.440063,-0.013287,-0.199510,0.004802,-0.640891,-0.767617,0.036625,0.091635,-0.024589,17.924578,-10.616223,-29.742432,,,,,,,
1504199500.680345,0.008638,0.691219,0.443851,-0.440131,0.105006,-0.210392,0.006655,-0.637477,-0.770441,0.032682,0.118495,-0.022147,17.924578,-10.616223,-29.742432,,,,,,,
1504199500.690355,0.013469,0.683759,0.440686,-0.420541,0.287071,-0.217085,0.010441,-0.631711,-0.775133,0.023723,0.151761,-0.016142,17.924578,-10.616223,-29.742432,,,,,,,
1504199500.700365,0.019098,0.680063,0.437990,-0.340410,0.435593,-0.215073,0.014848,-0.628842,-0.777391,0.029036,0.176968,-0.012312,17.848711,-10.316403,-29.819855,,,,,,,
1504199500.710375,0.026382,0.677597,0.435103,-0.210029,0.582659,-0.236455,0.020551,-0.626923,-0.778811,0.017779,0.154159,-0.015165,17.848711,-10.316403,-29.819855,,,,,,,
1504199500.720384,0.034649,0.676593,0.431947,-0.050498,0.643166,-0.251229,0.027011,-0.626140,-0.779243,0.013379,0.162563,-0.015923,18.072542,-9.940091,-29.972107,,,,,,,
1504199500.730394,0.042086,0.674686,0.429112,0.104667,0.577921,-0.239099,0.032855,-0.624653,-0.780211,-0.005801,0.131366,-0.068116,18.072542,-9.940091,-29.972107,,,,,,,
1504199500.740404,0.048820,0.676637,0.426138,0.240164,0.457435,-0.217304,0.038049,-0.626174,-0.778754,-0.008187,0.120056,-0.110665,18.747499,-9.787503,-29.746613,,,,,,,
1504199500.750414,0.054084,0.680119,0.423465,0.397943,0.331422,-0.179449,0.042030,-0.628886,-0.776361,-0.002219,0.149882,-0.137915,18.747499,-9.787503,-29.746613,,,,,,,
1504199500.760393,0.058135,0.685310,0.421278,0.568816,0.251105,-0.126709,0.044984,-0.632913,-0.772915,-0.013932,0.178629,-0.124348,18.898211,-9.937284,-29.520111,,,,,,,
1504199500.770403,0.060185,0.689200,0.420368,0.704893,0.219005,-0.085847,0.046420,-0.635920,-0.770358,-0.034168,0.190790,-0.092405,18.898211,-9.937284,-29.520111,,,,,,,
1504199500.780412,0.063258,0.696995,0.418819,0.802905,0.210722,-0.069652,0.048473,-0.641916,-0.765241,-0.038188,0.186335,-0.085986,19.423922,-10.085370,-29.292664,,,,,,,
1504199500.790422,0.066727,0.705329,0.417013,0.850117,0.232730,-0.087754,0.050768,-0.648284,-0.759704,-0.022753,0.173278,-0.094163,19.423922,-10.085370,-29.292664,,,,,,,
1504199500.800432,0.070174,0.713930,0.415140,0.868083,0.216589,-0.079156,0.052994,-0.654809,-0.753934,0.007797,0.184564,-0.114657,19.350588,-10.611157,-29.063904,,,,,,,
1504199500.810442,0.072951,0.721587,0.413571,0.856922,0.169767,-0.057743,0.054720,-0.660577,-0.748761,0.002974,0.163354,-0.130420,19.350588,-10.611157,-29.063904,,,,,,,
1504199500.820451,0.075060,0.729872,0.412233,0.825344,0.106065,-0.032068,0.055886,-0.666774,-0.743161,0.006751,0.124080,-0.133685,19.576601,-10.835752,-28.761658,,,,,,,
1504199500.830461,0.076520,0.737851,0.411337,0.791931,0.084992,0.002068,0.056563,-0.672699,-0.737751,0.024110,0.111206,-0.125149,19.652422,-11.210263,-28.833618,,,,,,,
1504199500.840471,0.078004,0.745551,0.410977,0.761256,0.144874,0.044606,0.057253,-0.678377,-0.732480,0.032713,0.104341,-0.090991,19.652422,-11.210263,-28.833618,,,,,,,
1504199500.850481,0.079928,0.753097,0.411277,0.743621,0.237677,0.092444,0.058251,-0.683901,-0.727245,0.031898,0.118411,-0.047733,19.504992,-11.961835,-28.378387,,,,,,,
1504199500.860490,0.082620,0.760323,0.412089,0.701681,0.349877,0.124196,0.059800,-0.689155,-0.722142,0.030502,0.127037,-0.021755,19.504992,-11.961835,-28.378387,,,,,,,
1504199500.870500,0.085695,0.766870,0.413168,0.614395,0.380424,0.132530,0.061632,-0.693885,-0.717444,0.042143,0.116233,-0.030542,19.807024,-12.411679,-27.774261,,,,,,,
1504199500.880510,0.088443,0.772376,0.414277,0.511587,0.327999,0.124973,0.063265,-0.697839,-0.713455,0.059126,0.113671,-0.075302,19.807024,-12.411679,-27.774261,,,,,,,
1504199500.890520,0.090010,0.776941,0.415365,0.428444,0.197626,0.114384,0.064096,-0.701101,-0.710175,0.075598,0.083395,-0.116317,20.031115,-12.185224,-28.000397,,,,,,,
1504199500.900530,0.090443,0.780987,0.416354,0.390251,0.086062,0.105976,0.064147,-0.703981,-0.707316,0.090959,0.050752,-0.131093,20.031115,-12.185224,-28.000397,,,,,,,
1504199500.910539,0.089985,0.784857,0.417386,0.373632,0.010539,0.108215,0.063577,-0.706724,-0.704627,0.097723,0.036390,-0.111429,20.108263,-12.860486,-27.695129,,,,,,,
1504199500.920549,0.089106,0.788718,0.418587,0.379843,-0.003382,0.124261,0.062715,-0.709451,-0.701959,0.099700,0.036584,-0.103247,20.108263,-12.860486,-27.695129,,,,,,,
1504199500.930559,0.088122,0.792803,0.420296,0.401226,0.029430,0.168004,0.061769,-0.712323,-0.699128,0.104781,0.034970,-0.088622,20.258593,-12.860257,-27.469788,,,,,,,
1504199500.940569,0.086779,0.797022,0.422844,0.402149,0.050669,0.230945,0.060568,-0.715278,-0.696211,0.094461,0.044028,-0.059405,20.258593,-12.860257,-27.469788,,,,,,,
1504199500.950578,0.084745,0.800949,0.426385,0.357018,0.049910,0.293845,0.058914,-0.718017,-0.693527,0.091583,0.056884,-0.061783,19.809282,-13.311688,-27.767517,,,,,,,
1504199500.960588,0.081983,0.804302,0.430806,0.294780,0.038646,0.347127,0.056801,-0.720346,-0.691285,0.097176,0.077585,-0.077422,19.809282,-13.311688,-27.767517,,,,,,,
1504199500.970598,0.078799,0.807252,0.435928,0.255287,0.059180,0.383314,0.054432,-0.722390,-0.689341,0.081813,0.110726,-0.082480,19.885637,-13.537396,-27.240631,,,,,,,
1504199500.980608,0.075679,0.809992,0.441239,0.240459,0.074218,0.385396,0.052131,-0.724282,-0.687531,0.055505,0.129692,-0.071197,19.885637,-13.537396,-27.240631,,,,,,,
1504199500.990576,0.072650,0.812584,0.446397,0.229813,0.065800,0.367247,0.049912,-0.726066,-0.685811,0.047943,0.146919,-0.076091,19.810823,-13.612744,-27.240265,,,,,,,
1504199501.000586,0.069549,0.815111,0.451159,0.227512,0.024295,0.334227,0.047657,-0.727801,-0.684130,0.040493,0.140155,-0.100553,19.810823,-13.612744,-27.240265,,,,,,,
1504199501.010595,0.066370,0.817635,0.455343,0.233743,-0.023664,0.291626,0.045360,-0.729530,-0.682443,0.038594,0.121834,-0.122596,19.661577,-13.913419,-27.238373,,,,,,,
1504199501.020605,0.063203,0.820186,0.458945,0.237909,-0.060953,0.252205,0.043081,-0.731273,-0.680723,0.043802,0.108607,-0.130647,19.661577,-13.913419,-27.238373,,,,,,,
1504199501.030615,0.060153,0.822826,0.462065,0.255005,-0.077046,0.221308,0.040889,-0.733071,-0.678922,0.050023,0.105858,-0.127917,19.886950,-14.062406,-27.236694,,,,,,,
1504199501.040625,0.057486,0.825633,0.464931,0.273467,-0.045216,0.207408,0.038959,-0.734977,-0.676972,0.047863,0.112281,-0.114959,19.886950,-14.062406,-27.236694,,,,,,,
1504199501.050635,0.055642,0.828623,0.467530,0.293351,0.027102,0.187034,0.037588,-0.737001,-0.674845,0.034982,0.124971,-0.092977,19.662294,-14.288114,-27.385559,,,,,,,
1504199501.060644,0.055166,0.831774,0.469675,0.312570,0.140999,0.152710,0.037139,-0.739128,-0.672541,0.031327,0.133705,-0.077566,19.662294,-14.288114,-27.385559,,,,,,,
1504199501.070654,0.055997,0.835217,0.471364,0.347530,0.225988,0.124868,0.037556,-0.741442,-0.669965,0.035504,0.124545,-0.066745,19.514330,-14.739987,-26.782501,,,,,,,
1504199501.080664,0.057761,0.839042,0.472620,0.385446,0.281115,0.098152,0.038573,-0.744003,-0.667062,0.030610,0.112991,-0.064445,19.514330,-14.739987,-26.782501,,,,,,,
1504199501.090674,0.060157,0.843116,0.473414,0.408148,0.300138,0.069338,0.039989,-0.746720,-0.663936,0.030369,0.109268,-0.075017,19.739550,-14.739270,-26.631958,,,,,,,
1504199501.100683,0.062832,0.847326,0.473790,0.421035,0.294731,0.043752,0.041567,-0.749513,-0.660683,0.033735,0.110033,-0.093757,19.739550,-14.739270,-26.631958,,,,,,,
1504199501.110693,0.065731,0.851723,0.473734,0.446662,0.280695,0.017136,0.043265,-0.752416,-0.657265,0.029687,0.122259,-0.103309,19.666246,-15.190366,-26.253784,,,,,,,
1504199501.120703,0.068974,0.856589,0.473000,0.507631,0.270651,-0.029706,0.045143,-0.755613,-0.653461,0.026985,0.133558,-0.092556,19.666246,-15.190366,-26.253784,,,,,,,
1504199501.130713,0.073476,0.859617,0.470834,0.587042,0.281797,-0.109643,0.047917,-0.757593,-0.650966,0.019741,0.150385,-0.064244,19.891314,-15.264203,-26.327667,,,,,,,
1504199501.140722,0.078055,0.865482,0.467619,0.604696,0.174105,-0.185208,0.050550,-0.761408,-0.646300,0.003451,0.168848,-0.020158,19.891314,-15.264203,-26.327667,,,,,,,
1504199501.150732,0.081676,0.870764,0.463111,0.523386,-0.040388,-0.270363,0.052561,-0.764821,-0.642095,0.045141,0.103353,-0.022227,20.042833,-15.639279,-25.949493,,,,,,,
1504199501.160742,0.083926,0.874809,0.457389,0.397162,-0.268363,-0.356639,0.053745,-0.767421,-0.638887,0.082973,0.098521,-0.102660,20.042833,-15.639279,-25.949493,,,,,,,
1504199501.170752,0.084932,0.877346,0.450646,0.249682,-0.472741,-0.421646,0.054223,-0.769045,-0.636891,0.105293,0.078600,-0.108562,20.043657,-15.789868,-25.648346,,,,,,,
1504199501.180761,0.088313,0.874917,0.440129,0.080599,-0.696083,-0.471729,0.056540,-0.767490,-0.638563,0.086023,0.097797,-0.079928,20.043657,-15.789868,-25.648346,,,,,,,
1504199501.190771,0.085432,0.873934,0.432373,-0.100417,-0.942835,-0.512169,0.054765,-0.766860,-0.639474,0.073577,0.070037,-0.088202,19.667299,-15.565518,-26.175934,,,,,,,
1504199501.200781,0.080409,0.871277,0.424606,-0.259880,-1.140783,-0.517433,0.051716,-0.765152,-0.641770,0.107464,0.074569,-0.119445,19.667299,-15.565518,-26.175934,,,,,,,
1504199501.210791,0.074075,0.867393,0.417411,-0.374553,-1.181436,-0.480201,0.047869,-0.762645,-0.645043,0.106031,0.080303,-0.137260,19.591127,-15.414807,-26.702271,,,,,,,
1504199501.220801,0.068510,0.862377,0.410694,-0.445263,-1.048770,-0.423988,0.044540,-0.759391,-0.649108,0.093521,0.085975,-0.090546,19.591127,-15.414807,-26.702271,,,,,,,
1504199501.230780,0.063735,0.857256,0.405534,-0.506603,-0.801123,-0.349813,0.041687,-0.756049,-0.653186,0.091201,0.082297,-0.013638,19.139101,-14.741376,-26.933441,,,,,,,
1504199501.240790,0.060358,0.851456,0.401777,-0.584165,-0.569345,-0.257492,0.039745,-0.752240,-0.657689,0.101887,0.057538,0.027318,19.139101,-14.741376,-26.933441,,,,,,,
1504199501.250799,0.057092,0.844805,0.399722,-0.679893,-0.463177,-0.146835,0.037881,-0.747842,-0.662795,0.114081,0.025857,-0.000276,19.137743,-14.739575,-27.833496,,,,,,,
1504199501.260809,0.053643,0.837173,0.398741,-0.760160,-0.435963,-0.054160,0.035900,-0.742754,-0.668602,0.122791,0.026933,-0.068367,19.137743,-14.739575,-27.833496,,,,,,,
1504199501.270819,0.049238,0.829182,0.399212,-0.808170,-0.400462,0.002266,0.033246,-0.737379,-0.674661,0.122363,0.068525,-0.102225,18.836626,-14.290921,-27.837616,,,,,,,
1504199501.280829,0.044977,0.820921,0.400038,-0.832376,-0.350193,0.016012,0.030644,-0.731774,-0.680858,0.086895,0.100365,-0.075169,18.836626,-14.290921,-27.837616,,,,,,,
1504199501.290838,0.041399,0.812734,0.400539,-0.811665,-0.309847,-0.007506,0.028455,-0.726170,-0.686926,0.062991,0.093250,-0.057687,18.609819,-13.841046,-28.291504,,,,,,,
1504199501.300848,0.039068,0.804810,0.400332,-0.760772,-0.238829,-0.043836,0.027077,-0.720699,-0.692719,0.060463,0.097209,-0.024581,18.609819,-13.841046,-28.291504,,,,,,,
1504199501.310858,0.037993,0.797576,0.399670,-0.707339,-0.119880,-0.084515,0.026530,-0.715665,-0.697939,0.047979,0.087613,0.010745,18.533083,-13.241071,-28.446198,,,,,,,
1504199501.320868,0.038860,0.790774,0.398420,-0.665346,0.037523,-0.123146,0.027324,-0.710898,-0.702765,0.041143,0.075674,0.034521,18.533083,-13.241071,-28.446198,,,,,,,
1504199501.330877,0.041583,0.784382,0.396731,-0.621359,0.185306,-0.148948,0.029425,-0.706388,-0.707213,0.040644,0.087079,0.044280,18.533083,-13.241071,-28.446198,,,,,,,
1504199501.340887,0.045467,0.778530,0.394934,-0.566135,0.283956,-0.153296,0.032359,-0.702234,-0.711211,0.039754,0.113351,0.040388,18.831423,-12.938535,-29.047760,,,,,,,
1504199501.350897,0.049941,0.773055,0.393110,-0.534845,0.324197,-0.158650,0.035732,-0.698325,-0.714888,0.035450,0.131690,0.024885,18.606356,-12.864697,-28.973877,,,,,,,
1504199501.360907,0.055117,0.766544,0.390562,-0.524390,0.285781,-0.179915,0.039682,-0.693650,-0.719219,0.041709,0.141587,-0.015843,18.606356,-12.864697,-28.973877,,,,,,,
1504199501.370916,0.058923,0.761166,0.388255,-0.529236,0.199531,-0.202187,0.042638,-0.689766,-0.722776,0.056178,0.132744,-0.068576,18.979876,-12.412549,-29.201324,,,,,,,
1504199501.380926,0.061979,0.755681,0.385737,-0.536224,0.108865,-0.218053,0.045080,-0.685784,-0.726407,0.055796,0.106378,-0.096881,18.979876,-12.412549,-29.201324,,,,,,,
1504199501.390936,0.064093,0.750091,0.383219,-0.549768,0.016270,-0.217913,0.046860,-0.681705,-0.730125,0.052994,0.122501,-0.102029,18.979021,-12.112409,-29.278564,,,,,,,
1504199501.400946,0.067335,0.735440,0.379323,-0.581625,-0.084681,-0.215668,0.049894,-0.670914,-0.739855,0.036272,0.127258,-0.098982,18.979021,-12.112409,-29.278564,,,,,,,
1504199501.410956,0.067354,0.729112,0.376853,-0.631471,-0.188686,-0.228379,0.050192,-0.666208,-0.744075,0.029184,0.106195,-0.108433,19.352129,-11.360715,-29.283295,,,,,,,
1504199501.420965,0.066273,0.722228,0.374436,-0.691014,-0.293695,-0.224028,0.049690,-0.661058,-0.748688,0.042107,0.102480,-0.120743,19.352129,-11.360715,-29.283295,,,,,,,
1504199501.430975,0.063948,0.714671,0.372391,-0.763367,-0.383706,-0.194107,0.048268,-0.655369,-0.753765,0.046352,0.111790,-0.136189,19.500887,-11.134137,-29.734619,,,,,,,
1504199501.440985,0.060906,0.706178,0.370846,-0.825662,-0.410938,-0.155741,0.046312,-0.648931,-0.759437,0.040816,0.126409,-0.146813,19.500887,-11.134137,-29.734619,,,,,,,
1504199501.450995,0.057685,0.697556,0.369841,-0.862907,-0.375505,-0.118509,0.044186,-0.642346,-0.765140,0.031376,0.141232,-0.132748,18.974459,-10.835599,-30.188141,,,,,,,
1504199501.461004,0.054780,0.688864,0.369182,-0.862575,-0.317992,-0.092992,0.042267,-0.635661,-0.770811,0.017044,0.138789,-0.109561,18.974459,-10.835599,-30.188141,,,,,,,
1504199501.470984,0.052266,0.680397,0.368653,-0.835603,-0.276662,-0.086614,0.040609,-0.629102,-0.776261,0.003077,0.122251,-0.090224,19.047991,-10.384824,-30.416351,,,,,,,
1504199501.480993,0.049891,0.671537,0.368056,-0.792840,-0.269550,-0.094024,0.039042,-0.622190,-0.781892,0.004247,0.113600,-0.095961,19.047991,-10.384824,-30.416351,,,,,,,
1504199501.491003,0.047557,0.664021,0.367385,-0.732120,-0.277516,-0.087500,0.037438,-0.616289,-0.786630,0.008979,0.117128,-0.112845,18.670839,-9.710904,-30.722351,,,,,,,
1504199501.501013,0.045034,0.657202,0.366772,-0.656571,-0.296264,-0.076662,0.035642,-0.610904,-0.790902,-0.003293,0.145328,-0.121177,18.670839,-9.710904,-30.722351,,,,,,,
1504199501.511023,0.042275,0.651255,0.366039,-0.567169,-0.331088,-0.088187,0.033612,-0.606185,-0.794613,-0.018674,0.163116,-0.127110,18.819933,-9.484784,-30.948669,,,,,,,
1504199501.521032,0.037794,0.642680,0.365667,-0.467313,-0.404360,-0.126307,0.030247,-0.599343,-0.799921,-0.023075,0.149407,-0.130163,18.819933,-9.484784,-30.948669,,,,,,,
1504199501.531042,0.034156,0.638570,0.363717,-0.387787,-0.504052,-0.186836,0.027420,-0.596048,-0.802480,-0.019257,0.130533,-0.140101,18.293734,-9.186536,-31.252228,,,,,,,
1504199501.541052,0.030093,0.635064,0.361048,-0.329507,-0.585466,-0.236759,0.024222,-0.593229,-0.804669,-0.009650,0.115873,-0.161594,18.293734,-9.186536,-31.252228,,,,,,,
1504199501.551062,0.025578,0.632173,0.357924,-0.269060,-0.648805,-0.264295,0.020633,-0.590899,-0.806482,-0.005954,0.117648,-0.167212,18.067568,-9.036511,-31.778931,,,,,,,
1504199501.561072,0.020597,0.629112,0.354735,-0.226597,-0.677924,-0.269507,0.016653,-0.588427,-0.808379,-0.008047,0.125872,-0.155458,18.067568,-9.036511,-31.778931,,,,,,,
1504199501.571081,0.015594,0.626998,0.351483,-0.201146,-0.694123,-0.264097,0.012627,-0.586716,-0.809694,-0.008340,0.121568,-0.139189,17.841784,-8.587964,-31.557831,,,,,,,
1504199501.581091,0.010223,0.625073,0.348437,-0.187600,-0.721961,-0.243744,0.008290,-0.585157,-0.810878,-0.000950,0.136029,-0.133061,17.841784,-8.587964,-31.557831,,,,,,,
1504199501.591101,0.004309,0.623181,0.345600,-0.188072,-0.770992,-0.227647,0.003499,-0.583621,-0.812019,0.001186,0.149447,-0.134698,17.391222,-8.589231,-31.933960,,,,,,,
1504199501.601111,-0.002401,0.620845,0.342751,-0.190850,-0.856209,-0.236041,-0.001953,-0.581723,-0.813385,0.003403,0.152066,-0.145020,17.391222,-8.589231,-31.933960,,,,,,,
1504199501.611120,-0.009717,0.618958,0.339475,-0.189221,-0.944625,-0.276444,-0.007915,-0.580187,-0.814445,0.007457,0.141405,-0.155755,16.940325,-8.365811,-32.161743,,,,,,,
1504199501.621130,-0.017559,0.617072,0.335664,-0.192870,-1.026603,-0.317934,-0.014320,-0.578649,-0.815451,0.015632,0.119207,-0.155802,16.940325,-8.365811,-32.161743,,,,,,,
1504199501.631140,-0.025963,0.615123,0.331386,-0.206150,-1.107443,-0.351971,-0.021202,-0.577059,-0.816427,0.011833,0.093019,-0.151209,16.413713,-8.216519,-32.989197,,,,,,,
1504199501.641150,-0.035063,0.612758,0.326804,-0.253712,-1.196542,-0.371110,-0.028678,-0.575126,-0.817562,0.008261,0.082847,-0.148884,16.413713,-8.216519,-32.989197,,,,,,,
1504199501.651159,-0.044952,0.609857,0.321979,-0.322675,-1.290797,-0.386007,-0.036836,-0.572750,-0.818902,0.012163,0.085201,-0.155463,15.812883,-8.068631,-33.291809,,,,,,,
1504199501.661169,-0.055752,0.606373,0.316916,-0.384222,-1.391506,-0.400880,-0.045789,-0.569891,-0.820444,0.022305,0.096578,-0.163657,15.812883,-8.068631,-33.291809,,,,,,,
1504199501.671179,-0.067205,0.602519,0.311593,-0.418841,-1.460470,-0.415762,-0.055330,-0.566719,-0.822051,0.031053,0.097496,-0.158891,15.061953,-7.921247,-33.669800,,,,,,,
1504199501.681189,-0.078652,0.598547,0.306081,-0.418714,-1.449805,-0.424320,-0.064912,-0.563443,-0.823601,0.033585,0.083081,-0.135337,15.061953,-7.921247,-33.669800,,,,,,,
1504199501.691198,-0.089524,0.594988,0.300573,-0.381840,-1.374452,-0.423321,-0.074041,-0.560498,-0.824839,0.030141,0.101972,-0.099691,14.535372,-7.473004,-33.974487,,,,,,,
1504199501.701208,-0.099394,0.592068,0.295105,-0.313733,-1.263125,-0.423400,-0.082340,-0.558078,-0.825693,0.019337,0.113284,-0.069952,14.535372,-7.473004,-33.974487,,,,,,,
1504199501.711187,-0.108150,0.590134,0.289739,-0.212496,-1.143548,-0.421300,-0.089683,-0.556472,-0.826012,0.008964,0.094574,-0.045174,13.408266,-6.952024,-34.506195,,,,,,,
1504199501.721197,-0.115711,0.589162,0.284629,-0.105789,-1.001648,-0.410692,-0.095988,-0.555665,-0.825847,0.001475,0.091721,-0.022114,13.408266,-6.952024,-34.506195,,,,,,,
1504199501.731207,-0.121717,0.589309,0.279709,-0.010546,-0.829810,-0.406560,-0.100937,-0.555787,-0.825174,-0.009842,0.092530,-0.002997,12.807970,-6.879560,-34.583252,,,,,,,
1504199501.741217,-0.126207,0.590272,0.274990,0.063204,-0.675912,-0.400299,-0.104574,-0.556587,-0.824182,-0.016154,0.090858,0.014169,12.807970,-6.879560,-34.583252,,,,,,,
1504199501.751227,-0.129643,0.591628,0.270238,0.086351,-0.591905,-0.414283,-0.107307,-0.557713,-0.823068,-0.017525,0.130772,0.015985,12.432711,-6.955655,-34.883606,,,,,,,
1504199501.761236,-0.133015,0.592380,0.265157,0.072380,-0.626918,-0.451605,-0.110026,-0.558337,-0.822286,-0.011327,0.153445,-0.004893,12.432711,-6.955655,-34.883606,,,,,,,
1504199501.771246,-0.136709,0.593464,0.259256,0.029246,-0.724530,-0.516619,-0.112980,-0.559236,-0.821274,-0.000606,0.149980,-0.038285,12.131701,-6.731397,-35.186035,,,,,,,
1504199501.781256,-0.140840,0.594101,0.252278,-0.034102,-0.828347,-0.603005,-0.116322,-0.559764,-0.820447,0.009266,0.128261,-0.056994,12.131701,-6.731397,-35.186035,,,,,,,
1504199501.791266,-0.145228,0.594167,0.244117,-0.106911,-0.915035,-0.690506,-0.119916,-0.559819,-0.819892,0.020032,0.124547,-0.063210,11.606707,-6.733762,-35.187347,,,,,,,
1504199501.801275,-0.149576,0.593483,0.234830,-0.172084,-0.975154,-0.769501,-0.123536,-0.559252,-0.819741,0.026139,0.143496,-0.057303,11.606707,-6.733762,-35.187347,,,,,,,
1504199501.811285,-0.153984,0.592394,0.224530,-0.259643,-1.031895,-0.846406,-0.127242,-0.558349,-0.819790,0.026732,0.166091,-0.033389,11.230242,-6.285001,-35.416656,,,,,,,
1504199501.821295,-0.158407,0.590462,0.212979,-0.368588,-1.104427,-0.939330,-0.131036,-0.556745,-0.820283,0.028635,0.171644,-0.022429,11.230242,-6.285001,-35.416656,,,,,,,
1504199501.831305,-0.162848,0.587540,0.200018,-0.491374,-1.180032,-1.042948,-0.134941,-0.554316,-0.821295,0.032311,0.162989,-0.023996,10.778658,-5.836423,-35.721161,,,,,,,
1504199501.841314,-0.167081,0.583505,0.185535,-0.620451,-1.241730,-1.146601,-0.138787,-0.550952,-0.822916,0.041360,0.146884,-0.013022,10.778658,-5.836423,-35.721161,,,,,,,
1504199501.851324,-0.171303,0.578435,0.169941,-0.749609,-1.289616,-1.211852,-0.142735,-0.546714,-0.825064,0.039967,0.122840,0.000219,9.877718,-5.465466,-35.726196,,,,,,,
1504199501.861334,-0.175783,0.572451,0.153812,-0.842698,-1.333587,-1.229014,-0.146999,-0.541694,-0.827622,0.031322,0.109062,0.007630,9.877718,-5.465466,-35.726196,,,,,,,
1504199501.871344,-0.180469,0.565805,0.137760,-0.906782,-1.326691,-1.204587,-0.151518,-0.536096,-0.830448,0.019713,0.119348,0.029056,9.274935,-4.492703,-35.959991,,,,,,,
1504199501.881354,-0.185024,0.558817,0.122223,-0.927874,-1.262636,-1.151366,-0.155985,-0.530184,-0.833411,0.009165,0.138323,0.060126,9.274935,-4.492703,-35.959991,,,,,,,
1504199501.891363,-0.188799,0.551647,0.107194,-0.948349,-1.131438,-1.114274,-0.159839,-0.524091,-0.836529,-0.006161,0.153440,0.090603,8.222963,-3.971524,-36.416504,,,,,,,
1504199501.901373,-0.191104,0.544146,0.091923,-0.995075,-0.992488,-1.149825,-0.162509,-0.517688,-0.839994,-0.009030,0.172092,0.112485,8.222963,-3.971524,-36.416504,,,,,,,
1504199501.911383,-0.191992,0.536247,0.075869,-1.049429,-0.892870,-1.216273,-0.164030,-0.510913,-0.843837,0.014754,0.155918,0.096798,7.845812,-3.073361,-36.349213,,,,,,,
1504199501.921393,-0.192201,0.528087,0.059086,-1.084158,-0.870145,-1.276148,-0.164998,-0.503882,-0.847867,0.009160,0.096213,0.086850,7.845812,-3.073361,-36.349213,,,,,,,
1504199501.931402,-0.192159,0.519680,0.041780,-1.121162,-0.853812,-1.317870,-0.165765,-0.496602,-0.852002,-0.012473,0.061590,0.097089,7.319124,-2.624967,-36.728882,,,,,,,
1504199501.941412,-0.191681,0.510970,0.024329,-1.149461,-0.792836,-1.322296,-0.166175,-0.489024,-0.856295,-0.023324,0.058436,0.109851,7.319124,-2.624967,-36.728882,,,,,,,
1504199501.951391,-0.190161,0.501944,0.006824,-1.185666,-0.659323,-1.336470,-0.165702,-0.481131,-0.860846,-0.043222,0.098975,0.129324,6.790514,-1.277020,-36.890289,,,,,,,
1504199501.961401,-0.187153,0.492699,-0.010973,-1.205643,-0.511003,-1.371991,-0.163932,-0.473005,-0.865674,-0.039391,0.125486,0.143888,6.790514,-1.277020,-36.890289,,,,,,,
1504199501.971411,-0.182549,0.483424,-0.029095,-1.204100,-0.342610,-1.411779,-0.160734,-0.464813,-0.870697,-0.025453,0.119431,0.144134,6.188707,-0.604566,-36.971863,,,,,,,
1504199501.981421,-0.176050,0.474131,-0.047438,-1.204513,-0.145440,-1.440947,-0.155822,-0.456566,-0.875938,-0.025025,0.101067,0.158317,6.188707,-0.604566,-36.971863,,,,,,,
1504199501.991418,-0.167770,0.464778,-0.065682,-1.197613,0.051637,-1.439148,-0.149270,-0.448224,-0.881370,-0.025367,0.106275,0.162986,6.336672,0.295810,-36.828217,,,,,,,
1504199502.001428,-0.158037,0.455300,-0.083473,-1.192114,0.224188,-1.409555,-0.141348,-0.439732,-0.886937,-0.035761,0.115681,0.158253,6.336672,0.295810,-36.828217,,,,,,,
1504199502.011438,-0.147513,0.445632,-0.100569,-1.190414,0.333880,-1.360645,-0.132624,-0.431028,-0.892539,-0.045476,0.130704,0.157020,6.409182,1.196429,-36.984802,,,,,,,
1504199502.021448,-0.136607,0.435925,-0.116791,-1.146278,0.426152,-1.291350,-0.123447,-0.422249,-0.898035,-0.049573,0.130425,0.136896,6.409182,1.196429,-36.984802,,,,,,,
1504199502.031457,-0.124557,0.429207,-0.130304,-0.757078,0.665677,-1.074416,-0.112967,-0.416150,-0.902251,-0.037744,0.146237,0.111343,6.557375,2.096515,-36.691193,,,,,,,
1504199502.041467,-0.111684,0.424910,-0.142081,-0.471437,0.816681,-0.986660,-0.101541,-0.412239,-0.905400,-0.014075,0.150413,0.000370,6.557375,2.096515,-36.691193,,,,,,,
1504199502.051477,-0.098670,0.424280,-0.151948,-0.027473,0.919438,-0.845175,-0.089776,-0.411664,-0.906903,0.008676,0.022840,-0.009876,7.006273,2.623233,-36.544006,,,,,,,
1504199502.061487,-0.087670,0.427318,-0.159345,0.323502,0.763971,-0.656430,-0.079685,-0.414432,-0.906585,0.046024,0.094394,-0.108109,7.006273,2.623233,-36.544006,,,,,,,
1504199502.071497,-0.079531,0.432453,-0.165028,0.496984,0.524777,-0.525485,-0.072133,-0.419100,-0.905070,0.022283,0.084093,-0.264821,7.456575,2.550113,-36.467346,,,,,,,
1504199502.081506,-0.073715,0.437869,-0.169380,0.502447,0.347719,-0.406681,-0.066701,-0.424010,-0.903198,0.032765,0.057616,-0.253479,7.456575,2.550113,-36.467346,,,,,,,
1504199502.091516,-0.070252,0.442503,-0.172809,0.414018,0.148029,-0.324292,-0.063433,-0.428203,-0.901454,0.036791,0.111583,-0.166357,7.756762,2.476459,-36.466034,,,,,,,
1504199502.101526,-0.068676,0.445932,-0.175940,0.289955,-0.010809,-0.305014,-0.061911,-0.431299,-0.900082,0.006369,0.137140,-0.110019,7.756762,2.476459,-36.466034,,,,,,,
1504199502.111536,-0.066313,0.437606,-0.180348,0.133451,-0.125490,-0.360622,-0.060021,-0.423772,-0.903778,-0.005394,0.120687,-0.062119,7.383043,2.099322,-36.239166,,,,,,,
1504199502.121545,-0.065867,0.437793,-0.185052,-0.065960,-0.162126,-0.440959,-0.059612,-0.423942,-0.903725,-0.008946,0.103752,-0.018455,7.383043,2.099322,-36.239166,,,,,,,
1504199502.131555,-0.065318,0.435112,-0.189688,-0.380775,-0.127636,-0.372184,-0.059189,-0.421512,-0.904889,0.000306,0.087146,0.009061,7.007296,2.397632,-36.242340,,,,,,,
1504199502.141565,-0.065301,0.428847,-0.192664,-0.727452,-0.129247,-0.176380,-0.059346,-0.415822,-0.907508,0.055134,0.049840,0.064261,7.007296,2.397632,-36.242340,,,,,,,
1504199502.151575,-0.066531,0.419391,-0.193760,-1.012640,-0.189955,0.003624,-0.060720,-0.407204,-0.911316,0.085760,-0.031837,0.124238,7.381243,2.550220,-36.692535,,,,,,,
1504199502.161584,-0.069133,0.407567,-0.194203,-1.236843,-0.319215,0.039755,-0.063420,-0.396377,-0.915895,0.091847,-0.064988,0.116731,7.381243,2.550220,-36.692535,,,,,,,
1504199502.171594,-0.072368,0.393873,-0.195767,-1.417123,-0.394321,-0.087446,-0.066768,-0.383768,-0.921013,0.057293,-0.065390,0.090263,7.005068,3.148089,-36.472931,,,,,,,
1504199502.181604,-0.074195,0.379049,-0.199744,-1.521881,-0.297312,-0.320492,-0.068866,-0.370037,-0.926461,-0.012006,-0.061451,0.125741,7.005068,3.148089,-36.472931,,,,,,,
1504199502.191583,-0.072974,0.364204,-0.206543,-1.515404,-0.055194,-0.589893,-0.068127,-0.356206,-0.931921,-0.072131,-0.038875,0.210058,6.776720,4.347537,-36.707520,,,,,,,
1504199502.201593,-0.067732,0.350820,-0.215880,-1.338642,0.282465,-0.834617,-0.063558,-0.343668,-0.936938,-0.122981,-0.000052,0.277713,6.776720,4.347537,-36.707520,,,,,,,
1504199502.211603,-0.058935,0.340409,-0.227300,-1.022750,0.549698,-1.064033,-0.055521,-0.333872,-0.940982,-0.140753,0.027796,0.291934,6.624453,5.471118,-36.341339,,,,,,,
1504199502.221613,-0.047958,0.333373,-0.240868,-0.685624,0.666514,-1.299550,-0.045301,-0.327232,-0.943858,-0.121127,0.030250,0.237910,6.624453,5.471118,-36.341339,,,,,,,
1504199502.231622,-0.036697,0.329285,-0.256317,-0.411012,0.604766,-1.480424,-0.034718,-0.323366,-0.945637,-0.099270,0.028734,0.173695,6.698900,5.920703,-35.969513,,,,,,,
1504199502.241632,-0.026321,0.326715,-0.272531,-0.270989,0.472595,-1.529049,-0.024926,-0.320933,-0.946774,-0.047950,0.006755,0.112118,6.698900,5.920703,-35.969513,,,,,,,
1504199502.251642,-0.017448,0.325058,-0.288875,-0.173834,0.333290,-1.551050,-0.016533,-0.319364,-0.947488,0.081337,0.043469,0.041696,6.847078,6.596530,-36.049225,,,,,,,
1504199502.261652,-0.009000,0.324219,-0.306401,-0.049370,0.203478,-1.685101,-0.008531,-0.318569,-0.947861,0.216966,0.130092,0.019135,6.847078,6.596530,-36.049225,,,,,,,
1504199502.271661,-0.001938,0.325343,-0.326501,0.160779,0.008125,-1.990737,-0.001836,-0.319633,-0.947540,0.250066,0.152809,0.024825,6.697802,6.445407,-35.823456,,,,,,,
1504199502.281671,0.003424,0.328858,-0.350271,0.414946,-0.309030,-2.332373,0.003240,-0.322962,-0.946406,0.199366,0.086100,0.019313,6.697802,6.445407,-35.823456,,,,,,,
1504199502.291681,0.006829,0.333909,-0.377261,0.544046,-0.614568,-2.608068,0.006451,-0.327739,-0.944746,0.081622,-0.002614,0.035795,6.247911,6.218982,-36.122864,,,,,,,
1504199502.301691,0.007630,0.339335,-0.406169,0.557976,-0.962986,-2.750461,0.007195,-0.332860,-0.942949,-0.015206,-0.072048,0.041261,6.247911,6.218982,-36.122864,,,,,,,
1504199502.311700,0.005353,0.344270,-0.435844,0.493577,-1.305532,-2.794800,0.005039,-0.337510,-0.941308,-0.031650,-0.101257,0.005762,5.273256,6.214145,-35.900299,,,,,,,
1504199502.321710,-0.000014,0.348908,-0.465348,0.467504,-1.610114,-2.761219,-0.000013,-0.341872,-0.939747,-0.051028,-0.129030,-0.018643,5.273256,6.214145,-35.900299,,,,,,,
1504199502.331720,-0.007905,0.354182,-0.494357,0.541196,-1.837743,-2.712656,-0.007414,-0.346824,-0.937901,-0.072923,-0.153939,-0.011043,3.772676,6.357715,-36.055115,,,,,,,
1504199502.341730,-0.017185,0.361188,-0.523122,0.718374,-1.955366,-2.700400,-0.016075,-0.353386,-0.935340,-0.096291,-0.139565,0.007743,3.772676,6.357715,-36.055115,,,,,,,
1504199502.351739,-0.026494,0.370510,-0.552086,0.921260,-1.954871,-2.733139,-0.024693,-0.362091,-0.931816,-0.122951,-0.124283,0.035957,2.348360,5.901904,-36.355255,,,,,,,
1504199502.361749,-0.034383,0.381886,-0.581420,1.092133,-1.823042,-2.768300,-0.031900,-0.372671,-0.927415,-0.145087,-0.084055,0.040895,2.348360,5.901904,-36.355255,,,,,,,
1504199502.371759,-0.039636,0.394577,-0.611084,1.181693,-1.578667,-2.792058,-0.036581,-0.384418,-0.922434,-0.150141,-0.035687,0.035364,0.475069,5.218463,-36.354797,,,,,,,
1504199502.381769,-0.041326,0.407350,-0.640917,1.147073,-1.247120,-2.794839,-0.037934,-0.396178,-0.917390,-0.146682,-0.026171,0.037110,0.475069,5.218463,-36.354797,,,,,,,
1504199502.391779,-0.038852,0.418872,-0.671058,0.993372,-0.860097,-2.804327,-0.035484,-0.406730,-0.912859,-0.138954,-0.023858,0.034838,-0.947355,4.236911,-36.276031,,,,,,,
1504199502.401788,-0.031794,0.428497,-0.701476,0.816414,-0.438796,-2.802174,-0.028915,-0.415504,-0.909132,-0.139741,-0.013802,0.028791,-0.947355,4.236911,-36.276031,,,,,,,
1504199502.411798,-0.020328,0.436198,-0.732076,0.659538,-0.037912,-2.794614,-0.018423,-0.422496,-0.906177,-0.148249,-0.023030,0.037540,-1.170439,3.560596,-36.121490,,,,,,,
1504199502.421777,-0.005125,0.442374,-0.762976,0.559712,0.280470,-2.806022,-0.004631,-0.428086,-0.903726,-0.155616,0.004884,0.041238,-1.170439,3.560596,-36.121490,,,,,,,
1504199502.431787,0.012734,0.447693,-0.794168,0.545326,0.478797,-2.812801,0.011478,-0.432887,-0.901375,-0.169971,0.031016,0.051247,-1.843779,2.807864,-36.267548,,,,,,,
1504199502.441797,0.031180,0.452983,-0.825620,0.608133,0.459103,-2.815860,0.028031,-0.437650,-0.898709,-0.180329,0.049451,0.047436,-1.843779,2.807864,-36.267548,,,,,,,
1504199502.451807,0.048258,0.458528,-0.856974,0.684317,0.270888,-2.775902,0.043256,-0.442628,-0.895661,-0.184370,0.087404,-0.004287,-1.467833,2.434543,-36.263794,,,,,,,
1504199502.461816,0.062397,0.464297,-0.887601,0.737977,-0.026962,-2.673881,0.055755,-0.447794,-0.892397,-0.199890,0.085062,-0.044005,-1.467833,2.434543,-36.263794,,,,,,,
1504199502.471826,0.072764,0.469981,-0.916587,0.739824,-0.350043,-2.491849,0.064817,-0.452869,-0.889218,-0.212614,0.071918,-0.077701,-1.690870,1.832934,-35.959839,,,,,,,
1504199502.481836,0.079070,0.475149,-0.943275,0.674367,-0.661950,-2.274730,0.070237,-0.457471,-0.886446,-0.218416,0.056318,-0.091993,-1.690870,1.832934,-35.959839,,,,,,,
1504199502.491846,0.081675,0.479162,-0.967594,0.536864,-0.916776,-2.067443,0.072397,-0.461035,-0.884424,-0.223657,0.060950,-0.099173,-2.065306,1.606250,-35.959076,,,,,,,
1504199502.501855,0.081327,0.481741,-0.989775,0.376636,-1.102112,-1.898744,0.071992,-0.463323,-0.883260,-0.232072,0.054464,-0.084193,-2.065306,1.606250,-35.959076,,,,,,,
1504199502.511865,0.078949,0.483018,-1.010256,0.240679,-1.208757,-1.764299,0.069844,-0.464454,-0.882839,-0.250417,0.038734,-0.054493,-3.113935,1.151233,-35.808289,,,,,,,
1504199502.521875,0.074516,0.483434,-1.029080,0.163953,-1.265777,-1.661861,0.065916,-0.464823,-0.882947,-0.264631,0.063959,-0.033298,-3.113935,1.151233,-35.808289,,,,,,,
1504199502.531885,0.070376,0.483883,-1.046985,0.163637,-1.232861,-1.545572,0.062245,-0.465220,-0.883004,-0.273030,0.077021,-0.012412,-3.863264,0.922717,-35.733429,,,,,,,
1504199502.541894,0.066174,0.485061,-1.063277,0.233901,-1.153684,-1.387615,0.058498,-0.466263,-0.882710,-0.283199,0.055679,0.025258,-3.863264,0.922717,-35.733429,,,,,,,
1504199502.551904,0.062215,0.487164,-1.077626,0.308626,-1.033014,-1.201970,0.054941,-0.468122,-0.881954,-0.285914,0.060956,0.042126,-4.611326,0.244052,-35.580231,,,,,,,
1504199502.561914,0.058381,0.490048,-1.089700,0.366402,-0.894095,-1.012117,0.051481,-0.470668,-0.880807,-0.272687,0.064403,0.053048,-4.611326,0.244052,-35.580231,,,,,,,
1504199502.571924,0.055298,0.493255,-1.100094,0.367712,-0.770652,-0.862896,0.048681,-0.473495,-0.879450,-0.250585,0.062820,0.052927,-4.985426,0.016910,-35.354431,,,,,,,
1504199502.581934,0.052324,0.496024,-1.109709,0.299347,-0.754149,-0.820347,0.045997,-0.475933,-0.878278,-0.226035,0.076992,0.036786,-4.985426,0.016910,-35.354431,,,,,,,
1504199502.591943,0.049324,0.497984,-1.118744,0.215023,-0.726867,-0.769306,0.043316,-0.477655,-0.877479,-0.196682,0.086298,0.013694,-5.282866,-0.735333,-34.899567,,,,,,,
1504199502.601953,0.045809,0.499111,-1.127210,0.143331,-0.735894,-0.742730,0.040207,-0.478645,-0.877087,-0.151184,0.094810,0.006421,-5.282866,-0.735333,-34.899567,,,,,,,
1504199502.611963,0.042592,0.499846,-1.135906,0.100767,-0.737648,-0.768418,0.037370,-0.479291,-0.876860,-0.137635,0.111356,0.005126,-6.257963,-0.739575,-34.976929,,,,,,,
1504199502.621973,0.039934,0.500719,-1.145115,0.135490,-0.694195,-0.815400,0.035023,-0.480056,-0.876538,-0.137577,0.124862,0.013196,-6.257963,-0.739575,-34.976929,,,,,,,
1504199502.631982,0.038270,0.502572,-1.154865,0.254799,-0.608823,-0.854838,0.033530,-0.481681,-0.875705,-0.136450,0.137656,0.035037,-6.856565,-1.117871,-34.675629,,,,,,,
1504199502.641992,0.037766,0.506195,-1.165086,0.444422,-0.535753,-0.893065,0.033022,-0.484853,-0.873972,-0.137911,0.129277,0.064341,-6.856565,-1.117871,-34.675629,,,,,,,
1504199502.652002,0.038147,0.511545,-1.175693,0.604106,-0.452876,-0.902541,0.033256,-0.489525,-0.871355,-0.135718,0.143120,0.065080,-7.155775,-1.568769,-34.897980,,,,,,,
1504199502.661981,0.039358,0.518054,-1.185815,0.704854,-0.352546,-0.833162,0.034185,-0.495190,-0.868112,-0.121450,0.122357,0.072228,-7.155775,-1.568769,-34.897980,,,,,,,
1504199502.671991,0.040757,0.524854,-1.194650,0.699387,-0.288699,-0.704128,0.035262,-0.501087,-0.864678,-0.103606,0.071018,0.090768,-7.529524,-2.020612,-34.820526,,,,,,,
1504199502.682001,0.041605,0.530833,-1.202186,0.593130,-0.304978,-0.603948,0.035869,-0.506252,-0.861639,-0.084911,0.080547,0.062628,-7.529524,-2.020612,-34.820526,,,,,,,
1504199502.692010,0.041362,0.535468,-1.209019,0.473909,-0.381819,-0.568795,0.035562,-0.510243,-0.859294,-0.076059,0.093862,0.021633,-7.527159,-2.696500,-34.365479,,,,,,,
1504199502.702020,0.040257,0.539479,-1.215941,0.409060,-0.495288,-0.583651,0.034530,-0.513689,-0.857281,-0.072876,0.094317,0.003216,-7.527159,-2.696500,-34.365479,,,,,,,
1504199502.712030,0.038390,0.543164,-1.223279,0.397887,-0.583599,-0.624076,0.032857,-0.516847,-0.855447,-0.070027,0.098100,-0.002891,-7.750914,-3.147672,-34.287628,,,,,,,
1504199502.722040,0.036432,0.547419,-1.231031,0.472615,-0.594843,-0.650612,0.031101,-0.520485,-0.853304,-0.069050,0.103035,-0.000700,-7.750914,-3.147672,-34.287628,,,,,,,
1504199502.732050,0.035009,0.552735,-1.238845,0.580845,-0.530742,-0.641998,0.029790,-0.525017,-0.850570,-0.075002,0.098061,0.006957,-7.899336,-3.598935,-33.984650,,,,,,,
1504199502.742059,0.034593,0.559004,-1.246355,0.668061,-0.406826,-0.602572,0.029322,-0.530342,-0.847277,-0.091272,0.075127,0.013964,-7.899336,-3.598935,-33.984650,,,,,,,
1504199502.752069,0.035140,0.565954,-1.253295,0.728479,-0.291226,-0.551436,0.029655,-0.536222,-0.843556,-0.110283,0.057309,0.012990,-8.123457,-3.900098,-33.907928,,,,,,,
1504199502.762079,0.036215,0.572928,-1.259812,0.703271,-0.215404,-0.509984,0.030425,-0.542095,-0.839766,-0.124389,0.058391,-0.008027,-8.123457,-3.900098,-33.907928,,,,,,,
1504199502.772089,0.038000,0.579369,-1.265387,0.650350,-0.106370,-0.420606,0.031791,-0.547496,-0.836204,-0.129295,0.055660,-0.031578,-8.345945,-4.726712,-33.602264,,,,,,,
1504199502.782098,0.037310,0.585449,-1.268574,0.598908,-0.074083,-0.326819,0.031089,-0.552574,-0.832884,-0.130302,-0.001641,-0.017732,-8.345945,-4.726712,-33.602264,,,,,,,
1504199502.792108,0.038441,0.590999,-1.272004,0.554703,-0.081263,-0.245761,0.031913,-0.557191,-0.829771,-0.135703,0.018800,-0.050173,-8.569960,-5.028028,-33.450562,,,,,,,
1504199502.802118,0.038948,0.596339,-1.274610,0.538242,-0.097180,-0.179582,0.032217,-0.561617,-0.826770,-0.134481,0.004778,-0.055097,-8.569960,-5.028028,-33.450562,,,,,,,
1504199502.812128,0.039017,0.601530,-1.276599,0.518715,-0.108788,-0.133697,0.032160,-0.565905,-0.823843,-0.133036,0.003328,-0.054178,-8.643370,-5.703214,-33.520691,,,,,,,
1504199502.822137,0.031335,0.605526,-1.273930,0.500155,-0.128926,-0.093133,0.025760,-0.569195,-0.821799,-0.129718,-0.002568,-0.050225,-8.643370,-5.703214,-33.520691,,,,,,,
1504199502.832147,0.030408,0.610377,-1.274715,0.479491,-0.139476,-0.031240,0.024914,-0.573177,-0.819053,-0.129207,-0.005833,-0.058343,-8.493071,-5.777692,-33.444733,,,,,,,
1504199502.842157,0.028741,0.615036,-1.274456,0.456525,-0.154297,0.057340,0.023471,-0.576988,-0.816415,-0.125903,-0.012749,-0.064993,-8.493071,-5.777692,-33.444733,,,,,,,
1504199502.852167,0.026307,0.619275,-1.273090,0.407969,-0.167841,0.144807,0.021419,-0.580445,-0.814018,-0.117885,-0.018371,-0.067284,-8.716383,-6.229459,-33.066925,,,,,,,
1504199502.862176,0.016238,0.621730,-1.266777,0.332690,-0.193929,0.210902,0.013199,-0.582442,-0.812765,-0.101502,-0.024324,-0.072672,-8.716383,-6.229459,-33.066925,,,,,,,
1504199502.872186,0.012405,0.624282,-1.264054,0.220268,-0.234576,0.224655,0.010065,-0.584515,-0.811321,-0.083689,-0.011600,-0.085652,-8.715773,-6.379758,-32.915802,,,,,,,
1504199502.882196,0.008331,0.625806,-1.261677,0.128396,-0.276398,0.180806,0.006752,-0.585751,-0.810463,-0.066140,0.012341,-0.104744,-8.715773,-6.379758,-32.915802,,,,,,,
1504199502.892175,0.004566,0.626273,-1.260168,0.018801,-0.288200,0.101649,0.003699,-0.586129,-0.810209,-0.052344,0.021142,-0.112078,-9.165129,-6.457379,-32.616364,,,,,,,
1504199502.902185,-0.001756,0.618360,-1.257748,-0.072195,-0.246748,0.007462,-0.001431,-0.579700,-0.814829,-0.043613,0.016498,-0.097387,-9.165129,-6.457379,-32.616364,,,,,,,
1504199502.912195,-0.003094,0.617066,-1.258541,-0.144598,-0.153346,-0.086760,-0.002524,-0.578645,-0.815576,-0.046472,0.012132,-0.078055,-9.164381,-6.757382,-32.614105,,,,,,,
1504199502.922205,-0.002716,0.615318,-1.260294,-0.185965,-0.034648,-0.159624,-0.002218,-0.577218,-0.816587,-0.053598,0.000833,-0.054293,-9.164381,-6.757382,-32.614105,,,,,,,
1504199502.932214,-0.000881,0.613384,-1.262811,-0.195582,0.060330,-0.218515,-0.000720,-0.575637,-0.817705,-0.061505,-0.015732,-0.032790,-9.315168,-6.532758,-32.766174,,,,,,,
1504199502.942224,-0.004184,0.613129,-1.262375,-0.211020,0.110533,-0.260249,-0.003422,-0.575429,-0.817844,-0.068432,-0.032267,-0.024303,-9.315168,-6.532758,-32.766174,,,,,,,
1504199502.952234,-0.001196,0.610742,-1.265859,-0.248359,0.091692,-0.291236,-0.000980,-0.573475,-0.819222,-0.074871,-0.034481,-0.025993,-9.239943,-6.532712,-32.615967,,,,,,,
1504199502.962244,0.001306,0.607873,-1.269562,-0.301157,0.017550,-0.306140,0.001072,-0.571123,-0.820864,-0.079776,-0.030867,-0.036085,-9.239943,-6.532712,-32.615967,,,,,,,
1504199502.972253,0.002843,0.604649,-1.273268,-0.326526,-0.083477,-0.301736,0.002339,-0.568473,-0.822698,-0.084446,-0.029915,-0.040446,-9.239943,-6.532712,-32.615967,,,,,,,
1504199502.982263,-0.002241,0.602223,-1.273720,-0.327570,-0.198604,-0.284450,-0.001847,-0.566476,-0.824076,-0.082824,-0.033317,-0.035299,-9.239943,-6.532712,-32.615967,,,,,,,
1504199502.992262,-0.003267,0.599248,-1.276945,-0.292331,-0.312939,-0.259637,-0.002697,-0.564022,-0.825755,-0.087299,-0.041264,-0.024434,-9.165098,-6.606931,-32.840240,,,,,,,
1504199503.002272,-0.005493,0.596599,-1.280036,-0.249483,-0.420924,-0.252968,-0.004544,-0.561832,-0.827239,-0.094714,-0.046932,-0.015108,-9.165098,-6.606931,-32.840240,,,,,,,
1504199503.012281,-0.008671,0.594707,-1.283011,-0.176536,-0.498260,-0.242031,-0.007182,-0.560266,-0.828282,-0.106527,-0.056708,-0.004924,-9.616636,-5.859403,-32.621979,,,,,,,
1504199503.022291,-0.016468,0.595832,-1.283409,-0.137302,-0.512511,-0.221646,-0.013629,-0.561198,-0.827569,-0.112210,-0.063970,0.000558,-9.616636,-5.859403,-32.621979,,,,,,,
1504199503.032301,-0.019999,0.594699,-1.285861,-0.111560,-0.477589,-0.192843,-0.016565,-0.560259,-0.828152,-0.121741,-0.059538,0.001858,-9.840544,-6.160855,-32.395264,,,,,,,
1504199503.042311,-0.023192,0.593855,-1.287872,-0.079232,-0.415022,-0.156606,-0.019219,-0.559560,-0.828567,-0.123267,-0.056956,-0.002488,-9.840544,-6.160855,-32.395264,,,,,,,
1504199503.052320,-0.025868,0.593025,-1.289551,-0.088380,-0.343576,-0.133265,-0.021448,-0.558872,-0.828977,-0.119970,-0.053601,-0.012240,-9.914946,-6.311490,-32.244293,,,,,,,
1504199503.062330,-0.035621,0.593570,-1.286831,-0.135808,-0.264381,-0.134541,-0.029522,-0.559324,-0.828423,-0.109089,-0.041567,-0.031410,-9.914946,-6.311490,-32.244293,,,,,,,
1504199503.072340,-0.036659,0.591692,-1.288785,-0.214075,-0.196573,-0.163616,-0.030420,-0.557766,-0.829441,-0.102515,-0.022541,-0.049786,-9.990355,-6.236539,-32.395081,,,,,,,
1504199503.082350,-0.036837,0.589012,-1.291213,-0.293465,-0.140470,-0.200145,-0.030623,-0.555540,-0.830926,-0.098390,-0.009844,-0.064750,-9.990355,-6.236539,-32.395081,,,,,,,
1504199503.092360,-0.036447,0.585891,-1.294055,-0.326188,-0.115660,-0.231200,-0.030362,-0.552942,-0.832667,-0.095874,-0.014517,-0.067800,-10.215574,-6.012998,-32.172272,,,,,,,
1504199503.102369,-0.040769,0.581915,-1.294595,-0.344392,-0.136796,-0.258943,-0.034049,-0.549625,-0.834717,-0.087441,-0.030499,-0.061858,-10.215574,-6.012998,-32.172272,,,,,,,
1504199503.112379,-0.040564,0.578505,-1.298156,-0.352121,-0.189978,-0.291952,-0.033954,-0.546773,-0.836592,-0.084714,-0.041393,-0.057084,-10.065962,-5.862317,-32.173035,,,,,,,
1504199503.122389,-0.040800,0.575279,-1.302061,-0.324725,-0.250913,-0.320617,-0.034223,-0.544069,-0.838342,-0.085787,-0.046309,-0.049613,-10.065962,-5.862317,-32.173035,,,,,,,
1504199503.132368,-0.041490,0.572743,-1.306160,-0.243978,-0.302712,-0.335330,-0.034859,-0.541939,-0.839694,-0.087501,-0.048210,-0.042889,-10.516523,-5.639340,-32.175842,,,,,,,
1504199503.142378,-0.046030,0.572317,-1.308409,-0.142971,-0.345127,-0.337208,-0.038681,-0.541581,-0.839758,-0.086075,-0.051650,-0.040064,-10.516523,-5.639340,-32.175842,,,,,,,
1504199503.152388,-0.047530,0.571694,-1.312473,-0.056769,-0.374605,-0.340209,-0.039957,-0.541058,-0.840036,-0.089194,-0.049122,-0.044745,-10.590620,-5.865125,-31.949341,,,,,,,
1504199503.162397,-0.049219,0.571866,-1.316515,0.018879,-0.386951,-0.338989,-0.041371,-0.541202,-0.839874,-0.098872,-0.048733,-0.053772,-10.590620,-5.865125,-31.949341,,,,,,,
1504199503.172407,-0.050835,0.572653,-1.320412,0.074476,-0.365044,-0.327189,-0.042707,-0.541864,-0.839380,-0.108645,-0.054648,-0.062673,-10.814939,-6.091290,-31.873199,,,,,,,
1504199503.182417,-0.055976,0.574848,-1.322024,0.117614,-0.301493,-0.322950,-0.046954,-0.543707,-0.837960,-0.114438,-0.068063,-0.067603,-10.814939,-6.091290,-31.873199,,,,,,,
1504199503.192427,-0.056162,0.576265,-1.325814,0.125928,-0.197130,-0.325254,-0.047068,-0.544896,-0.837181,-0.127279,-0.083903,-0.069969,-10.814146,-6.540845,-32.094849,,,,,,,
1504199503.202436,-0.055148,0.577492,-1.329587,0.093825,-0.072196,-0.320193,-0.046182,-0.545924,-0.836561,-0.139014,-0.096287,-0.071154,-10.814146,-6.540845,-32.094849,,,,,,,
1504199503.212446,-0.053016,0.578052,-1.333320,0.017797,0.030721,-0.314102,-0.044382,-0.546394,-0.836352,-0.142431,-0.104470,-0.075910,-11.039259,-6.317441,-31.797058,,,,,,,
1504199503.222456,-0.050357,0.577641,-1.337048,-0.082244,0.066703,-0.306867,-0.042169,-0.546049,-0.836691,-0.140433,-0.103548,-0.087244,-11.039259,-6.317441,-31.797058,,,,,,,
1504199503.232466,-0.047940,0.576339,-1.340705,-0.162629,0.028990,-0.294131,-0.040181,-0.544958,-0.837500,-0.138927,-0.102533,-0.099451,-11.038984,-6.467298,-31.870941,,,,,,,
1504199503.242476,-0.046358,0.574301,-1.344013,-0.232716,-0.039736,-0.256772,-0.038907,-0.543248,-0.838670,-0.134555,-0.102107,-0.104933,-11.038984,-6.467298,-31.870941,,,,,,,
1504199503.252485,-0.045765,0.571704,-1.346848,-0.279386,-0.112921,-0.215095,-0.038474,-0.541066,-0.840099,-0.128396,-0.102138,-0.099705,-10.739668,-6.240796,-31.946869,,,,,,,
1504199503.262495,-0.046214,0.568909,-1.349166,-0.288742,-0.187482,-0.170149,-0.038921,-0.538713,-0.841590,-0.126927,-0.096221,-0.087564,-10.739668,-6.240796,-31.946869,,,,,,,
1504199503.272505,-0.047640,0.566362,-1.350909,-0.253205,-0.250694,-0.123011,-0.040187,-0.536566,-0.842901,-0.127706,-0.086771,-0.073130,-10.814146,-6.316586,-31.721527,,,,,,,
1504199503.282515,-0.049752,0.564183,-1.352164,-0.209913,-0.285187,-0.087650,-0.042024,-0.534726,-0.843980,-0.124861,-0.078754,-0.059996,-10.814146,-6.316586,-31.721527,,,,,,,
1504199503.292524,-0.052262,0.562378,-1.353171,-0.181364,-0.308879,-0.073683,-0.044193,-0.533199,-0.844835,-0.123943,-0.069325,-0.044066,-10.965498,-5.866956,-31.875275,,,,,,,
1504199503.302534,-0.054931,0.560766,-1.354089,-0.159052,-0.316529,-0.067226,-0.046494,-0.531835,-0.845570,-0.126449,-0.068613,-0.026042,-10.965498,-5.866956,-31.875275,,,,,,,
1504199503.312544,-0.065477,0.563415,-1.350636,-0.157969,-0.297461,-0.049092,-0.055317,-0.534077,-0.843624,-0.121014,-0.070553,-0.010578,-11.190153,-5.868421,-31.650818,,,,,,,
1504199503.322554,-0.067803,0.561792,-1.351145,-0.167257,-0.244128,-0.026786,-0.057338,-0.532704,-0.844357,-0.115590,-0.076198,0.007779,-11.190153,-5.868421,-31.650818,,,,,,,
1504199503.332563,-0.069519,0.560071,-1.351439,-0.174210,-0.168432,-0.008786,-0.058850,-0.531246,-0.845171,-0.102130,-0.070194,0.021166,-11.565153,-5.870099,-31.651733,,,,,,,
1504199503.342573,-0.070482,0.558394,-1.351746,-0.165036,-0.093906,-0.017441,-0.059727,-0.529825,-0.846001,-0.087841,-0.041143,0.026696,-11.565153,-5.870099,-31.651733,,,,,,,
1504199503.352583,-0.076250,0.559123,-1.349273,-0.145261,-0.029098,-0.034585,-0.064576,-0.530443,-0.845257,-0.074004,-0.014967,0.027844,-11.265150,-5.868756,-31.651001,,,,,,,
1504199503.362593,-0.075663,0.557908,-1.350057,-0.124348,0.032566,-0.064545,-0.064129,-0.529413,-0.845937,-0.067127,0.001779,0.031560,-11.265150,-5.868756,-31.651001,,,,,,,
1504199503.372572,-0.074461,0.556794,-1.351261,-0.116458,0.061312,-0.103009,-0.063156,-0.528467,-0.846601,-0.063401,0.011316,0.037306,-11.190077,-5.943265,-31.725281,,,,,,,
1504199503.382582,-0.073079,0.555837,-1.352820,-0.100337,0.049384,-0.131785,-0.062023,-0.527654,-0.847192,-0.063984,0.010916,0.040841,-11.190077,-5.943265,-31.725281,,,,,,,
1504199503.392591,-0.076607,0.555525,-1.352149,-0.077283,-0.006224,-0.142312,-0.065023,-0.527390,-0.847132,-0.060816,0.012451,0.036554,-11.265348,-5.793759,-31.651581,,,,,,,
1504199503.402601,-0.076488,0.554910,-1.353890,-0.070606,-0.106443,-0.144258,-0.064947,-0.526867,-0.847463,-0.062372,0.012097,0.030461,-11.265348,-5.793759,-31.651581,,,,,,,
1504199503.412611,-0.077516,0.554640,-1.355616,-0.029902,-0.219732,-0.143988,-0.065830,-0.526637,-0.847537,-0.068127,0.004527,0.024723,-11.416090,-5.494428,-31.654175,,,,,,,
1504199503.422621,-0.079462,0.554540,-1.357324,-0.017736,-0.300815,-0.145959,-0.067483,-0.526552,-0.847460,-0.073631,0.001283,0.019595,-11.416090,-5.494428,-31.654175,,,,,,,
1504199503.432631,-0.087043,0.554491,-1.356362,0.006647,-0.325520,-0.160807,-0.073908,-0.526511,-0.846950,-0.076590,0.008475,0.019252,-11.715071,-5.945630,-31.726562,,,,,,,
1504199503.442640,-0.088937,0.554849,-1.358346,0.026287,-0.279846,-0.174730,-0.075495,-0.526815,-0.846621,-0.090185,0.013189,0.023745,-11.715071,-5.945630,-31.726562,,,,,,,
1504199503.452650,-0.089928,0.555385,-1.360426,0.035651,-0.180815,-0.182360,-0.076308,-0.527270,-0.846264,-0.104279,0.005679,0.033200,-11.789808,-5.871564,-31.427307,,,,,,,
1504199503.462660,-0.089738,0.556026,-1.362409,0.054741,-0.053114,-0.168676,-0.076117,-0.527815,-0.845942,-0.118402,-0.003802,0.042231,-11.789808,-5.871564,-31.427307,,,,,,,
1504199503.472670,-0.096637,0.558501,-1.359738,0.046958,0.067282,-0.135794,-0.081825,-0.529916,-0.844094,-0.120491,-0.008002,0.042885,-11.639219,-6.021192,-31.275818,,,,,,,
1504199503.482679,-0.094637,0.558955,-1.360982,0.029305,0.150507,-0.099680,-0.080114,-0.530301,-0.844016,-0.120829,-0.009387,0.033027,-11.639219,-6.021192,-31.275818,,,,,,,
1504199503.492689,-0.092332,0.558986,-1.361959,-0.015365,0.182818,-0.076331,-0.078167,-0.530327,-0.844182,-0.116168,-0.003578,0.014272,-11.939253,-6.097241,-31.425964,,,,,,,
1504199503.502699,-0.090274,0.558666,-1.362760,-0.046651,0.148961,-0.061382,-0.076445,-0.530056,-0.844510,-0.109834,-0.000020,-0.005755,-11.939253,-6.097241,-31.425964,,,,,,,
1504199503.512709,-0.094871,0.556596,-1.360508,-0.089084,0.049150,-0.063404,-0.080430,-0.528299,-0.845241,-0.097625,-0.005286,-0.024221,-11.564436,-6.020551,-31.425598,,,,,,,
1504199503.522718,-0.095104,0.555511,-1.361271,-0.128771,-0.101853,-0.049331,-0.080682,-0.527377,-0.845792,-0.094504,-0.005109,-0.048434,-11.564436,-6.020551,-31.425598,,,,,,,
1504199503.532728,-0.097183,0.553992,-1.361696,-0.161274,-0.273187,-0.010658,-0.082517,-0.526087,-0.846418,-0.092425,-0.001440,-0.070406,-11.714476,-6.095929,-31.575409,,,,,,,
1504199503.542738,-0.101242,0.552340,-1.361540,-0.161765,-0.434145,0.044062,-0.086040,-0.524680,-0.846940,-0.094075,-0.008904,-0.080657,-11.714476,-6.095929,-31.575409,,,,,,,
1504199503.552748,-0.109773,0.549851,-1.359094,-0.121276,-0.531509,0.109421,-0.093405,-0.522560,-0.847471,-0.100870,-0.025200,-0.075122,-11.639631,-5.945889,-31.426361,,,,,,,
1504199503.562758,-0.116253,0.548911,-1.357225,-0.057804,-0.550230,0.188551,-0.098952,-0.521759,-0.847335,-0.105989,-0.036820,-0.058213,-11.639631,-5.945889,-31.426361,,,,,,,
1504199503.572767,-0.122922,0.548517,-1.354454,0.004077,-0.509250,0.254765,-0.104625,-0.521422,-0.846860,-0.104664,-0.046479,-0.039691,-12.014357,-5.873181,-31.127869,,,,,,,
1504199503.582777,-0.129185,0.548508,-1.351077,0.042934,-0.428625,0.294184,-0.109927,-0.521415,-0.846193,-0.100354,-0.045220,-0.030638,-12.014357,-5.873181,-31.127869,,,,,,,
1504199503.592787,-0.137772,0.548896,-1.345686,0.068216,-0.316986,0.320723,-0.117162,-0.521746,-0.845017,-0.098597,-0.035642,-0.035430,-12.614927,-5.650876,-31.131042,,,,,,,
1504199503.602766,-0.142039,0.549120,-1.341617,0.073464,-0.178527,0.346106,-0.120750,-0.521937,-0.844394,-0.099282,-0.035406,-0.042508,-12.614927,-5.650876,-31.131042,,,,,,,
1504199503.612776,-0.144907,0.549440,-1.337373,0.085291,-0.028384,0.354401,-0.123147,-0.522210,-0.843879,-0.093574,-0.036948,-0.048150,-12.914244,-5.653119,-30.681763,,,,,,,
1504199503.622786,-0.146498,0.549747,-1.333175,0.079839,0.085688,0.346718,-0.124466,-0.522472,-0.843523,-0.087845,-0.043019,-0.056471,-12.914244,-5.653119,-30.681763,,,,,,,
1504199503.632795,-0.150239,0.549772,-1.327561,0.065601,0.162541,0.326284,-0.127619,-0.522493,-0.843039,-0.077429,-0.044722,-0.066721,-12.764952,-5.501996,-30.907532,,,,,,,
1504199503.642805,-0.150206,0.549932,-1.323837,0.063918,0.206265,0.305924,-0.127579,-0.522629,-0.842960,-0.069000,-0.042281,-0.077709,-12.764952,-5.501996,-30.907532,,,,,,,
1504199503.652815,-0.149906,0.550139,-1.320289,0.064050,0.214802,0.293100,-0.127309,-0.522806,-0.842892,-0.064417,-0.042532,-0.079990,-12.989912,-5.428296,-30.758636,,,,,,,
1504199503.662825,-0.149751,0.550207,-1.316879,0.043575,0.184077,0.284579,-0.127174,-0.522864,-0.842876,-0.056680,-0.045221,-0.079014,-12.989912,-5.428296,-30.758636,,,,,,,
1504199503.672834,-0.151755,0.549653,-1.312610,-0.001672,0.135421,0.292062,-0.128906,-0.522391,-0.842906,-0.048401,-0.048684,-0.079564,-12.615416,-5.500714,-31.207123,,,,,,,
1504199503.682844,-0.152658,0.548798,-1.309125,-0.054508,0.077229,0.310219,-0.129735,-0.521662,-0.843230,-0.039973,-0.056066,-0.073243,-12.615416,-5.500714,-31.207123,,,,,,,
1504199503.692854,-0.154276,0.547317,-1.305605,-0.114905,0.002059,0.319854,-0.131218,-0.520398,-0.843782,-0.025566,-0.062442,-0.062423,-12.689360,-5.876203,-31.129517,,,,,,,
1504199503.702864,-0.156631,0.545414,-1.302300,-0.151781,-0.084996,0.300730,-0.133359,-0.518772,-0.844447,-0.012256,-0.050930,-0.057103,-12.689360,-5.876203,-31.129517,,,,,,,
1504199503.712873,-0.159139,0.543064,-1.299763,-0.163861,-0.162622,0.245340,-0.135670,-0.516762,-0.845311,-0.000408,-0.028389,-0.055827,-12.315489,-5.424527,-31.131989,,,,,,,
1504199503.722883,-0.162034,0.541075,-1.297791,-0.171270,-0.194463,0.182407,-0.138282,-0.515058,-0.845928,0.007590,-0.004382,-0.052159,-12.315489,-5.424527,-31.131989,,,,,,,
1504199503.732893,-0.164515,0.539095,-1.296582,-0.181509,-0.180460,0.118320,-0.140547,-0.513360,-0.846586,0.013212,0.009179,-0.042162,-12.991621,-4.977551,-31.137024,,,,,,,
1504199503.742903,-0.166194,0.537037,-1.296058,-0.202142,-0.124824,0.065884,-0.142142,-0.511593,-0.847389,0.014548,0.008419,-0.028511,-12.991621,-4.977551,-31.137024,,,,,,,
1504199503.752913,-0.166364,0.533695,-1.296287,-0.222750,-0.052145,0.035831,-0.142569,-0.508718,-0.849047,0.007482,0.008351,-0.016630,-12.915297,-5.502225,-31.132904,,,,,,,
1504199503.762922,-0.166345,0.531253,-1.296392,-0.242522,0.007696,0.031421,-0.142758,-0.506614,-0.850272,-0.001911,0.009101,-0.004632,-12.915297,-5.502225,-31.132904,,,,,,,
1504199503.772932,-0.166188,0.528923,-1.296394,-0.229736,0.012906,0.043176,-0.142819,-0.504603,-0.851456,-0.008044,0.008678,0.003175,-13.066343,-5.127744,-31.211060,,,,,,,
1504199503.782942,-0.166581,0.526721,-1.296082,-0.204679,-0.038478,0.071062,-0.143337,-0.502701,-0.852494,-0.010639,0.009262,0.004365,-13.066343,-5.127744,-31.211060,,,,,,,
1504199503.792952,-0.168498,0.523924,-1.295078,-0.151030,-0.118855,0.094781,-0.145206,-0.500282,-0.853600,-0.009411,0.018699,0.006096,-12.841246,-5.126874,-31.135529,,,,,,,
1504199503.802961,-0.170785,0.522847,-1.294096,-0.070614,-0.197315,0.103598,-0.147250,-0.499348,-0.853796,-0.012387,0.028676,0.008017,-12.841246,-5.126874,-31.135529,,,,,,,
1504199503.812971,-0.173832,0.522711,-1.292838,0.030280,-0.251433,0.110273,-0.149863,-0.499231,-0.853411,-0.021722,0.035394,0.009783,-13.141493,-4.978375,-31.062378,,,,,,,
1504199503.822981,-0.177101,0.523463,-1.291394,0.114585,-0.249995,0.109349,-0.152586,-0.499883,-0.852546,-0.032747,0.037450,0.007865,-13.141493,-4.978375,-31.062378,,,,,,,
1504199503.832991,-0.182227,0.522645,-1.288687,0.163127,-0.182181,0.108251,-0.157028,-0.499174,-0.852155,-0.043884,0.035795,0.000653,-12.992140,-4.677854,-30.989288,,,,,,,
1504199503.842970,-0.184122,0.524256,-1.286958,0.189518,-0.074788,0.123051,-0.158495,-0.500569,-0.851064,-0.055342,0.032430,-0.009211,-12.992140,-4.677854,-30.989288,,,,,,,
1504199503.852980,-0.184906,0.525835,-1.285015,0.182962,0.049924,0.139899,-0.159017,-0.501936,-0.850161,-0.061107,0.029814,-0.023175,-13.140974,-5.053830,-30.836823,,,,,,,
1504199503.862989,-0.184751,0.527277,-1.282982,0.169742,0.135274,0.146130,-0.158751,-0.503182,-0.849474,-0.063402,0.037392,-0.042219,-13.140974,-5.053830,-30.836823,,,,,,,
1504199503.872999,-0.186523,0.523917,-1.279769,0.136771,0.157953,0.156712,-0.160569,-0.500275,-0.850848,-0.063919,0.046952,-0.065793,-12.991194,-5.052854,-30.986450,,,,,,,
1504199503.883009,-0.186338,0.524732,-1.277447,0.110716,0.125095,0.194084,-0.160336,-0.500981,-0.850477,-0.070392,0.065358,-0.099124,-12.991194,-5.052854,-30.986450,,,,,,,
1504199503.893019,-0.187124,0.525190,-1.274327,0.089472,0.058046,0.281692,-0.160962,-0.501378,-0.850125,-0.082035,0.075612,-0.125019,-12.991194,-5.052854,-30.986450,,,,,,,
1504199503.903029,-0.189308,0.525193,-1.269821,0.067981,-0.007988,0.420534,-0.162818,-0.501380,-0.849770,-0.094827,0.072776,-0.140495,-13.216047,-5.203565,-31.135895,,,,,,,
1504199503.913038,-0.192710,0.524564,-1.263531,0.032841,-0.027056,0.590224,-0.165768,-0.500836,-0.849520,-0.094470,0.073239,-0.148283,-12.991392,-4.977857,-30.987030,,,,,,,
1504199503.923048,-0.197389,0.522234,-1.255160,0.022505,-0.014346,0.756699,-0.169970,-0.498818,-0.849877,-0.094190,0.071404,-0.135749,-12.991392,-4.977857,-30.987030,,,,,,,
1504199503.933058,-0.202480,0.520859,-1.245256,0.038805,-0.018896,0.904037,-0.174432,-0.497626,-0.849672,-0.092002,0.062750,-0.121688,-13.067060,-4.753034,-31.063873,,,,,,,
1504199503.943068,-0.208716,0.519219,-1.233949,0.039864,-0.080830,1.020495,-0.179896,-0.496202,-0.849365,-0.071996,0.051988,-0.127426,-13.067060,-4.753034,-31.063873,,,,,,,
1504199503.953077,-0.216255,0.517225,-1.221761,0.022777,-0.172404,1.091075,-0.186506,-0.494470,-0.848949,-0.041552,0.052957,-0.150288,-13.142286,-4.753079,-31.214050,,,,,,,
1504199503.963087,-0.224686,0.514785,-1.209335,-0.012033,-0.244597,1.109288,-0.193925,-0.492348,-0.848520,-0.014938,0.058190,-0.172857,-13.142286,-4.753079,-31.214050,,,,,,,
1504199503.973097,-0.233289,0.511883,-1.197165,-0.050520,-0.265573,1.091113,-0.201547,-0.489820,-0.848207,0.002619,0.063810,-0.184416,-13.742704,-4.456220,-30.992828,,,,,,,
1504199503.983107,-0.241488,0.508713,-1.185641,-0.078941,-0.252493,1.034468,-0.208865,-0.487054,-0.848030,0.014728,0.064538,-0.186455,-13.742704,-4.456220,-30.992828,,,,,,,
1504199503.993084,-0.248792,0.505336,-1.175283,-0.115474,-0.215854,0.930802,-0.215457,-0.484102,-0.848071,0.018527,0.067201,-0.183530,-13.968565,-4.157086,-31.070618,,,,,,,
1504199504.003094,-0.254884,0.502152,-1.166363,-0.113376,-0.166721,0.802631,-0.221007,-0.481313,-0.848230,0.014067,0.080129,-0.181296,-13.968565,-4.157086,-31.070618,,,,,,,
