timestamp(unix),attitude_roll(radians),attitude_pitch(radians),attitude_yaw(radians),rotation_rate_x(radians/s),rotation_rate_y(radians/s),rotation_rate_z(radians/s),gravity_x(G),gravity_y(G),gravity_z(G),user_acc_x(G),user_acc_y(G),user_acc_z(G),magnetic_field_x(microteslas),magnetic_field_y(microteslas),magnetic_field_z(microteslas),latitude(degree),longitude(degree),altitude(meter),speed(m/s),course(degree),timestamp(unix),User Mark
1504198835.986954,0.044204,0.835740,2.256915,-0.062452,-0.160178,-0.033650,0.029635,-0.741793,-0.669974,0.000212,0.210329,-0.201578,17.116976,-15.800778,-26.780548,,,,,,,
1504198835.996964,0.042513,0.834262,2.256387,-0.174936,-0.223178,-0.043340,0.028549,-0.740801,-0.671118,0.003312,0.217257,-0.200602,17.267427,-16.024960,-26.853516,,,,,,,
1504198836.006974,0.040476,0.831575,2.255866,-0.296738,-0.246680,-0.046712,0.027262,-0.738993,-0.673161,0.011328,0.220667,-0.212535,17.267427,-16.024960,-26.853516,,,,,,,
1504198836.016983,0.038418,0.827718,2.255333,-0.411904,-0.241464,-0.051191,0.025986,-0.736389,-0.676059,0.006897,0.213577,-0.218305,17.041872,-16.025219,-27.229095,,,,,,,
1504198836.026993,0.036615,0.822773,2.254761,-0.517276,-0.215013,-0.059959,0.024900,-0.733035,-0.679735,-0.000913,0.210925,-0.201704,17.041872,-16.025219,-27.229095,,,,,,,
1504198836.037003,0.035178,0.816931,2.254053,-0.598112,-0.190892,-0.071883,0.024073,-0.729049,-0.684038,-0.007472,0.208709,-0.191633,16.965746,-15.575559,-27.232666,,,,,,,
1504198836.047013,0.033797,0.810665,2.253226,-0.624851,-0.204515,-0.080445,0.023282,-0.724746,-0.688623,-0.002927,0.196166,-0.185034,16.965746,-15.575559,-27.232666,,,,,,,
1504198836.057022,0.032149,0.804274,2.252343,-0.634729,-0.239598,-0.081467,0.022296,-0.720327,-0.693276,0.000577,0.188727,-0.179832,16.814013,-14.975934,-27.387512,,,,,,,
1504198836.067032,0.030089,0.798158,2.251423,-0.599858,-0.282508,-0.082399,0.021000,-0.716072,-0.697711,-0.003330,0.191078,-0.175092,16.814013,-14.975934,-27.387512,,,,,,,
1504198836.077042,0.028213,0.792626,2.250445,-0.533344,-0.238298,-0.084496,0.019802,-0.712199,-0.701698,-0.007793,0.203700,-0.177025,16.737917,-14.900067,-27.988281,,,,,,,
1504198836.087052,0.026419,0.788053,2.249521,-0.426793,-0.248778,-0.072552,0.018629,-0.708981,-0.704981,-0.010435,0.221738,-0.168554,16.737917,-14.900067,-27.988281,,,,,,,
1504198836.097061,0.024674,0.784434,2.248701,-0.337064,-0.231409,-0.066022,0.017463,-0.706424,-0.707573,-0.015326,0.232609,-0.157555,16.662508,-14.825101,-28.139008,,,,,,,
1504198836.107071,0.022503,0.781734,2.248049,-0.246763,-0.267339,-0.045522,0.015969,-0.704511,-0.709513,-0.024102,0.237989,-0.158712,16.662508,-14.825101,-28.139008,,,,,,,
1504198836.117081,0.020287,0.779794,2.247715,-0.175184,-0.240248,-0.020895,0.014424,-0.703133,-0.710912,-0.015691,0.228356,-0.163859,16.736376,-14.374768,-28.142212,,,,,,,
1504198836.127091,0.018134,0.778582,2.247823,-0.104526,-0.187588,0.015426,0.012909,-0.702271,-0.711793,-0.023285,0.201310,-0.158263,16.736376,-14.374768,-28.142212,,,,,,,
1504198836.137070,0.016329,0.778092,2.248494,-0.029466,-0.114723,0.057056,0.011630,-0.701922,-0.712159,-0.024646,0.186266,-0.160704,16.210436,-14.226377,-28.519623,,,,,,,
1504198836.147080,0.015197,0.778243,2.249719,0.032038,-0.003384,0.097528,0.010822,-0.702029,-0.712066,-0.030735,0.190494,-0.158326,16.210436,-14.226377,-28.519623,,,,,,,
1504198836.157089,0.014665,0.779099,2.251410,0.099772,0.081273,0.129518,0.010434,-0.702638,-0.711471,-0.032910,0.203706,-0.159211,16.211901,-14.676831,-28.291260,,,,,,,
1504198836.167099,0.014423,0.780463,2.253490,0.140584,0.132057,0.157252,0.010248,-0.703608,-0.710514,-0.034708,0.221049,-0.159450,16.211901,-14.676831,-28.291260,,,,,,,
1504198836.177109,0.014066,0.782038,2.255909,0.158650,0.135085,0.176491,0.009980,-0.704727,-0.709409,-0.033905,0.229522,-0.168231,16.211031,-14.376676,-28.368500,,,,,,,
1504198836.187119,0.013876,0.783769,2.258329,0.173755,0.154145,0.173281,0.009827,-0.705954,-0.708190,-0.037736,0.228552,-0.189698,16.211031,-14.376676,-28.368500,,,,,,,
1504198836.197129,0.013909,0.785768,2.260748,0.203892,0.186930,0.173276,0.009831,-0.707368,-0.706777,-0.027455,0.235368,-0.191310,16.212313,-14.752133,-28.140686,,,,,,,
1504198836.207138,0.014419,0.788224,2.263065,0.259675,0.219513,0.164776,0.010166,-0.709102,-0.705032,-0.030186,0.226360,-0.182037,16.212313,-14.752133,-28.140686,,,,,,,
1504198836.217148,0.015299,0.791232,2.265178,0.313263,0.240399,0.149888,0.010754,-0.711220,-0.702887,-0.035107,0.223518,-0.158990,16.437731,-15.050672,-28.362885,,,,,,,
1504198836.227158,0.016110,0.795011,2.267028,0.388825,0.204632,0.130869,0.011281,-0.713871,-0.700186,-0.040624,0.228260,-0.147867,16.437731,-15.050672,-28.362885,,,,,,,
1504198836.237168,0.016593,0.799429,2.268450,0.457728,0.127377,0.096968,0.011567,-0.716958,-0.697020,-0.045548,0.225701,-0.145173,16.362886,-14.976453,-28.138641,,,,,,,
1504198836.247177,0.016499,0.804418,2.269460,0.507246,0.034286,0.073735,0.011442,-0.720427,-0.693436,-0.047758,0.237242,-0.150863,16.362886,-14.976453,-28.138641,,,,,,,
1504198836.257187,0.015452,0.809715,2.270106,0.533076,-0.088442,0.046243,0.010657,-0.724091,-0.689622,-0.046774,0.259644,-0.161650,16.589159,-15.350888,-27.910248,,,,,,,
1504198836.267197,0.013824,0.815146,2.270393,0.545481,-0.153520,0.021829,0.009480,-0.727826,-0.685696,-0.054478,0.247678,-0.188419,16.589159,-15.350888,-27.910248,,,,,,,
1504198836.277207,0.009068,0.805182,2.272800,0.569019,-0.132519,0.005883,0.006284,-0.720957,-0.692952,-0.030255,0.228937,-0.191021,16.139986,-15.727765,-27.983551,,,,,,,
1504198836.287216,0.006189,0.796011,2.274347,0.598404,-0.040148,0.002616,0.004330,-0.714571,-0.699550,-0.015240,0.219240,-0.162862,16.139986,-15.727765,-27.983551,,,,,,,
1504198836.297226,0.006122,0.795735,2.274901,0.611384,0.112105,-0.017890,0.004284,-0.714378,-0.699747,-0.018536,0.223381,-0.125662,16.516054,-15.876981,-27.531494,,,,,,,
1504198836.307236,0.008500,0.801879,2.274272,0.616591,0.212257,-0.045810,0.005910,-0.718664,-0.695332,-0.024129,0.250753,-0.094539,16.516054,-15.876981,-27.531494,,,,,,,
1504198836.317246,0.011979,0.808235,2.273130,0.647159,0.277044,-0.081096,0.008275,-0.723069,-0.690726,-0.029011,0.248063,-0.116708,16.667055,-16.101910,-27.229462,,,,,,,
1504198836.327255,0.016447,0.815037,2.271430,0.692649,0.340641,-0.115286,0.011279,-0.727751,-0.685749,-0.038867,0.223997,-0.121502,16.667055,-16.101910,-27.229462,,,,,,,
1504198836.337265,0.021871,0.822283,2.269280,0.736980,0.399972,-0.137729,0.014883,-0.732701,-0.680388,-0.042242,0.207021,-0.119860,16.743196,-16.551571,-27.225891,,,,,,,
1504198836.347275,0.028247,0.829930,2.266884,0.776066,0.480643,-0.144208,0.019062,-0.737884,-0.674658,-0.043812,0.190536,-0.133584,16.743196,-16.551571,-27.225891,,,,,,,
1504198836.357285,0.035455,0.837880,2.264350,0.806518,0.552853,-0.144282,0.023716,-0.743227,-0.668619,-0.048359,0.177415,-0.139181,17.119814,-16.925777,-26.772095,,,,,,,
1504198836.367295,0.043412,0.846125,2.261819,0.839038,0.622905,-0.134743,0.028768,-0.748718,-0.662265,-0.037069,0.182662,-0.139631,17.119814,-16.925777,-26.772095,,,,,,,
1504198836.377304,0.051910,0.854586,2.259209,0.855315,0.658998,-0.131576,0.034065,-0.754299,-0.655647,-0.032417,0.199444,-0.136941,17.346239,-17.225674,-26.319305,,,,,,,
1504198836.387314,0.060518,0.863140,2.256389,0.862667,0.639764,-0.139001,0.039316,-0.759888,-0.648864,-0.032999,0.213593,-0.136246,17.346239,-17.225674,-26.319305,,,,,,,
1504198836.397324,0.068922,0.871650,2.253191,0.861203,0.580119,-0.154910,0.044321,-0.765392,-0.642037,-0.031625,0.206157,-0.158668,17.722811,-17.450329,-25.641693,,,,,,,
1504198836.407303,0.076980,0.880117,2.249656,0.859703,0.519403,-0.165479,0.048992,-0.770814,-0.635174,-0.023663,0.178467,-0.180179,17.722811,-17.450329,-25.641693,,,,,,,
1504198836.417313,0.084791,0.888374,2.245928,0.834912,0.486576,-0.167599,0.053411,-0.776047,-0.628409,-0.012686,0.153000,-0.184396,17.949251,-17.750210,-25.188873,,,,,,,
1504198836.427323,0.092406,0.896257,2.242274,0.795280,0.475168,-0.154839,0.057629,-0.780995,-0.621873,-0.010510,0.138707,-0.172912,17.949251,-17.750210,-25.188873,,,,,,,
1504198836.437332,0.099867,0.903638,2.238900,0.741897,0.485174,-0.131466,0.061690,-0.785583,-0.615673,-0.009566,0.133255,-0.165989,18.101610,-18.201183,-24.360107,,,,,,,
1504198836.447342,0.107021,0.910426,2.235965,0.676629,0.481417,-0.100618,0.065523,-0.789765,-0.609900,-0.009126,0.126343,-0.150338,18.101610,-18.201183,-24.360107,,,,,,,
1504198836.457352,0.113524,0.916546,2.233769,0.603775,0.473442,-0.052697,0.068938,-0.793504,-0.604648,-0.001220,0.115938,-0.137891,18.626909,-18.273983,-24.283234,,,,,,,
1504198836.467362,0.119213,0.921932,2.232598,0.520285,0.478328,0.009059,0.071868,-0.796770,-0.599993,0.008211,0.104662,-0.130262,18.626909,-18.273983,-24.283234,,,,,,,
1504198836.477359,0.124029,0.926460,2.232669,0.424008,0.488642,0.076120,0.074309,-0.799499,-0.596054,0.015870,0.092437,-0.118103,18.703341,-18.574535,-23.830780,,,,,,,
1504198836.487369,0.127958,0.929911,2.233991,0.300053,0.501324,0.134590,0.076298,-0.801567,-0.593017,0.031566,0.082466,-0.113663,18.703341,-18.574535,-23.830780,,,,,,,
1504198836.497379,0.131238,0.932059,2.236120,0.163315,0.493902,0.156782,0.078017,-0.802849,-0.591055,0.048249,0.092110,-0.116693,18.853533,-18.424618,-23.456543,,,,,,,
1504198836.507389,0.133971,0.932944,2.238397,0.041326,0.438448,0.139590,0.079538,-0.803376,-0.590136,0.048316,0.125886,-0.124907,18.853533,-18.424618,-23.456543,,,,,,,
1504198836.517399,0.136050,0.932811,2.240243,-0.047912,0.325210,0.094804,0.080779,-0.803297,-0.590075,0.037095,0.160505,-0.139127,19.004732,-18.724545,-23.153900,,,,,,,
1504198836.527408,0.137407,0.931901,2.241311,-0.113834,0.183025,0.035166,0.081679,-0.802755,-0.590688,0.016633,0.176199,-0.155604,19.004732,-18.724545,-23.153900,,,,,,,
1504198836.537418,0.137894,0.930338,2.241549,-0.169155,0.034355,-0.021240,0.082140,-0.801822,-0.591891,-0.005769,0.173694,-0.174818,19.379503,-18.498302,-22.929688,,,,,,,
1504198836.547428,0.137829,0.928347,2.241131,-0.198493,-0.055939,-0.059558,0.082320,-0.800631,-0.593476,-0.013213,0.167132,-0.196578,19.379503,-18.498302,-22.929688,,,,,,,
1504198836.557438,0.137970,0.926372,2.240441,-0.183262,-0.025152,-0.069193,0.082621,-0.799446,-0.595030,-0.007014,0.163078,-0.203905,18.930254,-18.800320,-22.928558,,,,,,,
1504198836.567447,0.139122,0.924931,2.239674,-0.118390,0.085130,-0.063938,0.083466,-0.798579,-0.596074,-0.008317,0.171931,-0.171580,18.930254,-18.800320,-22.928558,,,,,,,
1504198836.577457,0.141565,0.924245,2.238930,-0.041639,0.218749,-0.050164,0.084999,-0.798166,-0.596411,-0.015038,0.188578,-0.113977,18.928835,-18.499432,-23.380768,,,,,,,
1504198836.587467,0.145065,0.924308,2.238225,0.027335,0.313006,-0.037402,0.087079,-0.798204,-0.596060,-0.021024,0.196458,-0.077249,18.928835,-18.499432,-23.380768,,,,,,,
1504198836.597477,0.148906,0.924884,2.237634,0.070170,0.341410,-0.023502,0.089300,-0.798551,-0.595266,-0.023031,0.186429,-0.076639,19.454546,-18.647518,-23.153351,,,,,,,
1504198836.607486,0.152487,0.925609,2.237227,0.073089,0.314732,-0.009573,0.091343,-0.798987,-0.594370,-0.012531,0.172812,-0.103048,19.454546,-18.647518,-23.153351,,,,,,,
1504198836.617496,0.155382,0.926079,2.237035,0.038496,0.261731,-0.004203,0.093005,-0.799270,-0.593732,0.003354,0.163985,-0.126986,19.379915,-18.797848,-23.152405,,,,,,,
1504198836.627506,0.157892,0.926072,2.236849,-0.010799,0.228049,-0.014903,0.094496,-0.799265,-0.593503,0.018038,0.158335,-0.164523,19.379915,-18.797848,-23.152405,,,,,,,
1504198836.637516,0.160717,0.909271,2.236098,-0.069852,0.193389,-0.035216,0.098308,-0.789056,-0.606404,0.029408,0.154596,-0.167689,19.530107,-18.647930,-22.778168,,,,,,,
1504198836.647525,0.162724,0.907971,2.235405,-0.137436,0.123656,-0.073636,0.099691,-0.788257,-0.607217,0.034129,0.162158,-0.162955,19.530107,-18.647930,-22.778168,,,,,,,
1504198836.657535,0.163873,0.905968,2.234264,-0.201276,-0.011110,-0.110868,0.100645,-0.787023,-0.608659,0.032106,0.164754,-0.173140,19.455294,-18.723263,-22.777802,,,,,,,
1504198836.667514,0.163652,0.903207,2.232870,-0.277133,-0.173496,-0.136331,0.100865,-0.785316,-0.610823,0.030575,0.160423,-0.191728,19.455294,-18.723263,-22.777802,,,,,,,
1504198836.677524,0.159828,0.884326,2.233032,-0.341392,-0.322192,-0.150030,0.100870,-0.773488,-0.625733,0.020819,0.143849,-0.198272,19.979570,-18.570446,-23.002625,,,,,,,
1504198836.687534,0.157017,0.880442,2.231575,-0.374103,-0.411431,-0.152064,0.099580,-0.771020,-0.628976,0.014343,0.145410,-0.210852,19.979570,-18.570446,-23.002625,,,,,,,
1504198836.697544,0.153895,0.876478,2.230219,-0.378405,-0.410339,-0.143534,0.098083,-0.768490,-0.632299,0.012619,0.154675,-0.197107,19.753038,-18.270412,-23.530426,,,,,,,
1504198836.707554,0.151050,0.872675,2.229108,-0.358856,-0.354045,-0.122252,0.096723,-0.766051,-0.635461,0.010119,0.164992,-0.162711,19.753038,-18.270412,-23.530426,,,,,,,
1504198836.717563,0.146593,0.858262,2.229962,-0.322168,-0.268113,-0.094565,0.095493,-0.756707,-0.646742,0.005337,0.147516,-0.127443,19.451677,-17.821468,-23.684570,,,,,,,
1504198836.727573,0.144768,0.855357,2.229457,-0.266342,-0.208926,-0.068955,0.094629,-0.754805,-0.649088,0.002646,0.133742,-0.113241,19.451677,-17.821468,-23.684570,,,,,,,
1504198836.737583,0.143026,0.853262,2.229171,-0.184247,-0.198975,-0.041078,0.093723,-0.753429,-0.650815,0.005169,0.136318,-0.103396,19.676638,-17.895153,-23.833435,,,,,,,
1504198836.747593,0.140797,0.851895,2.228971,-0.119656,-0.253864,-0.030195,0.092417,-0.752530,-0.652042,0.009023,0.152432,-0.098477,19.676638,-17.895153,-23.833435,,,,,,,
1504198836.757602,0.137667,0.839925,2.228908,-0.096880,-0.325449,-0.032156,0.091605,-0.744593,-0.661203,0.012246,0.145915,-0.098425,19.599825,-17.444592,-24.287018,,,,,,,
1504198836.767612,0.134212,0.838881,2.228516,-0.103717,-0.387186,-0.043801,0.089424,-0.743895,-0.662286,0.024468,0.141250,-0.117301,19.599825,-17.444592,-24.287018,,,,,,,
1504198836.777622,0.130549,0.837532,2.227745,-0.138065,-0.436946,-0.082199,0.087129,-0.742993,-0.663603,0.023727,0.142896,-0.123521,19.151110,-17.822063,-24.060333,,,,,,,
1504198836.787632,0.126743,0.835563,2.226340,-0.199168,-0.503524,-0.131288,0.084787,-0.741674,-0.665380,0.027716,0.146947,-0.119044,19.151110,-17.822063,-24.060333,,,,,,,
1504198836.797641,0.124981,0.822269,2.222620,-0.284075,-0.587978,-0.167590,0.084836,-0.732692,-0.675252,0.032138,0.154735,-0.120707,18.774492,-17.447857,-24.514069,,,,,,,
1504198836.807651,0.119924,0.818580,2.220358,-0.370113,-0.698051,-0.207039,0.081743,-0.730177,-0.678351,0.020781,0.146360,-0.125879,18.774492,-17.447857,-24.514069,,,,,,,
1504198836.817661,0.114361,0.814220,2.217707,-0.423842,-0.765773,-0.239034,0.078331,-0.727191,-0.681952,0.024788,0.144351,-0.140421,18.699160,-17.447735,-24.739258,,,,,,,
1504198836.827671,0.108513,0.809221,2.214858,-0.484809,-0.794027,-0.254034,0.074734,-0.723750,-0.686004,0.033130,0.152232,-0.133088,18.699160,-17.447735,-24.739258,,,,,,,
1504198836.837681,0.103181,0.802485,2.211544,-0.513455,-0.783109,-0.272250,0.071575,-0.719085,-0.691226,0.029545,0.150268,-0.117154,18.472628,-17.147701,-25.267059,,,,,,,
1504198836.847690,0.097876,0.796950,2.208230,-0.532403,-0.761623,-0.289399,0.068295,-0.715227,-0.695547,0.028674,0.151842,-0.102503,18.472628,-17.147701,-25.267059,,,,,,,
1504198836.857700,0.093000,0.791194,2.204673,-0.555550,-0.731578,-0.306571,0.065285,-0.711193,-0.699958,0.027519,0.147656,-0.082116,18.320513,-16.622326,-25.796387,,,,,,,
1504198836.867710,0.088760,0.785270,2.200885,-0.565699,-0.677131,-0.323763,0.062688,-0.707016,-0.704413,0.019892,0.135788,-0.070077,18.320513,-16.622326,-25.796387,,,,,,,
1504198836.877720,0.085523,0.779111,2.196760,-0.572365,-0.591801,-0.348475,0.060778,-0.702647,-0.708938,0.011777,0.130428,-0.054246,17.869585,-16.473598,-26.173615,,,,,,,
1504198836.887729,0.083441,0.773086,2.192328,-0.576826,-0.495838,-0.370000,0.059654,-0.698347,-0.713269,0.009346,0.132399,-0.034381,17.869585,-16.473598,-26.173615,,,,,,,
1504198836.897739,0.082343,0.767096,2.187679,-0.563306,-0.414950,-0.383996,0.059214,-0.694048,-0.717490,0.003316,0.124376,-0.023599,17.643404,-16.323574,-26.700348,,,,,,,
1504198836.907749,0.081994,0.761183,2.182930,-0.562741,-0.348879,-0.391583,0.059299,-0.689779,-0.721588,-0.009601,0.114614,-0.020661,17.643404,-16.323574,-26.700348,,,,,,,
1504198836.917759,0.081828,0.754741,2.178191,-0.593514,-0.334764,-0.403402,0.059541,-0.685100,-0.726012,-0.017289,0.110500,-0.014040,17.791903,-15.947156,-27.077789,,,,,,,
1504198836.927768,0.081588,0.748076,2.173328,-0.650287,-0.366258,-0.408782,0.059737,-0.680230,-0.730561,-0.019134,0.112053,-0.029876,17.791903,-15.947156,-27.077789,,,,,,,
1504198836.937748,0.080874,0.740862,2.168473,-0.701826,-0.411647,-0.416263,0.059611,-0.674924,-0.735475,-0.024577,0.111631,-0.048186,17.190966,-15.574841,-27.082062,,,,,,,
1504198836.947757,0.079869,0.733372,2.163484,-0.719063,-0.442391,-0.432249,0.059273,-0.669379,-0.740553,-0.036187,0.112738,-0.047197,17.190966,-15.574841,-27.082062,,,,,,,
1504198836.957767,0.078815,0.725891,2.158389,-0.687975,-0.433044,-0.447155,0.058886,-0.663802,-0.745586,-0.040071,0.118697,-0.040058,17.412584,-14.672330,-27.838318,,,,,,,
1504198836.967777,0.078520,0.719131,2.152994,-0.623362,-0.366430,-0.459969,0.059016,-0.658731,-0.750060,-0.048182,0.120706,-0.024659,17.412584,-14.672330,-27.838318,,,,,,,
1504198836.977787,0.079383,0.713233,2.147327,-0.530627,-0.255287,-0.478150,0.059970,-0.654282,-0.753869,-0.063495,0.126816,-0.012244,17.636110,-14.445127,-28.439423,,,,,,,
1504198836.987796,0.081711,0.708335,2.141336,-0.421760,-0.128293,-0.496331,0.061986,-0.650570,-0.756912,-0.073918,0.144589,-0.004715,17.636110,-14.445127,-28.439423,,,,,,,
1504198836.997806,0.085507,0.704513,2.134837,-0.311849,-0.017269,-0.535830,0.065071,-0.647663,-0.759143,-0.086586,0.159275,-0.005780,17.409258,-13.845685,-28.669464,,,,,,,
1504198837.007816,0.088117,0.700178,2.129123,-0.212749,0.059719,-0.606226,0.067298,-0.644354,-0.761760,-0.097251,0.172857,-0.016224,17.409258,-13.845685,-28.669464,,,,,,,
1504198837.017826,0.094490,0.698178,2.120604,-0.112834,0.094148,-0.689371,0.072273,-0.642823,-0.762598,-0.095131,0.192200,-0.039999,17.408922,-13.620984,-28.521179,,,,,,,
1504198837.027836,0.101751,0.697016,2.110743,-0.019539,0.091351,-0.788472,0.077884,-0.641932,-0.762795,-0.099322,0.207805,-0.062552,17.408922,-13.620984,-28.521179,,,,,,,
1504198837.037845,0.109722,0.696465,2.099507,0.052259,0.070613,-0.884378,0.084000,-0.641510,-0.762502,-0.106949,0.214340,-0.081172,17.932787,-13.168622,-28.523254,,,,,,,
1504198837.047855,0.117584,0.695817,2.087504,0.097218,0.041541,-0.962165,0.090041,-0.641013,-0.762231,-0.104980,0.210532,-0.095329,17.932787,-13.168622,-28.523254,,,,,,,
1504198837.057865,0.126167,0.695575,2.074337,0.097208,0.004305,-1.019739,0.096600,-0.640827,-0.761583,-0.106045,0.208317,-0.106352,18.157869,-13.242459,-28.597137,,,,,,,
1504198837.067875,0.134719,0.694787,2.060577,0.042690,-0.039949,-1.069924,0.103177,-0.640221,-0.761230,-0.104962,0.209329,-0.115052,18.157869,-13.242459,-28.597137,,,,,,,
1504198837.077884,0.142832,0.693084,2.046408,-0.041981,-0.113800,-1.111569,0.109505,-0.638913,-0.761446,-0.097038,0.205121,-0.128462,18.156618,-12.792310,-28.675507,,,,,,,
1504198837.087894,0.149443,0.689663,2.032395,-0.148371,-0.230113,-1.146769,0.114861,-0.636277,-0.762862,-0.094231,0.185045,-0.145753,18.156618,-12.792310,-28.675507,,,,,,,
1504198837.097904,0.155260,0.685647,2.017748,-0.251840,-0.385862,-1.187235,0.119691,-0.633174,-0.764699,-0.095933,0.169734,-0.157084,18.456133,-12.640805,-28.750916,,,,,,,
1504198837.107914,0.159522,0.680540,2.002955,-0.350050,-0.546989,-1.221278,0.123460,-0.629213,-0.767365,-0.081209,0.163271,-0.164413,18.456133,-12.640805,-28.750916,,,,,,,
1504198837.117923,0.162242,0.674375,1.987988,-0.445022,-0.704943,-1.257456,0.126171,-0.624409,-0.770840,-0.074627,0.159153,-0.157734,18.453646,-11.740506,-28.907684,,,,,,,
1504198837.127933,0.163437,0.667284,1.973036,-0.528209,-0.842772,-1.271233,0.127810,-0.618855,-0.775037,-0.062212,0.157384,-0.149203,18.453646,-11.740506,-28.907684,,,,,,,
1504198837.137943,0.163237,0.659593,1.958294,-0.580304,-0.951037,-1.267930,0.128425,-0.612796,-0.779736,-0.054572,0.147753,-0.136707,18.526491,-11.288831,-29.585876,,,,,,,
1504198837.147953,0.161994,0.651689,1.943892,-0.595872,-1.015934,-1.245427,0.128232,-0.606530,-0.784651,-0.056348,0.134484,-0.108201,18.526491,-11.288831,-29.585876,,,,,,,
1504198837.157962,0.159988,0.644061,1.929957,-0.560024,-1.046105,-1.207953,0.127392,-0.600448,-0.789452,-0.051800,0.123382,-0.076393,17.923983,-10.465924,-29.893555,,,,,,,
1504198837.167972,0.157740,0.637239,1.916408,-0.477869,-1.023376,-1.171559,0.126257,-0.594978,-0.793763,-0.051657,0.118263,-0.047759,17.923983,-10.465924,-29.893555,,,,,,,
1504198837.177982,0.156055,0.631436,1.902938,-0.378065,-0.944289,-1.160851,0.125454,-0.590305,-0.797372,-0.050869,0.129947,-0.008445,17.696001,-9.640729,-30.500305,,,,,,,
1504198837.187992,0.155352,0.626616,1.889337,-0.283363,-0.842772,-1.160866,0.125332,-0.586407,-0.800261,-0.040890,0.143216,0.017058,17.696001,-9.640729,-30.500305,,,,,,,
1504198837.198002,0.155709,0.622654,1.875606,-0.197218,-0.743316,-1.159825,0.125977,-0.583193,-0.802505,-0.033723,0.139071,0.019745,17.544008,-9.115506,-30.954651,,,,,,,
1504198837.207981,0.156809,0.619335,1.861887,-0.142307,-0.674515,-1.149177,0.127161,-0.580494,-0.804274,-0.038095,0.125538,0.024580,17.544008,-9.115506,-30.954651,,,,,,,
1504198837.217991,0.157858,0.616436,1.848537,-0.109400,-0.669501,-1.107500,0.128269,-0.578131,-0.805799,-0.033970,0.115530,0.023755,17.167879,-8.667188,-30.958954,,,,,,,
1504198837.228000,0.158797,0.613569,1.835917,-0.128400,-0.608664,-1.051068,0.129288,-0.575789,-0.807311,-0.033615,0.100508,0.015960,17.167879,-8.667188,-30.958954,,,,,,,
1504198837.238010,0.160507,0.610302,1.823791,-0.177840,-0.503856,-1.024653,0.130967,-0.573115,-0.808942,-0.040345,0.088801,0.029813,17.166231,-8.141736,-31.187897,,,,,,,
1504198837.248020,0.162812,0.606379,1.811913,-0.247643,-0.427622,-1.025976,0.133195,-0.569896,-0.810850,-0.037873,0.100856,0.100889,17.166231,-8.141736,-31.187897,,,,,,,
1504198837.258030,0.165728,0.601571,1.800089,-0.336733,-0.370396,-1.041175,0.136010,-0.565938,-0.813152,-0.043755,0.101400,0.133662,16.639421,-7.693204,-31.642578,,,,,,,
1504198837.268039,0.168247,0.596369,1.789012,-0.351222,-0.401256,-0.966428,0.138548,-0.561642,-0.815698,-0.050429,0.108151,0.151650,16.639421,-7.693204,-31.642578,,,,,,,
1504198837.278049,0.168089,0.591746,1.778740,-0.300062,-0.612770,-0.866698,0.138852,-0.557811,-0.818271,-0.031034,0.191203,0.108035,16.713060,-7.242566,-31.795746,,,,,,,
1504198837.288059,0.167535,0.587864,1.770332,-0.203836,-0.502877,-0.731166,0.138759,-0.554585,-0.820476,0.005574,0.349995,-0.056690,16.713060,-7.242566,-31.795746,,,,,,,
1504198837.298069,0.164514,0.586495,1.761050,0.037287,-0.942760,-0.792949,0.136404,-0.553445,-0.821640,-0.106436,0.065195,-0.030258,16.411592,-6.793469,-32.024872,,,,,,,
1504198837.308078,0.160697,0.585523,1.751886,0.004103,-0.805054,-0.764429,0.133353,-0.552635,-0.822686,-0.007178,0.085457,-0.110496,16.411592,-6.793469,-32.024872,,,,,,,
1504198837.318088,0.159421,0.583956,1.742794,-0.028300,-0.596979,-0.779796,0.132440,-0.551328,-0.823709,-0.087412,0.153669,-0.220862,15.735216,-6.420896,-32.329376,,,,,,,
1504198837.328098,0.158848,0.583176,1.733125,0.080694,-0.599968,-0.818029,0.132036,-0.550678,-0.824209,-0.103868,0.131778,0.029974,15.735216,-6.420896,-32.329376,,,,,,,
1504198837.338108,0.158033,0.584041,1.722919,0.276555,-0.660184,-0.822920,0.131290,-0.551399,-0.823846,-0.103809,0.126564,-0.008323,15.510241,-6.571469,-32.553802,,,,,,,
1504198837.348118,0.156143,0.587593,1.712794,0.580727,-0.756509,-0.782727,0.129427,-0.554360,-0.822152,-0.118395,0.114662,-0.045234,15.510241,-6.571469,-32.553802,,,,,,,
1504198837.358127,0.152669,0.592924,1.703218,0.604484,-0.903898,-0.647934,0.126119,-0.558788,-0.819664,-0.137303,0.117245,-0.055107,15.209566,-6.347653,-32.631226,,,,,,,
1504198837.368137,0.148406,0.594997,1.696927,0.158795,-0.728896,-0.425927,0.122452,-0.560506,-0.819047,-0.159409,0.102926,-0.093871,15.209566,-6.347653,-32.631226,,,,,,,
1504198837.378147,0.143522,0.593904,1.692293,-0.092634,-0.805697,-0.409149,0.118537,-0.559601,-0.820241,-0.047401,0.062424,0.069356,14.684801,-6.574567,-32.855835,,,,,,,
1504198837.388157,0.136597,0.590926,1.686313,-0.276422,-1.079996,-0.579768,0.113081,-0.557130,-0.822690,0.034807,0.093003,0.218122,14.684801,-6.574567,-32.855835,,,,,,,
1504198837.398166,0.128667,0.585809,1.678845,-0.468154,-1.256235,-0.712148,0.106918,-0.552874,-0.826377,-0.070831,0.179415,0.074180,14.084017,-6.351972,-33.009003,,,,,,,
1504198837.408176,0.119702,0.579402,1.670364,-0.566985,-1.394923,-0.799601,0.099926,-0.547524,-0.830802,-0.201626,0.184883,0.065269,14.084017,-6.351972,-33.009003,,,,,,,
1504198837.418186,0.109550,0.573075,1.661412,-0.523216,-1.535926,-0.816355,0.091864,-0.542219,-0.835200,-0.204550,0.146772,0.073238,13.106691,-5.829999,-33.690369,,,,,,,
1504198837.428196,0.097558,0.568529,1.652478,-0.313768,-1.742278,-0.784674,0.082081,-0.538393,-0.838687,-0.145390,0.120485,0.058078,13.106691,-5.829999,-33.690369,,,,,,,
1504198837.438205,0.083078,0.566350,1.644051,-0.101230,-1.930595,-0.701783,0.070026,-0.536556,-0.840954,-0.123707,0.067836,0.048154,12.055758,-5.459729,-33.695770,,,,,,,
1504198837.448215,0.067311,0.566364,1.636708,0.093319,-1.960005,-0.608529,0.056758,-0.536568,-0.841946,-0.078685,0.021294,0.023175,12.055758,-5.459729,-33.695770,,,,,,,
1504198837.458225,0.051723,0.567985,1.628907,0.222577,-1.983375,-0.677645,0.043582,-0.537935,-0.841859,-0.008624,-0.056578,0.072862,10.853884,-5.163617,-34.451019,,,,,,,
1504198837.468204,0.037352,0.569611,1.618643,0.182169,-1.985984,-0.923213,0.031447,-0.539305,-0.841523,0.052293,-0.047685,0.079377,10.853884,-5.163617,-34.451019,,,,,,,
1504198837.478181,0.025017,0.570123,1.605083,0.053652,-1.957988,-1.209548,0.021058,-0.539736,-0.841571,0.056030,0.029940,0.051150,9.503862,-5.244397,-34.603760,,,,,,,
1504198837.488191,0.014903,0.569444,1.588581,-0.072555,-1.876783,-1.445806,0.012551,-0.539164,-0.842107,0.014503,0.021326,0.059011,9.503862,-5.244397,-34.603760,,,,,,,
1504198837.498200,0.007073,0.567888,1.569206,-0.150753,-1.806612,-1.699040,0.005963,-0.537853,-0.843018,0.002689,-0.007222,0.069931,8.227922,-5.099378,-34.983032,,,,,,,
1504198837.508210,0.001913,0.566395,1.546735,-0.128298,-1.692513,-1.954311,0.001614,-0.536593,-0.843839,0.009998,-0.021024,0.077589,8.227922,-5.099378,-34.983032,,,,,,,
1504198837.518220,-0.000523,0.566371,1.521851,0.052107,-1.529703,-2.140014,-0.000441,-0.536574,-0.843853,-0.022752,-0.062639,0.098507,7.026873,-4.729611,-35.063812,,,,,,,
1504198837.528230,-0.000209,0.569124,1.495091,0.314705,-1.349483,-2.305322,-0.000176,-0.538895,-0.842373,-0.054404,-0.092178,0.137020,7.026873,-4.729611,-35.063812,,,,,,,
1504198837.538240,0.004300,0.573799,1.466045,0.533669,-1.023972,-2.474166,0.003611,-0.542827,-0.839837,-0.099940,-0.104405,0.171609,6.049807,-4.133252,-35.445740,,,,,,,
1504198837.548249,0.012426,0.581091,1.435834,0.817532,-0.789681,-2.538131,0.010386,-0.548936,-0.835800,-0.157969,-0.065764,0.160415,6.049807,-4.133252,-35.445740,,,,,,,
1504198837.558259,0.023016,0.590573,1.404844,1.048447,-0.615731,-2.564723,0.019116,-0.556837,-0.830402,-0.184231,-0.076235,0.139499,5.451097,-4.511395,-35.219391,,,,,,,
1504198837.568269,0.034962,0.601724,1.373754,1.229220,-0.532015,-2.522928,0.028815,-0.566064,-0.823857,-0.208869,-0.086188,0.059773,5.451097,-4.511395,-35.219391,,,,,,,
1504198837.578279,0.047813,0.613852,1.343050,1.336213,-0.446663,-2.446041,0.039069,-0.576021,-0.816501,-0.226752,-0.108885,0.011188,5.002718,-5.113568,-35.140991,,,,,,,
1504198837.588289,0.061567,0.626300,1.312745,1.386619,-0.368300,-2.372441,0.049850,-0.586151,-0.808667,-0.236618,-0.137009,-0.018634,5.002718,-5.113568,-35.140991,,,,,,,
1504198837.598299,0.075676,0.638543,1.282786,1.381026,-0.364053,-2.313751,0.060707,-0.596026,-0.800667,-0.248497,-0.154645,-0.024940,4.853212,-5.264401,-35.065247,,,,,,,
1504198837.608309,0.090204,0.650162,1.252628,1.352239,-0.354237,-2.302077,0.071704,-0.605316,-0.792749,-0.253299,-0.144562,-0.052282,4.853212,-5.264401,-35.065247,,,,,,,
1504198837.618319,0.105262,0.661337,1.222261,1.342608,-0.342462,-2.277564,0.082916,-0.614173,-0.784804,-0.254608,-0.076226,-0.092912,5.081377,-6.388837,-34.831238,,,,,,,
1504198837.628327,0.120852,0.671685,1.192009,1.272308,-0.297178,-2.228665,0.094370,-0.622306,-0.777065,-0.263071,-0.039697,-0.115895,5.081377,-6.388837,-34.831238,,,,,,,
1504198837.638337,0.136803,0.680778,1.162371,1.170975,-0.247404,-2.154210,0.105976,-0.629398,-0.769823,-0.263096,-0.017773,-0.146910,4.932726,-6.839810,-34.678253,,,,,,,
1504198837.648347,0.152516,0.688468,1.134051,1.039361,-0.211294,-2.020009,0.117320,-0.635355,-0.763256,-0.263804,-0.021490,-0.166767,4.932726,-6.839810,-34.678253,,,,,,,
1504198837.658357,0.167071,0.694076,1.108086,0.804912,-0.197829,-1.840048,0.127822,-0.639676,-0.757942,-0.274428,-0.054584,-0.182793,5.384462,-7.438092,-34.522614,,,,,,,
1504198837.668366,0.179631,0.696917,1.084868,0.512324,-0.249951,-1.660072,0.137006,-0.641856,-0.754486,-0.285504,-0.088856,-0.207931,5.384462,-7.438092,-34.522614,,,,,,,
1504198837.678376,0.189285,0.697033,1.064665,0.222420,-0.360714,-1.470382,0.144269,-0.641945,-0.753055,-0.297406,-0.057228,-0.245983,5.160738,-7.814557,-34.295380,,,,,,,
1504198837.688386,0.195771,0.694608,1.047587,-0.054665,-0.474771,-1.289202,0.149453,-0.640085,-0.753628,-0.294640,-0.020697,-0.270984,5.160738,-7.814557,-34.295380,,,,,,,
1504198837.698396,0.199416,0.689975,1.032962,-0.288851,-0.597645,-1.166640,0.152784,-0.636518,-0.755977,-0.274931,-0.004427,-0.266484,5.386461,-7.963986,-34.068695,,,,,,,
1504198837.708406,0.200908,0.683477,1.019992,-0.482047,-0.697358,-1.096351,0.154735,-0.631493,-0.759786,-0.248881,0.007485,-0.244212,5.386461,-7.963986,-34.068695,,,,,,,
1504198837.718415,0.200742,0.675292,1.008117,-0.662157,-0.782227,-1.059154,0.155633,-0.625125,-0.764851,-0.217538,0.031147,-0.216793,4.859987,-7.515897,-34.298370,,,,,,,
1504198837.728426,0.199178,0.665517,0.997271,-0.826098,-0.840599,-1.012370,0.155639,-0.617465,-0.771047,-0.200042,0.042865,-0.196269,4.859987,-7.515897,-34.298370,,,,,,,
1504198837.738405,0.196475,0.654737,0.987771,-0.928017,-0.854771,-0.922859,0.154845,-0.608950,-0.777948,-0.195067,0.058749,-0.182029,4.558870,-7.067243,-34.302490,,,,,,,
1504198837.748415,0.193098,0.643664,0.979643,-0.964501,-0.818345,-0.822651,0.153501,-0.600131,-0.785035,-0.187391,0.062716,-0.154631,4.558870,-7.067243,-34.302490,,,,,,,
1504198837.758425,0.189580,0.632801,0.972694,-0.955807,-0.743915,-0.735240,0.151959,-0.591406,-0.791927,-0.181042,0.046133,-0.108845,3.882067,-6.395123,-34.384186,,,,,,,
1504198837.768435,0.185775,0.622339,0.966718,-0.899823,-0.655974,-0.696871,0.150079,-0.582937,-0.798537,-0.173715,0.035482,-0.054704,3.882067,-6.395123,-34.384186,,,,,,,
1504198837.778444,0.183795,0.612807,0.960107,-0.814639,-0.553297,-0.711848,0.149506,-0.575166,-0.804259,-0.166383,0.033159,-0.003862,3.804995,-5.794721,-34.763885,,,,,,,
1504198837.788454,0.183275,0.604290,0.952726,-0.697216,-0.445517,-0.765204,0.149975,-0.568178,-0.809123,-0.154278,0.042437,0.036998,3.804995,-5.794721,-34.763885,,,,,,,
1504198837.798464,0.184589,0.596920,0.944110,-0.559157,-0.317619,-0.859122,0.151803,-0.562097,-0.813021,-0.141549,0.050287,0.070070,3.579470,-5.496030,-34.616699,,,,,,,
1504198837.808474,0.188005,0.590920,0.933868,-0.385940,-0.209169,-0.974293,0.155206,-0.557125,-0.815796,-0.129144,0.064373,0.090729,3.579470,-5.496030,-34.616699,,,,,,,
1504198837.818482,0.192813,0.586856,0.921963,-0.149411,-0.176919,-1.070006,0.159560,-0.553746,-0.817255,-0.117171,0.100850,0.095347,3.353304,-5.121732,-34.770050,,,,,,,
1504198837.828492,0.198409,0.585017,0.908564,0.097369,-0.186329,-1.148549,0.164331,-0.552213,-0.817347,-0.110452,0.125486,0.074076,3.353304,-5.121732,-34.770050,,,,,,,
1504198837.838502,0.204385,0.585015,0.894031,0.284142,-0.208065,-1.195153,0.169213,-0.552212,-0.816351,-0.111596,0.133343,0.045981,2.977922,-4.973416,-34.772095,,,,,,,
1504198837.848512,0.210780,0.586100,0.878922,0.387832,-0.193983,-1.212077,0.174304,-0.553116,-0.814666,-0.127277,0.120545,0.022262,2.977922,-4.973416,-34.772095,,,,,,,
1504198837.858522,0.217524,0.587515,0.863493,0.414745,-0.173941,-1.228076,0.179625,-0.554294,-0.812707,-0.149825,0.078327,0.008020,2.977922,-4.973416,-34.772095,,,,,,,
1504198837.868531,0.224368,0.588658,0.848157,0.380955,-0.134231,-1.235676,0.185042,-0.555246,-0.810840,-0.173766,0.029153,-0.002667,2.977922,-4.973416,-34.772095,,,,,,,
1504198837.878541,0.231844,0.589170,0.832594,0.333190,-0.114638,-1.253939,0.191033,-0.555671,-0.809158,-0.190148,-0.011834,-0.005219,3.203493,-5.197415,-34.769867,,,,,,,
1504198837.888551,0.239215,0.589310,0.816778,0.319127,-0.156052,-1.281642,0.196974,-0.555788,-0.807652,-0.193342,-0.029646,-0.007183,3.203493,-5.197415,-34.769867,,,,,,,
1504198837.898561,0.245951,0.589205,0.800698,0.306819,-0.242240,-1.304995,0.202424,-0.555700,-0.806363,-0.188096,-0.022242,-0.012713,2.979204,-5.348874,-34.544281,,,,,,,
1504198837.908571,0.246576,0.590194,0.787334,0.306180,-0.330716,-1.329367,0.202794,-0.556522,-0.805703,-0.177526,-0.005185,-0.023017,2.979204,-5.348874,-34.544281,,,,,,,
1504198837.918581,0.251804,0.589936,0.770772,0.312999,-0.419205,-1.340941,0.207039,-0.556308,-0.804771,-0.178093,0.010928,-0.028374,2.904802,-5.499509,-34.393341,,,,,,,
1504198837.928591,0.256100,0.589418,0.754346,0.280279,-0.500999,-1.329112,0.210567,-0.555878,-0.804153,-0.184231,0.021347,-0.032471,2.904802,-5.499509,-34.393341,,,,,,,
1504198837.938601,0.259581,0.588276,0.738397,0.207260,-0.544112,-1.304612,0.213528,-0.554928,-0.804028,-0.191067,0.013454,-0.040821,2.680376,-5.725522,-34.392212,,,,,,,
1504198837.948609,0.261828,0.586361,0.723336,0.115275,-0.562556,-1.289793,0.215609,-0.553333,-0.804571,-0.194537,-0.006512,-0.043909,2.680376,-5.725522,-34.392212,,,,,,,
1504198837.958619,0.264522,0.583060,0.708420,-0.030805,-0.548570,-1.285801,0.218252,-0.550581,-0.805746,-0.202672,-0.023775,-0.037104,2.229692,-5.278134,-34.096710,,,,,,,
1504198837.968629,0.267248,0.578532,0.693741,-0.141471,-0.526321,-1.309515,0.221104,-0.546796,-0.807544,-0.212239,-0.033038,-0.024808,2.229692,-5.278134,-34.096710,,,,,,,
1504198837.978639,0.270137,0.572905,0.679175,-0.240335,-0.494582,-1.331091,0.224253,-0.542076,-0.809855,-0.221308,-0.039467,-0.006124,2.230303,-5.652692,-34.318909,,,,,,,
1504198837.988648,0.271930,0.567222,0.665363,-0.288081,-0.469683,-1.347221,0.226529,-0.537291,-0.812406,-0.229505,-0.039445,0.007413,2.230303,-5.652692,-34.318909,,,,,,,
1504198837.998628,0.274998,0.560798,0.651010,-0.283767,-0.455879,-1.334429,0.229953,-0.531862,-0.815012,-0.238513,-0.030760,0.013132,2.005114,-5.578702,-34.320038,,,,,,,
1504198838.008637,0.277862,0.554773,0.637167,-0.251940,-0.441285,-1.274625,0.233161,-0.526751,-0.817416,-0.246314,-0.018736,0.004337,2.005114,-5.578702,-34.320038,,,,,,,
1504198838.018647,0.280438,0.549521,0.624172,-0.180714,-0.416393,-1.182749,0.236028,-0.522279,-0.819460,-0.252278,-0.028243,-0.000532,1.779329,-5.130155,-34.098969,,,,,,,
1504198838.028657,0.278753,0.546670,0.614345,-0.155250,-0.365612,-1.081371,0.235056,-0.519846,-0.821285,-0.256815,-0.048331,-0.005055,1.779329,-5.130155,-34.098969,,,,,,,
1504198838.038667,0.281282,0.542521,0.603458,-0.134870,-0.292353,-0.985399,0.237729,-0.516297,-0.822753,-0.260556,-0.051330,-0.008149,1.779482,-5.279859,-34.247833,,,,,,,
1504198838.048677,0.284097,0.538695,0.593482,-0.128214,-0.212567,-0.908675,0.240596,-0.513016,-0.823971,-0.259211,-0.052322,-0.006946,1.779482,-5.279859,-34.247833,,,,,,,
1504198838.058686,0.287080,0.535011,0.584313,-0.138786,-0.159269,-0.842608,0.243586,-0.509851,-0.825056,-0.255641,-0.047705,-0.002519,1.553957,-4.981168,-34.100647,,,,,,,
1504198838.068696,0.286881,0.532098,0.577498,-0.181666,-0.144088,-0.783990,0.243841,-0.507343,-0.826526,-0.247854,-0.036023,-0.002148,1.553957,-4.981168,-34.100647,,,,,,,
1504198838.078707,0.289149,0.527920,0.569868,-0.229008,-0.165058,-0.738137,0.246318,-0.503738,-0.827995,-0.241893,-0.032411,-0.008293,1.478426,-4.681806,-33.953064,,,,,,,
1504198838.088717,0.290719,0.523222,0.563020,-0.297748,-0.192247,-0.690175,0.248292,-0.499674,-0.829866,-0.240297,-0.037848,-0.017424,1.478426,-4.681806,-33.953064,,,,,,,
1504198838.098726,0.291534,0.518169,0.556832,-0.336746,-0.239921,-0.648530,0.249691,-0.495291,-0.832071,-0.238568,-0.028696,-0.025626,1.478609,-4.981061,-34.325836,,,,,,,
1504198838.108736,0.291504,0.513273,0.551169,-0.318217,-0.294469,-0.600368,0.250360,-0.491031,-0.834391,-0.232721,-0.017697,-0.029211,1.478609,-4.981061,-34.325836,,,,,,,
1504198838.118746,0.290750,0.508860,0.545873,-0.279352,-0.344916,-0.558583,0.250350,-0.487182,-0.836648,-0.223250,-0.006257,-0.033592,0.953386,-4.758862,-34.103790,,,,,,,
1504198838.128756,0.289532,0.505130,0.540768,-0.216791,-0.374234,-0.527469,0.249848,-0.483921,-0.838687,-0.206864,0.012028,-0.030758,0.953386,-4.758862,-34.103790,,,,,,,
1504198838.138764,0.288252,0.501696,0.535932,-0.203966,-0.350931,-0.494398,0.249245,-0.480914,-0.840595,-0.194420,0.024935,-0.026837,0.878054,-4.534497,-33.955688,,,,,,,
1504198838.148774,0.287400,0.498737,0.531481,-0.165205,-0.275645,-0.444296,0.248930,-0.478317,-0.842168,-0.186461,0.029357,-0.013041,0.878054,-4.534497,-33.955688,,,,,,,
1504198838.158784,0.287341,0.496145,0.527563,-0.145366,-0.161847,-0.388957,0.249231,-0.476039,-0.843369,-0.189066,-0.008977,0.011566,0.727709,-4.534726,-34.181030,,,,,,,
1504198838.168794,0.288284,0.493720,0.524074,-0.148831,-0.041438,-0.357153,0.250355,-0.473905,-0.844238,-0.193989,-0.050067,0.034377,0.727709,-4.534726,-34.181030,,,,,,,
1504198838.178804,0.290103,0.491128,0.520627,-0.165223,0.035433,-0.370126,0.252240,-0.471621,-0.844955,-0.193723,-0.061903,0.046523,0.577639,-4.236295,-33.733643,,,,,,,
1504198838.188813,0.292414,0.488123,0.516961,-0.208589,0.061400,-0.404404,0.254599,-0.468969,-0.845723,-0.190100,-0.048228,0.039235,0.577639,-4.236295,-33.733643,,,,,,,
1504198838.198823,0.294564,0.484785,0.513074,-0.220550,0.016771,-0.431031,0.256870,-0.466018,-0.846667,-0.184742,-0.021240,0.015688,0.502337,-4.161481,-33.809357,,,,,,,
1504198838.208833,0.295872,0.481200,0.509095,-0.246878,-0.082098,-0.444778,0.258463,-0.462843,-0.847923,-0.177683,0.005431,-0.014809,0.502337,-4.161481,-33.809357,,,,,,,
1504198838.218843,0.295864,0.477339,0.505185,-0.275714,-0.217195,-0.441388,0.258975,-0.459417,-0.849628,-0.176242,0.020117,-0.044140,0.952105,-4.159162,-33.958313,,,,,,,
1504198838.228853,0.294273,0.473098,0.501751,-0.331342,-0.345713,-0.403899,0.258186,-0.455646,-0.851896,-0.181190,0.026249,-0.068194,0.952105,-4.159162,-33.958313,,,,,,,
1504198838.238863,0.291402,0.468691,0.499163,-0.364296,-0.414788,-0.324846,0.256314,-0.451719,-0.854549,-0.186749,0.009458,-0.078313,0.502459,-4.161633,-33.734375,,,,,,,
1504198838.248873,0.288190,0.464298,0.497754,-0.383646,-0.367851,-0.220357,0.254129,-0.447795,-0.857262,-0.200479,-0.043278,-0.062080,0.502459,-4.161633,-33.734375,,,,,,,
1504198838.258852,0.285537,0.460215,0.497226,-0.377813,-0.258221,-0.144755,0.252367,-0.444140,-0.859680,-0.210253,-0.088391,-0.031708,0.051668,-3.714108,-33.513855,,,,,,,
1504198838.268862,0.268612,0.466041,0.503936,-0.345211,-0.138360,-0.104253,0.237091,-0.449353,-0.861319,-0.194992,-0.079791,-0.008463,0.051668,-3.714108,-33.513855,,,,,,,
1504198838.278872,0.268140,0.462733,0.503810,-0.308066,-0.025719,-0.097983,0.237077,-0.446395,-0.862859,-0.187379,-0.060288,-0.002741,0.051104,-3.713361,-33.888885,,,,,,,
1504198838.288881,0.268646,0.459786,0.503659,-0.268988,0.064524,-0.087401,0.237861,-0.443756,-0.864004,-0.179588,-0.035492,-0.004176,0.051104,-3.713361,-33.888885,,,,,,,
1504198838.298890,0.269707,0.457182,0.503608,-0.245218,0.114391,-0.067167,0.239085,-0.441422,-0.864861,-0.174403,-0.017715,-0.010505,-0.023527,-3.639447,-33.514618,,,,,,,
1504198838.308900,0.255366,0.456683,0.510729,-0.220753,0.147149,-0.029788,0.226713,-0.440974,-0.868414,-0.162138,-0.021581,-0.013605,-0.023527,-3.639447,-33.514618,,,,,,,
1504198838.318910,0.256599,0.454651,0.511476,-0.207096,0.157630,0.029992,0.228011,-0.439149,-0.868999,-0.166152,-0.026610,-0.019536,0.051104,-3.489102,-33.515564,,,,,,,
1504198838.328919,0.257647,0.453297,0.512980,-0.150850,0.175190,0.118653,0.229072,-0.437932,-0.869334,-0.171653,-0.044429,-0.016027,0.051104,-3.489102,-33.515564,,,,,,,
1504198838.338929,0.258407,0.452883,0.515200,-0.068079,0.170161,0.200995,0.229779,-0.437560,-0.869335,-0.176297,-0.078126,-0.002766,0.200197,-3.262982,-33.741882,,,,,,,
1504198838.348939,0.246006,0.464338,0.523482,0.030389,0.131722,0.264307,0.217746,-0.447831,-0.867199,-0.159259,-0.072692,0.005077,0.200197,-3.262982,-33.741882,,,,,,,
1504198838.358949,0.245434,0.466173,0.526372,0.146887,0.047605,0.303084,0.217050,-0.449471,-0.866525,-0.149881,-0.052390,0.001687,0.050753,-3.488660,-33.740570,,,,,,,
1504198838.368959,0.243659,0.469307,0.529231,0.272679,-0.082396,0.330216,0.215171,-0.452268,-0.865537,-0.135337,-0.023577,-0.008624,0.050753,-3.488660,-33.740570,,,,,,,
1504198838.378968,0.240329,0.474071,0.532163,0.442947,-0.238366,0.383089,0.211772,-0.456512,-0.864146,-0.123760,0.009567,-0.029774,0.200228,-3.188275,-33.592438,,,,,,,
1504198838.388978,0.228035,0.476712,0.538750,0.615362,-0.380413,0.444469,0.200860,-0.458860,-0.865507,-0.104714,0.022260,-0.048967,0.200228,-3.188275,-33.592438,,,,,,,
1504198838.398988,0.221876,0.485213,0.542239,0.805314,-0.470487,0.506866,0.194660,-0.466397,-0.862891,-0.094196,0.014310,-0.064111,0.051897,-3.938657,-33.737183,,,,,,,
1504198838.408998,0.215306,0.495494,0.546170,0.966121,-0.463361,0.578648,0.187952,-0.475467,-0.859422,-0.092539,-0.006253,-0.072814,0.051897,-3.938657,-33.737183,,,,,,,
1504198838.419008,0.209143,0.507154,0.550604,1.081748,-0.376995,0.637403,0.181488,-0.485691,-0.855083,-0.089188,-0.042065,-0.073583,-0.397200,-4.166135,-33.511597,,,,,,,
1504198838.429018,0.203937,0.519642,0.555419,1.145564,-0.248618,0.669310,0.175792,-0.496569,-0.850010,-0.084788,-0.078321,-0.076291,-0.397200,-4.166135,-33.511597,,,,,,,
1504198838.439028,0.199757,0.532510,0.560311,1.177296,-0.149778,0.669191,0.170955,-0.507697,-0.844404,-0.076504,-0.094796,-0.092455,-0.544371,-5.067548,-33.130219,,,,,,,
1504198838.449038,0.196343,0.545197,0.564991,1.156631,-0.088830,0.631688,0.166802,-0.518587,-0.838597,-0.063118,-0.088912,-0.124721,-0.544371,-5.067548,-33.130219,,,,,,,
1504198838.459046,0.193303,0.557252,0.569219,1.090833,-0.083960,0.568589,0.163039,-0.528856,-0.832904,-0.049620,-0.074278,-0.165371,-0.918013,-5.519544,-32.977753,,,,,,,
1504198838.469056,0.190436,0.568011,0.572725,0.965260,-0.105200,0.469141,0.159564,-0.537956,-0.827733,-0.037829,-0.054710,-0.207743,-0.918013,-5.519544,-32.977753,,,,,,,
1504198838.479078,0.187809,0.576863,0.575339,0.777897,-0.124849,0.353571,0.156494,-0.545397,-0.823439,-0.031982,-0.033216,-0.246461,-1.066099,-6.195523,-32.823090,,,,,,,
1504198838.489088,0.185696,0.583553,0.577200,0.574809,-0.099629,0.253906,0.154076,-0.550992,-0.820163,-0.032632,-0.015612,-0.271588,-1.066099,-6.195523,-32.823090,,,,,,,
1504198838.499097,0.184496,0.587752,0.578773,0.328328,-0.005895,0.193539,0.152666,-0.554492,-0.818066,-0.043840,-0.029264,-0.278217,-1.064711,-6.571118,-32.520233,,,,,,,
1504198838.509107,0.184593,0.589442,0.580450,0.074672,0.141151,0.159751,0.152573,-0.555898,-0.817129,-0.063447,-0.081447,-0.260874,-1.064711,-6.571118,-32.520233,,,,,,,
1504198838.519117,0.186166,0.588375,0.582209,-0.199171,0.289444,0.110982,0.153968,-0.555010,-0.817470,-0.074042,-0.134245,-0.239018,-1.214735,-6.870740,-33.043365,,,,,,,
1504198838.529096,0.188927,0.584662,0.583878,-0.451985,0.391755,0.050589,0.156611,-0.551917,-0.819061,-0.075632,-0.153939,-0.226167,-1.214735,-6.870740,-33.043365,,,,,,,
1504198838.539106,0.192463,0.578731,0.585146,-0.645496,0.426465,-0.028795,0.160129,-0.546962,-0.821700,-0.068500,-0.146000,-0.222749,-0.915754,-6.419538,-32.971008,,,,,,,
1504198838.549116,0.196078,0.571049,0.585973,-0.805457,0.393754,-0.097329,0.163912,-0.540515,-0.825213,-0.059542,-0.127133,-0.218977,-0.915754,-6.419538,-32.971008,,,,,,,
1504198838.559126,0.199214,0.562191,0.586311,-0.891199,0.306081,-0.160299,0.167440,-0.533041,-0.829356,-0.055608,-0.109186,-0.214437,-0.616133,-6.268201,-32.971405,,,,,,,
1504198838.569134,0.201539,0.552568,0.586314,-0.956878,0.207561,-0.198666,0.170387,-0.524875,-0.833951,-0.058677,-0.095196,-0.203296,-0.616133,-6.268201,-32.971405,,,,,,,
1504198838.579144,0.203208,0.542432,0.586233,-1.002069,0.151471,-0.212522,0.172844,-0.516220,-0.838834,-0.065651,-0.086243,-0.185764,-0.167570,-5.741025,-33.049225,,,,,,,
1504198838.589154,0.204683,0.531891,0.586172,-1.038353,0.146449,-0.218980,0.175177,-0.507164,-0.843859,-0.078039,-0.100136,-0.150556,-0.167570,-5.741025,-33.049225,,,,,,,
1504198838.599164,0.206471,0.521086,0.586257,-1.071037,0.199990,-0.211659,0.177798,-0.497822,-0.848858,-0.094088,-0.121700,-0.106403,-0.244154,-5.066510,-32.979492,,,,,,,
1504198838.609174,0.209044,0.509954,0.586419,-1.092702,0.288621,-0.218257,0.181121,-0.488137,-0.853766,-0.107909,-0.138038,-0.066552,-0.244154,-5.066510,-32.979492,,,,,,,
1504198838.619184,0.212676,0.498849,0.586481,-1.085438,0.389804,-0.229097,0.185353,-0.478415,-0.858349,-0.112859,-0.131784,-0.034321,-0.171232,-4.465421,-33.358795,,,,,,,
1504198838.629194,0.217319,0.487939,0.586395,-1.051558,0.481182,-0.244143,0.190451,-0.468806,-0.862525,-0.114905,-0.107915,-0.012567,-0.171232,-4.465421,-33.358795,,,,,,,
1504198838.639204,0.222815,0.477447,0.585970,-1.002897,0.543683,-0.274056,0.196264,-0.459514,-0.866215,-0.116338,-0.094655,0.008594,0.052340,-3.939252,-33.437164,,,,,,,
1504198838.649213,0.223915,0.473363,0.587291,-0.937581,0.556886,-0.308074,0.197632,-0.455882,-0.867821,-0.114594,-0.070058,0.021889,0.052340,-3.939252,-33.437164,,,,,,,
1504198838.659223,0.229893,0.463881,0.586045,-0.883282,0.531948,-0.325014,0.203792,-0.447422,-0.870794,-0.116405,-0.043468,0.024175,0.425829,-3.337567,-33.440735,,,,,,,
1504198838.669233,0.235454,0.455028,0.584670,-0.818614,0.481330,-0.322678,0.209547,-0.439487,-0.873465,-0.120604,-0.029156,0.019674,0.425829,-3.337567,-33.440735,,,,,,,
1504198838.679243,0.240465,0.446474,0.583340,-0.796668,0.427862,-0.316141,0.214810,-0.431788,-0.876023,-0.129147,-0.043111,0.019730,0.798464,-2.435727,-33.521576,,,,,,,
1504198838.689253,0.244421,0.438514,0.582270,-0.786371,0.381946,-0.316038,0.219098,-0.424595,-0.878473,-0.135235,-0.056912,0.023218,0.798464,-2.435727,-33.521576,,,,,,,
1504198838.699262,0.248469,0.430105,0.580922,-0.782422,0.336103,-0.325557,0.223522,-0.416967,-0.881009,-0.136852,-0.050212,0.024594,1.173082,-2.284039,-33.521790,,,,,,,
1504198838.709272,0.252092,0.421658,0.579481,-0.789111,0.291417,-0.339366,0.227584,-0.409273,-0.883573,-0.134688,-0.029432,0.020276,1.173082,-2.284039,-33.521790,,,,,,,
1504198838.719282,0.255435,0.413159,0.577891,-0.781755,0.264737,-0.359587,0.231406,-0.401505,-0.886141,-0.134818,-0.007537,0.011904,1.546724,-1.832059,-33.674225,,,,,,,
1504198838.729292,0.258473,0.404492,0.576386,-0.799724,0.283007,-0.364987,0.234978,-0.393552,-0.888764,-0.143975,0.009870,0.008576,1.546724,-1.832059,-33.674225,,,,,,,
1504198838.739300,0.261971,0.395899,0.575006,-0.795510,0.296790,-0.331914,0.238952,-0.385638,-0.891171,-0.168976,0.011248,0.013455,1.695284,-1.306226,-33.752808,,,,,,,
1504198838.749310,0.265161,0.387451,0.574277,-0.800157,0.289303,-0.267865,0.242639,-0.377830,-0.893516,-0.193033,-0.007805,0.020500,1.695284,-1.306226,-33.752808,,,,,,,
1504198838.759320,0.267847,0.379094,0.574511,-0.817813,0.273369,-0.176071,0.245865,-0.370079,-0.895875,-0.212342,-0.036964,0.020798,1.769274,-0.856046,-33.681000,,,,,,,
1504198838.769331,0.270114,0.370541,0.575830,-0.872634,0.276926,-0.088645,0.248731,-0.362120,-0.898333,-0.220639,-0.061739,0.022936,1.769274,-0.856046,-33.681000,,,,,,,
1504198838.779340,0.271995,0.361487,0.578060,-0.946688,0.260424,-0.027902,0.251291,-0.353666,-0.900985,-0.212580,-0.078234,0.025557,2.066561,0.045917,-33.987061,,,,,,,
1504198838.789350,0.273023,0.351924,0.581018,-1.009419,0.184167,0.020157,0.253118,-0.344705,-0.903941,-0.191121,-0.062247,0.025172,2.066561,0.045917,-33.987061,,,,,,,
1504198838.799329,0.272855,0.342051,0.584447,-1.043566,0.069332,0.051255,0.253870,-0.335420,-0.907217,-0.155390,-0.024657,0.008658,2.366442,0.271655,-33.687958,,,,,,,
1504198838.809339,0.271277,0.332418,0.588068,-1.003223,-0.073817,0.076127,0.253292,-0.326329,-0.910688,-0.121014,0.010732,-0.002215,2.366442,0.271655,-33.687958,,,,,,,
1504198838.819349,0.268464,0.323540,0.591694,-0.926388,-0.190625,0.099949,0.251488,-0.317925,-0.914154,-0.092232,0.035256,-0.007874,2.214067,0.946887,-34.143433,,,,,,,
1504198838.829359,0.264951,0.315763,0.595115,-0.802122,-0.254530,0.110951,0.248915,-0.310542,-0.917390,-0.073912,0.039103,-0.003966,2.214067,0.946887,-34.143433,,,,,,,
1504198838.839368,0.261380,0.309196,0.598266,-0.678431,-0.257690,0.120778,0.246159,-0.304293,-0.920224,-0.067311,0.031420,0.011410,1.988726,1.394809,-33.622345,,,,,,,
1504198838.849378,0.258129,0.304052,0.601043,-0.533166,-0.235447,0.124192,0.243563,-0.299389,-0.922520,-0.064379,0.016644,0.024113,1.988726,1.394809,-33.622345,,,,,,,
1504198838.859388,0.255129,0.299750,0.603642,-0.461598,-0.218996,0.133894,0.241117,-0.295282,-0.924484,-0.055555,0.004892,0.022583,1.912142,1.845080,-33.925934,,,,,,,
1504198838.869398,0.251997,0.296040,0.606287,-0.413933,-0.247120,0.158576,0.238492,-0.291734,-0.926290,-0.050306,-0.003767,0.006764,1.912142,1.845080,-33.925934,,,,,,,
1504198838.879408,0.248072,0.292695,0.609153,-0.384911,-0.333706,0.190802,0.235093,-0.288533,-0.928159,-0.042268,-0.008158,-0.015505,2.061953,2.145007,-33.552795,,,,,,,
1504198838.889417,0.242918,0.289556,0.612221,-0.375397,-0.464876,0.212397,0.230523,-0.285527,-0.930233,-0.029305,-0.017345,-0.034733,2.061953,2.145007,-33.552795,,,,,,,
1504198838.899427,0.236267,0.286820,0.615284,-0.311589,-0.615665,0.226650,0.224512,-0.282903,-0.932502,-0.016779,-0.017405,-0.039513,1.611513,2.367831,-33.480560,,,,,,,
1504198838.909437,0.228055,0.285221,0.618690,-0.201047,-0.756245,0.299673,0.216949,-0.281369,-0.934754,-0.013794,-0.012271,-0.033661,1.611513,2.367831,-33.480560,,,,,,,
1504198838.919447,0.218404,0.285414,0.622237,0.001293,-0.908209,0.346190,0.207906,-0.281555,-0.936751,-0.013006,-0.021515,-0.020677,1.086367,2.515170,-33.333008,,,,,,,
1504198838.929456,0.207065,0.287855,0.625732,0.217464,-1.067742,0.388474,0.197130,-0.283896,-0.938372,-0.003145,-0.020288,-0.011747,1.086367,2.515170,-33.333008,,,,,,,
1504198838.939466,0.194573,0.291764,0.629114,0.343523,-1.179605,0.391025,0.185176,-0.287642,-0.939666,0.013279,0.000182,-0.018937,0.710802,2.738498,-33.335602,,,,,,,
1504198838.949476,0.180938,0.296648,0.632072,0.455706,-1.311568,0.362632,0.172093,-0.292317,-0.940710,0.038082,0.031880,-0.018686,0.710802,2.738498,-33.335602,,,,,,,
1504198838.959486,0.165967,0.302431,0.634763,0.541121,-1.445459,0.350207,0.157709,-0.297842,-0.941498,0.048377,0.060385,-0.049744,-0.264189,2.509860,-33.711334,,,,,,,
1504198838.969495,0.149914,0.308926,0.637222,0.629956,-1.559119,0.326012,0.142283,-0.304036,-0.941975,0.057867,0.052220,-0.080867,-0.264189,2.509860,-33.711334,,,,,,,
1504198838.979505,0.132936,0.316046,0.639168,0.686009,-1.657555,0.267575,0.125980,-0.310811,-0.942086,0.062726,0.045643,-0.087043,-0.938063,2.056811,-33.709625,,,,,,,
1504198838.989515,0.115403,0.323372,0.640386,0.724201,-1.736637,0.184523,0.109179,-0.317766,-0.941863,0.052488,0.059526,-0.098970,-0.938063,2.056811,-33.709625,,,,,,,
1504198838.999525,0.096963,0.331171,0.640905,0.783320,-1.858531,0.115460,0.091550,-0.325151,-0.941220,0.031771,0.068101,-0.095264,-2.138319,2.201282,-33.638733,,,,,,,
1504198839.009535,0.077191,0.339453,0.640852,0.849593,-2.015652,0.052874,0.072714,-0.332972,-0.940129,0.008188,0.059839,-0.100017,-2.138319,2.201282,-33.638733,,,,,,,
1504198839.019544,0.056035,0.347988,0.640226,0.857217,-2.175479,-0.020481,0.052649,-0.341008,-0.938585,-0.004095,0.050877,-0.114485,-3.186354,1.371707,-33.710083,,,,,,,
1504198839.029554,0.033801,0.356163,0.639564,0.792612,-2.248474,-0.019397,0.031674,-0.348681,-0.936706,-0.005612,0.025515,-0.124497,-3.186354,1.371707,-33.710083,,,,,,,
1504198839.039564,0.012153,0.363009,0.639372,0.653634,-2.139720,-0.003819,0.011361,-0.355089,-0.934763,0.005241,0.010759,-0.131048,-4.684080,0.689227,-33.333740,,,,,,,
1504198839.049574,-0.007924,0.368831,0.638902,0.557058,-1.975831,-0.058713,-0.007391,-0.360525,-0.932720,0.028509,0.016851,-0.120533,-4.684080,0.689227,-33.333740,,,,,,,
1504198839.059583,-0.025597,0.373692,0.637861,0.467476,-1.740600,-0.117990,-0.023828,-0.365055,-0.930681,0.000848,0.025425,-0.111723,-5.807707,0.233874,-33.183136,,,,,,,
1504198839.069563,-0.040383,0.378265,0.636428,0.451806,-1.455915,-0.156945,-0.037518,-0.369309,-0.928549,-0.029773,0.042328,-0.100046,-5.807707,0.233874,-33.183136,,,,,,,
1504198839.079571,-0.053586,0.381850,0.632946,0.254324,-1.510473,-0.438986,-0.049702,-0.372638,-0.926645,-0.052028,0.061786,-0.083960,-7.081953,-0.071866,-33.184021,,,,,,,
1504198839.089581,-0.071405,0.384181,0.627590,0.265512,-2.139225,-0.480554,-0.066144,-0.374800,-0.924743,-0.118015,0.154051,-0.102967,-7.081953,-0.071866,-33.184021,,,,,,,
1504198839.099591,-0.095726,0.391157,0.626383,0.822693,-2.519334,-0.066900,-0.088360,-0.381258,-0.920236,-0.186771,0.175966,-0.214850,-7.904905,-0.526776,-32.582672,,,,,,,
1504198839.109601,-0.121140,0.401242,0.628334,1.070097,-2.438416,0.088159,-0.111246,-0.390562,-0.913830,-0.058599,-0.055574,-0.198871,-7.904905,-0.526776,-32.582672,,,,,,,
1504198839.119611,-0.145663,0.412900,0.630794,1.210015,-2.301016,0.064676,-0.132951,-0.401267,-0.906261,-0.068115,-0.023370,-0.035618,-9.179182,-0.682950,-32.359680,,,,,,,
1504198839.129621,-0.166453,0.424720,0.634095,1.202999,-1.797008,0.139561,-0.150965,-0.412065,-0.898561,-0.158789,0.020739,-0.014510,-9.179182,-0.682950,-32.359680,,,,,,,
1504198839.139631,-0.181117,0.435692,0.638770,1.129158,-1.084700,0.255591,-0.163300,-0.422038,-0.891750,-0.167235,0.034968,-0.005315,-10.901915,-1.366452,-31.983856,,,,,,,
1504198839.149641,-0.188631,0.445269,0.644292,1.003584,-0.329300,0.330894,-0.169230,-0.430701,-0.886486,-0.157567,0.058127,0.032223,-10.901915,-1.366452,-31.983856,,,,,,,
1504198839.159650,-0.189211,0.454102,0.650061,0.941705,0.346786,0.343471,-0.169023,-0.438655,-0.882617,-0.177169,0.045543,0.026782,-11.499983,-2.044461,-31.830261,,,,,,,
1504198839.169660,-0.184881,0.462044,0.655547,0.860811,0.763050,0.329788,-0.164554,-0.445779,-0.879888,-0.195462,0.040338,0.000860,-11.499983,-2.044461,-31.830261,,,,,,,
1504198839.179670,-0.177895,0.469896,0.660736,0.849762,0.967761,0.305925,-0.157779,-0.452794,-0.877544,-0.197446,0.044148,-0.044682,-11.499617,-2.194455,-31.829132,,,,,,,
1504198839.189680,-0.170348,0.477048,0.665544,0.751554,0.956856,0.298302,-0.150599,-0.459158,-0.875496,-0.190359,0.062064,-0.088829,-11.499617,-2.194455,-31.829132,,,,,,,
1504198839.199690,-0.165036,0.482791,0.670305,0.593251,0.659760,0.329507,-0.145510,-0.464253,-0.873668,-0.193739,0.100087,-0.120167,-10.673216,-3.014859,-32.270935,,,,,,,
1504198839.209699,-0.163679,0.487075,0.674988,0.450153,0.250670,0.341721,-0.143999,-0.468043,-0.871894,-0.197676,0.075038,-0.167427,-10.673216,-3.014859,-32.270935,,,,,,,
1504198839.219709,-0.166461,0.488837,0.679314,0.159615,-0.187036,0.348394,-0.146287,-0.469599,-0.870676,-0.187590,0.030848,-0.218496,-10.522764,-3.239026,-32.343872,,,,,,,
1504198839.229719,-0.173743,0.487960,0.683024,-0.090697,-0.680459,0.329617,-0.152695,-0.468825,-0.869993,-0.181320,0.044646,-0.211993,-10.522764,-3.239026,-32.343872,,,,,,,
1504198839.239729,-0.186006,0.485370,0.686584,-0.217672,-1.181367,0.384718,-0.163576,-0.466535,-0.869245,-0.179213,0.043424,-0.191408,-10.597960,-3.164365,-32.344635,,,,,,,
1504198839.249738,-0.203916,0.481896,0.692906,-0.228905,-1.588663,0.701368,-0.179444,-0.463460,-0.867759,-0.167999,-0.013392,-0.141565,-10.597960,-3.164365,-32.344635,,,,,,,
1504198839.259748,-0.226037,0.478325,0.702322,-0.144409,-1.821895,0.928215,-0.198963,-0.460293,-0.865184,-0.133449,-0.074436,-0.068486,-10.823072,-3.165235,-32.420197,,,,,,,
1504198839.269758,-0.248720,0.475563,0.712096,-0.036203,-1.790777,0.888854,-0.218848,-0.457839,-0.861678,-0.131188,-0.060502,0.016479,-10.823072,-3.165235,-32.420197,,,,,,,
1504198839.279768,-0.268589,0.473900,0.722007,0.095827,-1.408275,0.914026,-0.236126,-0.456360,-0.857893,-0.156269,0.010636,0.105695,-11.948744,-2.720883,-32.126312,,,,,,,
1504198839.289777,-0.282994,0.472341,0.733505,0.117428,-0.750064,1.060204,-0.248658,-0.454972,-0.855085,-0.170654,0.038697,0.200010,-11.948744,-2.720883,-32.126312,,,,,,,
1504198839.299787,-0.291959,0.468827,0.744266,-0.118643,-0.302613,0.976816,-0.256772,-0.451840,-0.854347,-0.136706,0.049496,0.294716,-13.223951,-2.502057,-31.906158,,,,,,,
1504198839.309797,-0.296281,0.465386,0.753284,-0.078640,0.072301,0.829990,-0.260915,-0.448768,-0.854711,-0.122798,0.090629,0.270467,-13.223951,-2.502057,-31.906158,,,,,,,
1504198839.319807,-0.296996,0.462754,0.761282,-0.039791,0.334219,0.733529,-0.261870,-0.446415,-0.855651,-0.096498,0.103077,0.210295,-13.224516,-2.277066,-31.907837,,,,,,,
1504198839.329816,-0.295993,0.459928,0.768002,-0.117699,0.401034,0.630806,-0.261378,-0.443884,-0.857116,-0.056142,0.044195,0.235992,-13.224516,-2.277066,-31.907837,,,,,,,
1504198839.339826,-0.295217,0.456648,0.773451,-0.185441,0.280206,0.542307,-0.261136,-0.440942,-0.858707,-0.042133,0.034692,0.205708,-13.150801,-1.901273,-32.135468,,,,,,,
1504198839.349806,-0.296287,0.453352,0.778156,-0.191457,0.027764,0.488304,-0.262477,-0.437981,-0.859813,-0.032262,0.024682,0.180308,-13.150801,-1.901273,-32.135468,,,,,,,
1504198839.359815,-0.300333,0.449850,0.782230,-0.246237,-0.314858,0.440780,-0.266406,-0.434830,-0.860204,-0.008618,0.018586,0.165059,-13.676130,-1.678937,-31.988434,,,,,,,
1504198839.369825,-0.307744,0.445333,0.785549,-0.381386,-0.687743,0.414519,-0.273366,-0.430759,-0.860069,0.011098,0.021549,0.148093,-13.676130,-1.678937,-31.988434,,,,,,,
1504198839.379835,-0.318380,0.439107,0.788040,-0.569846,-1.047416,0.402018,-0.283332,-0.425131,-0.859643,0.028785,0.025153,0.138269,-13.301298,-1.751798,-32.211945,,,,,,,
1504198839.389845,-0.332206,0.431615,0.789990,-0.668494,-1.376937,0.400293,-0.296221,-0.418338,-0.858631,0.051378,0.030460,0.148181,-13.301298,-1.751798,-32.211945,,,,,,,
1504198839.399854,-0.349399,0.425102,0.792061,-0.495100,-1.710828,0.396913,-0.311865,-0.412414,-0.855953,0.043325,0.174362,0.183437,-13.677977,-1.078473,-32.217957,,,,,,,
1504198839.409864,-0.369822,0.421304,0.794926,-0.178168,-1.993654,0.361669,-0.329843,-0.408951,-0.850860,0.022882,0.173477,0.237945,-13.677977,-1.078473,-32.217957,,,,,,,
1504198839.419873,-0.393086,0.421292,0.798403,0.218334,-2.234453,0.269917,-0.349548,-0.408940,-0.842962,0.011093,0.111546,0.308340,-14.802870,-0.859433,-31.772430,,,,,,,
1504198839.429883,-0.418079,0.425000,0.802743,0.582755,-2.336484,0.201347,-0.369887,-0.412321,-0.832572,-0.000795,0.064726,0.346045,-14.802870,-0.859433,-31.772430,,,,,,,
1504198839.439893,-0.443468,0.431599,0.808058,0.861810,-2.297168,0.147324,-0.389728,-0.418323,-0.820438,-0.007062,-0.022686,0.373202,-16.227171,-0.642484,-30.952606,,,,,,,
1504198839.449903,-0.467519,0.439647,0.813628,0.957488,-2.113540,0.083121,-0.407815,-0.425620,-0.807796,0.005013,-0.067361,0.390361,-16.227171,-0.642484,-30.952606,,,,,,,
1504198839.459913,-0.489019,0.447779,0.819084,0.940524,-1.845914,0.062339,-0.423446,-0.432965,-0.795760,-0.002091,-0.089664,0.400970,-17.349699,-1.398282,-30.574738,,,,,,,
1504198839.469923,-0.508294,0.455406,0.824702,0.898353,-1.634602,0.085377,-0.437086,-0.439827,-0.784543,-0.001329,-0.091652,0.394269,-17.349699,-1.398282,-30.574738,,,,,,,
1504198839.479895,-0.526277,0.462734,0.830139,0.874732,-1.543791,0.046749,-0.449491,-0.446396,-0.773749,0.020109,-0.054474,0.350211,-18.770887,-2.157239,-29.297638,,,,,,,
