timestamp(unix),attitude_roll(radians),attitude_pitch(radians),attitude_yaw(radians),rotation_rate_x(radians/s),rotation_rate_y(radians/s),rotation_rate_z(radians/s),gravity_x(G),gravity_y(G),gravity_z(G),user_acc_x(G),user_acc_y(G),user_acc_z(G),magnetic_field_x(microteslas),magnetic_field_y(microteslas),magnetic_field_z(microteslas),latitude(degree),longitude(degree),altitude(meter),speed(m/s),course(degree),timestamp(unix),User Mark
1504198508.914793,0.005496,0.625501,-2.428293,0.010691,-0.018516,-0.097836,0.004455,-0.585503,-0.810658,0.035019,0.115075,-0.060451,18.165880,-17.289639,-29.991760,,,,,,,
1504198508.924803,0.006052,0.625447,-2.429566,-0.012807,-0.025775,-0.104268,0.004906,-0.585460,-0.810687,0.018806,0.099818,-0.070356,18.165880,-17.289639,-29.991760,,,,,,,
1504198508.934813,0.005953,0.624902,-2.430816,-0.071073,-0.105219,-0.101027,0.004828,-0.585018,-0.811006,0.015268,0.077297,-0.095656,18.315920,-17.214260,-29.841980,,,,,,,
1504198508.944822,0.004869,0.623742,-2.431988,-0.128426,-0.200659,-0.092419,0.003952,-0.584077,-0.811689,0.030121,0.063920,-0.110735,18.315920,-17.214260,-29.841980,,,,,,,
1504198508.954832,0.003949,0.619669,-2.433539,-0.163392,-0.279246,-0.060324,0.003215,-0.580765,-0.814065,0.040975,0.057511,-0.096931,18.015398,-17.140163,-30.068268,,,,,,,
1504198508.964842,0.001158,0.617971,-2.433913,-0.170187,-0.303739,-0.020799,0.000944,-0.579382,-0.815055,0.045214,0.050909,-0.074624,18.015398,-17.140163,-30.068268,,,,,,,
1504198508.974852,-0.001754,0.616417,-2.433842,-0.149857,-0.275171,0.013343,-0.001431,-0.578115,-0.815954,0.050869,0.055181,-0.049021,17.489687,-16.992077,-30.295685,,,,,,,
1504198508.984862,-0.004275,0.615170,-2.433500,-0.115339,-0.216866,0.031446,-0.003492,-0.577097,-0.816668,0.048886,0.070704,-0.031324,17.489687,-16.992077,-30.295685,,,,,,,
1504198508.994871,-0.004773,0.612328,-2.433871,-0.072122,-0.143682,0.034588,-0.003905,-0.574774,-0.818303,0.036040,0.077246,-0.021617,17.639803,-17.215801,-30.593658,,,,,,,
1504198509.004881,-0.005861,0.612036,-2.433502,-0.012811,-0.069570,0.027089,-0.004797,-0.574535,-0.818466,0.020590,0.080990,-0.008713,17.639803,-17.215801,-30.593658,,,,,,,
1504198509.014891,-0.006059,0.612270,-2.433372,0.032719,0.005737,0.003552,-0.004958,-0.574727,-0.818330,0.005950,0.085866,0.003908,17.489092,-16.841778,-30.446808,,,,,,,
1504198509.024901,-0.005344,0.612775,-2.433626,0.055803,0.070582,-0.028544,-0.004372,-0.575140,-0.818043,0.007622,0.088293,-0.007213,17.489092,-16.841778,-30.446808,,,,,,,
1504198509.034910,-0.004193,0.610924,-2.433982,0.048763,0.118597,-0.043587,-0.003434,-0.573625,-0.819111,0.007554,0.078919,-0.025707,17.714769,-17.290173,-30.742920,,,,,,,
1504198509.044920,-0.002527,0.611207,-2.434573,0.020131,0.135890,-0.051139,-0.002069,-0.573856,-0.818953,0.006403,0.073917,-0.046754,17.714769,-17.290173,-30.742920,,,,,,,
1504198509.054930,-0.000882,0.611313,-2.435263,0.007225,0.118953,-0.057536,-0.000722,-0.573943,-0.818895,0.019826,0.080077,-0.058806,17.639681,-17.215649,-30.668640,,,,,,,
1504198509.064940,0.000455,0.611308,-2.436037,-0.003748,0.076427,-0.064952,0.000373,-0.573939,-0.818898,0.027780,0.086696,-0.054622,17.639681,-17.215649,-30.668640,,,,,,,
1504198509.074950,0.002092,0.608346,-2.437282,0.004466,0.029465,-0.066978,0.001717,-0.571511,-0.820592,0.028541,0.086236,-0.061121,17.939806,-17.214458,-30.592926,,,,,,,
1504198509.084960,0.002595,0.608665,-2.438080,0.044749,-0.001771,-0.064718,0.002129,-0.571773,-0.820409,0.028724,0.087077,-0.054179,17.939806,-17.214458,-30.592926,,,,,,,
1504198509.094970,0.003059,0.609458,-2.438832,0.092808,0.007418,-0.059314,0.002508,-0.572423,-0.819954,0.026880,0.082998,-0.044410,17.789797,-17.215130,-30.593292,,,,,,,
1504198509.104980,0.003838,0.610751,-2.439510,0.141148,0.051769,-0.053972,0.003144,-0.573483,-0.819212,0.023147,0.079434,-0.042086,17.789797,-17.215130,-30.593292,,,,,,,
1504198509.114988,0.005385,0.609913,-2.440384,0.185151,0.087638,-0.055030,0.004414,-0.572796,-0.819686,0.018230,0.082501,-0.037553,18.090014,-17.214077,-30.442535,,,,,,,
1504198509.124998,0.006789,0.611886,-2.441156,0.200204,0.096049,-0.064625,0.005557,-0.574412,-0.818547,0.019132,0.090403,-0.044185,18.090014,-17.214077,-30.442535,,,,,,,
1504198509.135008,0.008118,0.613915,-2.442056,0.202229,0.075797,-0.075260,0.006636,-0.576072,-0.817372,0.022783,0.092170,-0.054820,18.165361,-17.438442,-30.590668,,,,,,,
1504198509.144987,0.009224,0.615968,-2.442999,0.206286,0.050188,-0.074140,0.007528,-0.577749,-0.816180,0.022867,0.094351,-0.058256,18.165361,-17.438442,-30.590668,,,,,,,
1504198509.154977,0.010350,0.614817,-2.444023,0.200721,0.031042,-0.066649,0.008455,-0.576809,-0.816835,0.019164,0.095257,-0.052519,18.089449,-16.989071,-30.444214,,,,,,,
1504198509.164987,0.011034,0.616711,-2.444871,0.187790,0.015165,-0.066643,0.009002,-0.578355,-0.815736,0.020509,0.098649,-0.054778,18.089449,-16.989071,-30.444214,,,,,,,
1504198509.174997,0.011953,0.615312,-2.445976,0.182344,0.002428,-0.073039,0.009761,-0.577214,-0.816535,0.020635,0.096028,-0.056802,18.165056,-17.363293,-30.666229,,,,,,,
1504198509.185005,0.012858,0.614294,-2.447226,0.189823,-0.002944,-0.091166,0.010507,-0.576382,-0.817113,0.017875,0.092297,-0.043498,18.165056,-17.363293,-30.666229,,,,,,,
1504198509.195015,0.014058,0.613687,-2.448821,0.200585,0.000187,-0.111437,0.011492,-0.575885,-0.817450,0.018888,0.091114,-0.030558,18.241610,-17.663998,-30.138763,,,,,,,
1504198509.205025,0.015418,0.613300,-2.450701,0.204902,-0.003020,-0.132776,0.012608,-0.575569,-0.817656,0.018810,0.088585,-0.026277,18.241610,-17.663998,-30.138763,,,,,,,
1504198509.215035,0.016928,0.613133,-2.452806,0.200563,-0.013626,-0.141307,0.013844,-0.575433,-0.817732,0.020976,0.077859,-0.030397,18.241533,-17.589153,-30.064331,,,,,,,
1504198509.225044,0.018542,0.613222,-2.454930,0.201590,-0.009374,-0.131710,0.015162,-0.575505,-0.817657,0.022924,0.066945,-0.032227,18.241533,-17.589153,-30.064331,,,,,,,
1504198509.235054,0.020316,0.613676,-2.456926,0.216638,0.016072,-0.117855,0.016608,-0.575877,-0.817368,0.022973,0.061808,-0.025451,18.166826,-17.664639,-29.988953,,,,,,,
1504198509.245064,0.022445,0.614559,-2.458811,0.240358,0.057432,-0.105082,0.018337,-0.576598,-0.816822,0.023320,0.057738,-0.018474,18.166826,-17.664639,-29.988953,,,,,,,
1504198509.255075,0.024925,0.615944,-2.460578,0.270519,0.100875,-0.096570,0.020342,-0.577729,-0.815975,0.021909,0.054673,-0.010548,18.241610,-17.663998,-30.138763,,,,,,,
1504198509.265084,0.027695,0.617797,-2.462250,0.297420,0.135820,-0.089115,0.022573,-0.579241,-0.814844,0.020594,0.050676,-0.005575,18.241610,-17.663998,-30.138763,,,,,,,
1504198509.275094,0.029858,0.620846,-2.463342,0.309276,0.158088,-0.077393,0.024282,-0.581724,-0.813024,0.020197,0.048597,-0.012339,18.317202,-17.813961,-29.987457,,,,,,,
1504198509.285104,0.032190,0.623881,-2.464373,0.301948,0.178391,-0.073172,0.026122,-0.584189,-0.811197,0.021471,0.050544,-0.025397,18.317202,-17.813961,-29.987457,,,,,,,
1504198509.295114,0.034676,0.626829,-2.465405,0.296716,0.191221,-0.073203,0.028078,-0.586580,-0.809405,0.028623,0.053987,-0.038511,18.692949,-17.888027,-29.610962,,,,,,,
1504198509.305123,0.038328,0.628172,-2.467102,0.298927,0.199747,-0.079623,0.031003,-0.587666,-0.808509,0.028109,0.056462,-0.035561,18.692949,-17.888027,-29.610962,,,,,,,
1504198509.315133,0.040991,0.631174,-2.468348,0.304226,0.187994,-0.091334,0.033084,-0.590093,-0.806657,0.034344,0.059804,-0.029646,18.468416,-17.889629,-29.311523,,,,,,,
1504198509.325143,0.043487,0.634137,-2.469684,0.299775,0.162460,-0.095566,0.035021,-0.592482,-0.804822,0.034452,0.054808,-0.030826,18.468416,-17.889629,-29.311523,,,,,,,
1504198509.335153,0.045613,0.636934,-2.471028,0.277034,0.121088,-0.094466,0.036657,-0.594734,-0.803087,0.029475,0.046806,-0.031722,18.694872,-18.339077,-29.082611,,,,,,,
1504198509.345163,0.048435,0.637982,-2.472978,0.217753,0.061899,-0.073120,0.038893,-0.595576,-0.802357,0.036776,0.032664,-0.046657,18.694872,-18.339077,-29.082611,,,,,,,
1504198509.355171,0.049160,0.639718,-2.473623,0.163918,0.026070,-0.032589,0.039423,-0.596969,-0.801295,0.044759,0.014450,-0.063863,18.919497,-18.188061,-29.083160,,,,,,,
1504198509.365181,0.049470,0.641071,-2.473747,0.127444,0.025265,0.005776,0.039632,-0.598054,-0.800475,0.051234,0.005860,-0.046555,18.919497,-18.188061,-29.083160,,,,,,,
1504198509.375191,0.049717,0.642159,-2.473396,0.101875,0.053142,0.043042,0.039797,-0.598926,-0.799815,0.066114,0.006274,-0.024449,18.919497,-18.188061,-29.083160,,,,,,,
1504198509.385201,0.053447,0.643203,-2.474616,0.079664,0.098094,0.074940,0.042747,-0.599762,-0.799036,0.069924,-0.002625,-0.007467,18.919497,-18.188061,-29.083160,,,,,,,
1504198509.395211,0.054073,0.643909,-2.473585,0.060675,0.132337,0.086588,0.043224,-0.600326,-0.798587,0.069035,-0.005326,0.007022,18.920031,-18.263515,-28.857605,,,,,,,
1504198509.405221,0.055124,0.644374,-2.472639,0.035424,0.168789,0.073671,0.044048,-0.600698,-0.798262,0.069126,0.021611,0.013945,18.920031,-18.263515,-28.857605,,,,,,,
1504198509.415231,0.056649,0.644457,-2.471970,-0.006853,0.202198,0.046854,0.045262,-0.600764,-0.798144,0.052119,0.051219,0.010211,18.695711,-18.489666,-28.781433,,,,,,,
1504198509.425241,0.059661,0.642570,-2.472286,-0.055429,0.237822,-0.001330,0.047734,-0.599255,-0.799134,0.021175,0.064099,-0.002960,18.695711,-18.489666,-28.781433,,,,,,,
1504198509.435250,0.062529,0.641587,-2.472783,-0.110346,0.270306,-0.062324,0.050062,-0.598468,-0.799581,0.002413,0.071811,-0.014323,18.771151,-18.714184,-28.854584,,,,,,,
1504198509.445260,0.066141,0.639986,-2.474043,-0.165321,0.294268,-0.125438,0.053013,-0.597184,-0.800350,-0.004338,0.074921,-0.029499,19.370592,-18.486492,-28.854797,,,,,,,
1504198509.455270,0.070230,0.637881,-2.475786,-0.209834,0.309589,-0.160767,0.056373,-0.595494,-0.801379,-0.008033,0.061727,-0.043561,19.370592,-18.486492,-28.854797,,,,,,,
1504198509.465280,0.073902,0.633837,-2.477299,-0.230184,0.304417,-0.157593,0.059493,-0.592240,-0.803562,-0.002654,0.041459,-0.046353,19.370592,-18.486492,-28.854797,,,,,,,
1504198509.475290,0.077621,0.631394,-2.478724,-0.234823,0.279910,-0.122333,0.062593,-0.590270,-0.804775,0.010191,0.027129,-0.049580,19.444948,-18.186306,-28.781830,,,,,,,
1504198509.485299,0.080668,0.629066,-2.479531,-0.223592,0.249925,-0.068891,0.065155,-0.588390,-0.805948,0.023193,0.022899,-0.060156,19.444948,-18.186306,-28.781830,,,,,,,
1504198509.495309,0.083077,0.627070,-2.479680,-0.185651,0.223984,-0.016477,0.067195,-0.586775,-0.806957,0.027501,0.023085,-0.066746,19.669298,-18.109692,-29.081879,,,,,,,
1504198509.505288,0.085600,0.623893,-2.479811,-0.123120,0.194671,0.015701,0.069389,-0.584199,-0.808639,0.025597,0.034425,-0.066025,19.669298,-18.109692,-29.081879,,,,,,,
1504198509.515298,0.087154,0.623271,-2.479417,-0.043343,0.171624,0.027621,0.070677,-0.583694,-0.808892,0.021334,0.051300,-0.058815,19.744417,-17.885250,-28.633331,,,,,,,
1504198509.525307,0.088341,0.623430,-2.479156,0.033093,0.117725,0.018242,0.071629,-0.583824,-0.808715,0.014308,0.062019,-0.056627,19.744417,-17.885250,-28.633331,,,,,,,
1504198509.535317,0.089122,0.624238,-2.479222,0.095624,0.052230,-0.002882,0.072219,-0.584479,-0.808189,0.019624,0.073645,-0.079965,19.744753,-17.885693,-28.408325,,,,,,,
1504198509.545326,0.089562,0.622496,-2.479729,0.161244,-0.017560,-0.016527,0.072665,-0.583065,-0.809170,0.025083,0.074611,-0.092854,19.744753,-17.885693,-28.408325,,,,,,,
1504198509.555336,0.089719,0.624781,-2.480245,0.262787,0.000793,-0.023856,0.072672,-0.584920,-0.807829,0.012685,0.078267,-0.075762,19.970171,-18.184246,-28.630524,,,,,,,
1504198509.565346,0.090086,0.627854,-2.481073,0.313945,-0.016661,-0.040815,0.072807,-0.587409,-0.806008,0.017891,0.060295,0.052071,19.819979,-18.109921,-28.631470,,,,,,,
1504198509.575356,0.090184,0.630266,-2.481533,0.211310,-0.016924,0.000637,0.072758,-0.589360,-0.804588,0.060741,-0.001705,0.031211,19.819979,-18.109921,-28.631470,,,,,,,
1504198509.585366,0.091694,0.632047,-2.482277,0.051655,-0.055085,0.077277,0.073877,-0.590798,-0.803430,0.051459,-0.055107,-0.030920,19.970430,-18.109829,-28.331116,,,,,,,
1504198509.595376,0.089764,0.631455,-2.480612,-0.108061,-0.106053,0.144336,0.072357,-0.590320,-0.803920,0.056778,-0.044675,-0.041417,19.970430,-18.109829,-28.331116,,,,,,,
1504198509.605386,0.087059,0.629882,-2.478233,-0.188500,-0.133138,0.184806,0.070263,-0.589050,-0.805036,0.054615,0.015868,-0.052187,19.895128,-18.035030,-28.406830,,,,,,,
1504198509.615396,0.084287,0.628073,-2.475785,-0.194841,-0.130946,0.176252,0.068121,-0.587587,-0.806289,0.043573,0.038011,-0.038270,19.895128,-18.035030,-28.406830,,,,,,,
1504198509.625405,0.083171,0.624736,-2.474454,-0.149362,-0.076911,0.123927,0.067384,-0.584883,-0.808314,0.028106,0.062392,-0.017248,19.595354,-18.260921,-28.630890,,,,,,,
1504198509.635415,0.082492,0.624022,-2.473560,-0.051242,0.003348,0.046036,0.066869,-0.584304,-0.808775,0.014826,0.068633,-0.015886,19.595354,-18.260921,-28.630890,,,,,,,
1504198509.645425,0.083014,0.624155,-2.473730,0.030610,0.051770,-0.029694,0.067285,-0.584412,-0.808663,0.004370,0.086853,0.022988,19.294603,-17.962276,-28.633881,,,,,,,
1504198509.655435,0.084334,0.624523,-2.474711,0.045023,0.083679,-0.087365,0.068335,-0.584711,-0.808359,0.004816,0.090723,0.031564,19.294603,-17.962276,-28.633881,,,,,,,
1504198509.665445,0.085959,0.622635,-2.476240,0.039602,0.053924,-0.123618,0.069742,-0.583178,-0.809345,0.008673,0.081560,-0.009090,19.369799,-18.036938,-28.633148,,,,,,,
1504198509.675453,0.087451,0.622615,-2.478216,0.000127,0.025526,-0.169534,0.070951,-0.583161,-0.809252,0.009387,0.075211,-0.020689,19.369799,-18.036938,-28.633148,,,,,,,
1504198509.685463,0.088765,0.622202,-2.480531,-0.033119,-0.012534,-0.196210,0.072036,-0.582826,-0.809398,0.039933,0.079652,-0.030965,19.594530,-17.886074,-28.558746,,,,,,,
1504198509.695473,0.090049,0.621524,-2.483067,-0.054424,-0.020863,-0.216513,0.073110,-0.582275,-0.809698,0.038813,0.074752,-0.032633,19.594530,-17.886074,-28.558746,,,,,,,
1504198509.705483,0.092627,0.618635,-2.486457,-0.073420,-0.004688,-0.237928,0.075353,-0.579924,-0.811179,0.027507,0.066923,-0.018259,19.819338,-17.810070,-28.558746,,,,,,,
1504198509.715492,0.094459,0.617483,-2.489365,-0.098762,0.021107,-0.249759,0.076902,-0.578985,-0.811703,0.022830,0.061148,-0.007602,19.819338,-17.810070,-28.558746,,,,,,,
1504198509.725502,0.096568,0.616091,-2.492366,-0.118828,0.041528,-0.258369,0.078691,-0.577850,-0.812341,0.014159,0.049361,-0.014045,20.043856,-17.658901,-28.634277,,,,,,,
1504198509.735512,0.098825,0.614595,-2.495408,-0.125142,0.051173,-0.260532,0.080609,-0.576628,-0.813021,0.015353,0.043180,-0.020262,20.043856,-17.658901,-28.634277,,,,,,,
1504198509.745522,0.101765,0.611591,-2.498812,-0.125192,0.050111,-0.256265,0.083175,-0.574171,-0.814500,0.019013,0.045789,-0.018523,20.118273,-17.433559,-28.635803,,,,,,,
1504198509.755532,0.103821,0.610149,-2.501653,-0.115750,0.039362,-0.241286,0.084935,-0.572990,-0.815150,0.019740,0.054191,-0.020147,20.118273,-17.433559,-28.635803,,,,,,,
1504198509.765542,0.105681,0.608898,-2.504329,-0.095612,0.030658,-0.228427,0.086527,-0.571964,-0.815703,0.019247,0.056491,-0.023088,20.117571,-17.283123,-28.861969,,,,,,,
1504198509.775552,0.107380,0.607845,-2.506999,-0.077637,0.010264,-0.228360,0.087977,-0.571100,-0.816153,0.011816,0.056955,-0.022989,20.117571,-17.283123,-28.861969,,,,,,,
1504198509.785562,0.108943,0.604691,-2.509910,-0.075676,-0.023826,-0.253919,0.089448,-0.568508,-0.817800,0.007751,0.064785,-0.026179,20.417559,-17.281765,-28.861206,,,,,,,
1504198509.795571,0.110076,0.603453,-2.513307,-0.099531,-0.103496,-0.305055,0.090452,-0.567489,-0.818398,0.009341,0.070510,-0.045707,20.417559,-17.281765,-28.861206,,,,,,,
1504198509.805581,0.110388,0.601775,-2.517298,-0.141869,-0.227767,-0.358279,0.090812,-0.566107,-0.819315,0.021707,0.069311,-0.070196,20.492495,-17.206585,-28.786560,,,,,,,
1504198509.815591,0.109477,0.599455,-2.521814,-0.205850,-0.388094,-0.408275,0.090208,-0.564192,-0.820701,0.024507,0.062407,-0.090692,20.492495,-17.206585,-28.786560,,,,,,,
1504198509.825601,0.107044,0.595186,-2.526695,-0.261671,-0.575156,-0.429393,0.088468,-0.560662,-0.823305,0.027530,0.054956,-0.102064,20.416246,-16.756771,-28.865173,,,,,,,
1504198509.835611,0.102826,0.591797,-2.531423,-0.308700,-0.714370,-0.421757,0.085189,-0.557853,-0.825556,0.021470,0.036415,-0.099615,20.416246,-16.756771,-28.865173,,,,,,,
1504198509.845619,0.097637,0.588102,-2.535854,-0.333860,-0.775994,-0.396075,0.081104,-0.554783,-0.828033,0.002667,0.009052,-0.079285,20.189974,-16.606579,-29.466858,,,,,,,
1504198509.855600,0.092219,0.584411,-2.539859,-0.332777,-0.749404,-0.356626,0.076805,-0.551709,-0.830493,0.013359,0.008526,-0.056592,20.189974,-16.606579,-29.466858,,,,,,,
1504198509.865608,0.087360,0.580941,-2.543507,-0.304490,-0.662289,-0.326843,0.072936,-0.548811,-0.832759,0.010393,0.011289,-0.037069,19.887972,-16.082027,-29.921509,,,,,,,
1504198509.875618,0.083354,0.577942,-2.546868,-0.264345,-0.561416,-0.299199,0.069735,-0.546301,-0.834681,0.014005,0.018545,-0.017126,19.887972,-16.082027,-29.921509,,,,,,,
1504198509.885628,0.080068,0.575450,-2.550107,-0.210462,-0.488344,-0.289628,0.067101,-0.544212,-0.836260,0.018211,0.029182,-0.012022,19.437716,-16.158459,-30.222076,,,,,,,
1504198509.895638,0.077349,0.573798,-2.553459,-0.117234,-0.441154,-0.294887,0.064897,-0.542826,-0.837334,0.017028,0.026590,-0.013450,19.437716,-16.158459,-30.222076,,,,,,,
1504198509.905648,0.075355,0.573110,-2.556920,-0.023799,-0.365199,-0.295926,0.063254,-0.542248,-0.837834,0.021905,0.016796,0.011082,19.361971,-15.858792,-30.224518,,,,,,,
1504198509.915658,0.075110,0.573552,-2.560877,0.051717,-0.262448,-0.297045,0.063031,-0.542619,-0.837611,0.017581,0.005372,0.032221,19.361971,-15.858792,-30.224518,,,,,,,
1504198509.925668,0.075271,0.574308,-2.564438,0.111261,-0.149992,-0.289668,0.063136,-0.543254,-0.837191,0.017705,0.001048,0.027026,19.362185,-16.083340,-30.447815,,,,,,,
1504198509.935678,0.076374,0.575476,-2.567907,0.147130,-0.060788,-0.279089,0.064010,-0.544234,-0.836488,0.023102,0.006820,0.024125,19.362185,-16.083340,-30.447815,,,,,,,
1504198509.945687,0.077992,0.576760,-2.571418,0.150716,-0.019248,-0.289830,0.065310,-0.545311,-0.835685,0.027876,0.014199,0.010612,19.287188,-16.083675,-30.448029,,,,,,,
1504198509.955697,0.081136,0.577378,-2.575981,0.143368,-0.024464,-0.323995,0.067909,-0.545829,-0.835140,0.025047,0.013389,-0.014011,19.287188,-16.083675,-30.448029,,,,,,,
1504198509.965707,0.082979,0.578356,-2.580102,0.118725,-0.046623,-0.338942,0.069404,-0.546648,-0.834481,0.051187,0.023257,-0.022452,19.436693,-15.932858,-30.523773,,,,,,,
1504198509.975717,0.084411,0.578939,-2.584309,0.075667,-0.099540,-0.347463,0.070572,-0.547136,-0.834063,0.052307,0.021059,-0.024137,19.436693,-15.932858,-30.523773,,,,,,,
1504198509.985727,0.085260,0.579061,-2.588485,0.030371,-0.158843,-0.345302,0.071274,-0.547238,-0.833937,0.038208,0.003827,-0.032503,19.211245,-15.709012,-30.451019,,,,,,,
1504198509.995736,0.086870,0.578424,-2.593330,-0.014901,-0.213867,-0.342086,0.072647,-0.546705,-0.834168,0.033295,-0.007174,-0.028747,19.211245,-15.709012,-30.451019,,,,,,,
1504198510.005746,0.086560,0.577718,-2.597251,-0.049433,-0.254089,-0.328198,0.072422,-0.546113,-0.834575,0.040448,-0.001204,-0.022465,19.286180,-15.633832,-30.376373,,,,,,,
1504198510.015756,0.085887,0.576735,-2.600822,-0.079520,-0.261333,-0.297283,0.071906,-0.545290,-0.835157,0.046395,0.015780,-0.009447,19.286180,-15.633832,-30.376373,,,,,,,
1504198510.025765,0.085119,0.575516,-2.603984,-0.107240,-0.240888,-0.268547,0.071321,-0.544268,-0.835874,0.043669,0.034716,0.011106,19.285341,-15.258969,-30.304169,,,,,,,
1504198510.035774,0.086783,0.572846,-2.607963,-0.152001,-0.207498,-0.228131,0.072838,-0.542026,-0.837199,0.049767,0.052249,0.022166,19.285341,-15.258969,-30.304169,,,,,,,
1504198510.045784,0.085754,0.570806,-2.609746,-0.200351,-0.196533,-0.142842,0.072071,-0.540311,-0.838374,0.060574,0.062375,0.017466,19.134813,-15.184201,-30.530151,,,,,,,
1504198510.055794,0.084041,0.568528,-2.610323,-0.225449,-0.203889,-0.042537,0.070737,-0.538393,-0.839720,0.034655,0.042055,-0.002107,19.134813,-15.184201,-30.530151,,,,,,,
1504198510.065804,0.081618,0.566281,-2.609800,-0.227060,-0.216755,0.046077,0.068801,-0.536497,-0.841093,0.019822,0.016523,-0.000307,19.584932,-15.406583,-30.827362,,,,,,,
1504198510.075814,0.079729,0.563930,-2.608953,-0.213512,-0.223349,0.119779,0.067313,-0.534512,-0.842476,0.025216,0.006771,-0.000786,19.584932,-15.406583,-30.827362,,,,,,,
1504198510.085824,0.076396,0.562031,-2.607007,-0.195611,-0.230992,0.155048,0.064581,-0.532906,-0.843706,0.020487,0.007271,-0.006910,19.134356,-15.183606,-30.830170,,,,,,,
1504198510.095834,0.072850,0.560460,-2.605023,-0.160564,-0.252591,0.153012,0.061650,-0.531576,-0.844764,0.015377,0.018499,-0.017937,19.134356,-15.183606,-30.830170,,,,,,,
1504198510.105844,0.069048,0.559364,-2.603193,-0.105374,-0.293531,0.145708,0.058478,-0.530647,-0.845573,0.018762,0.029503,-0.018608,18.908617,-14.884610,-30.832977,,,,,,,
1504198510.115853,0.065109,0.557733,-2.601564,-0.053597,-0.349373,0.154432,0.055203,-0.529264,-0.846659,0.013462,0.025465,-0.017919,18.908617,-14.884610,-30.832977,,,,,,,
1504198510.125863,0.059953,0.557471,-2.599510,-0.035128,-0.427337,0.177017,0.050845,-0.529042,-0.847071,-0.000201,0.022206,-0.024099,18.534227,-15.260846,-31.056061,,,,,,,
1504198510.135873,0.053921,0.557136,-2.597269,-0.050752,-0.503947,0.192069,0.045745,-0.528758,-0.847539,-0.008346,0.025782,-0.047297,18.534227,-15.260846,-31.056061,,,,,,,
1504198510.145883,0.047045,0.556170,-2.594750,-0.129264,-0.568325,0.214462,0.039940,-0.527937,-0.848344,0.004250,0.032851,-0.067489,18.608202,-15.034909,-31.357574,,,,,,,
1504198510.155876,0.039431,0.553641,-2.591985,-0.202093,-0.601827,0.214394,0.033532,-0.525788,-0.849955,-0.006081,0.034714,-0.101080,18.608202,-15.034909,-31.357574,,,,,,,
1504198510.165885,0.032147,0.551536,-2.589419,-0.222211,-0.584608,0.211126,0.027376,-0.523996,-0.851281,-0.001131,0.043832,-0.105079,17.707537,-15.038068,-31.809784,,,,,,,
1504198510.175895,0.025626,0.549390,-2.586873,-0.216130,-0.491950,0.209906,0.021853,-0.522167,-0.852563,0.004865,0.044963,-0.047766,17.707537,-15.038068,-31.809784,,,,,,,
1504198510.185905,0.020560,0.547592,-2.584477,-0.171096,-0.339925,0.194772,0.017552,-0.520633,-0.853600,-0.016133,0.032779,-0.009239,17.407305,-15.039121,-31.960541,,,,,,,
1504198510.195915,0.016723,0.546106,-2.582067,-0.121709,-0.180477,0.174297,0.014290,-0.519363,-0.854434,-0.012077,0.027420,0.036273,17.407305,-15.039121,-31.960541,,,,,,,
1504198510.205894,0.014855,0.545145,-2.580185,-0.091860,-0.063484,0.152795,0.012701,-0.518542,-0.854958,-0.000326,0.025119,0.057167,17.556215,-14.737988,-32.187439,,,,,,,
1504198510.215904,0.013746,0.544329,-2.578602,-0.085004,-0.021957,0.128183,0.011759,-0.517844,-0.855394,-0.000589,0.027732,0.045015,17.556215,-14.737988,-32.187439,,,,,,,
1504198510.225913,0.012778,0.543344,-2.577288,-0.107404,-0.034537,0.106818,0.010937,-0.517001,-0.855915,0.008701,0.044391,0.029819,17.181398,-14.814679,-32.187805,,,,,,,
1504198510.235923,0.012327,0.540452,-2.576519,-0.143663,-0.045927,0.081153,0.010570,-0.514524,-0.857411,0.013218,0.051221,0.003666,17.181398,-14.814679,-32.187805,,,,,,,
1504198510.245933,0.011392,0.538814,-2.575787,-0.171362,-0.057393,0.054440,0.009778,-0.513118,-0.858262,0.016193,0.052562,-0.008803,17.256624,-14.814633,-32.037598,,,,,,,
1504198510.255943,0.010446,0.537024,-2.575155,-0.183121,-0.061556,0.052293,0.008976,-0.511581,-0.859188,0.026379,0.047165,-0.014805,17.256624,-14.814633,-32.037598,,,,,,,
1504198510.265952,0.009325,0.535122,-2.574362,-0.195085,-0.077462,0.072581,0.008021,-0.509946,-0.860169,0.014104,0.029065,-0.011398,17.181597,-14.889676,-32.187225,,,,,,,
1504198510.275962,0.007830,0.532250,-2.573276,-0.217049,-0.128471,0.114259,0.006747,-0.507474,-0.861641,0.007688,0.014249,-0.014122,17.181597,-14.889676,-32.187225,,,,,,,
1504198510.285972,0.004931,0.529979,-2.571479,-0.227659,-0.223274,0.164576,0.004255,-0.505515,-0.862807,0.009616,0.015037,-0.033143,16.956148,-14.890088,-32.487823,,,,,,,
1504198510.295982,0.000811,0.527640,-2.569148,-0.232930,-0.318120,0.213834,0.000701,-0.503496,-0.863997,0.014604,0.026353,-0.045777,16.956148,-14.890088,-32.487823,,,,,,,
1504198510.305991,-0.004321,0.525294,-2.566373,-0.232580,-0.388484,0.244914,-0.003739,-0.501467,-0.865169,0.013962,0.030077,-0.045247,16.731218,-14.965955,-32.562775,,,,,,,
1504198510.316001,-0.009862,0.521596,-2.563548,-0.212481,-0.411023,0.239648,-0.008550,-0.498264,-0.866983,0.005270,0.033985,-0.048285,16.731218,-14.965955,-32.562775,,,,,,,
1504198510.326011,-0.015026,0.519706,-2.561001,-0.176885,-0.377192,0.216168,-0.013041,-0.496625,-0.867867,0.008143,0.042172,-0.039405,16.055620,-14.818692,-32.715607,,,,,,,
1504198510.336021,-0.019328,0.518288,-2.558858,-0.127021,-0.302971,0.177697,-0.016789,-0.495394,-0.868506,-0.002987,0.046022,-0.016290,16.055620,-14.818692,-32.715607,,,,,,,
1504198510.346031,-0.022525,0.517436,-2.557176,-0.066358,-0.213918,0.137083,-0.019574,-0.494653,-0.868870,-0.012896,0.057153,-0.001934,15.979616,-14.593427,-33.017456,,,,,,,
1504198510.356040,-0.025595,0.515143,-2.555555,-0.001424,-0.129162,0.083676,-0.022271,-0.492659,-0.869937,-0.016990,0.069960,0.007572,15.979616,-14.593427,-33.017456,,,,,,,
1504198510.366050,-0.026564,0.515522,-2.555189,0.050666,-0.063450,0.013201,-0.023109,-0.492989,-0.869728,-0.017082,0.088158,0.022698,16.055101,-14.743237,-32.941132,,,,,,,
1504198510.376060,-0.026524,0.516358,-2.555731,0.093106,-0.011499,-0.070074,-0.023063,-0.493716,-0.869317,-0.013009,0.100848,0.014810,16.055101,-14.743237,-32.941132,,,,,,,
1504198510.386070,-0.025635,0.517664,-2.557162,0.137553,0.029771,-0.144788,-0.022273,-0.494852,-0.868692,-0.007573,0.100840,0.009027,15.904268,-14.369061,-32.869354,,,,,,,
1504198510.396079,-0.024514,0.516938,-2.558929,0.161725,0.088226,-0.197154,-0.021309,-0.494220,-0.869075,-0.011696,0.084552,0.020061,15.904268,-14.369061,-32.869354,,,,,,,
1504198510.406089,-0.021968,0.518660,-2.561450,0.169779,0.141473,-0.229256,-0.019077,-0.495717,-0.868275,-0.020046,0.064168,0.025226,15.980211,-14.743726,-32.866333,,,,,,,
1504198510.416099,-0.018910,0.520400,-2.564146,0.171217,0.181964,-0.238931,-0.016405,-0.497227,-0.867465,-0.015226,0.052113,0.017307,15.980211,-14.743726,-32.866333,,,,,,,
1504198510.426109,-0.015473,0.522040,-2.566927,0.154387,0.208749,-0.244345,-0.013412,-0.498649,-0.866700,-0.014939,0.049080,0.023286,16.431231,-14.967298,-32.563538,,,,,,,
1504198510.436118,-0.012259,0.522261,-2.569595,0.122381,0.210076,-0.245471,-0.010625,-0.498841,-0.866628,-0.008037,0.050721,0.020193,16.431231,-14.967298,-32.563538,,,,,,,
1504198510.446128,-0.008853,0.523324,-2.572406,0.096652,0.195368,-0.244422,-0.007668,-0.499762,-0.866129,-0.008109,0.048789,0.003565,16.655321,-14.740842,-32.789673,,,,,,,
1504198510.456138,-0.005678,0.524121,-2.575162,0.069778,0.174271,-0.238027,-0.004916,-0.500452,-0.865750,-0.012052,0.036829,0.000638,16.655321,-14.740842,-32.789673,,,,,,,
1504198510.466148,-0.002799,0.524571,-2.577936,0.035381,0.140458,-0.241229,-0.002422,-0.500842,-0.865536,-0.015080,0.028292,0.000301,16.355928,-14.892484,-32.639282,,,,,,,
1504198510.476158,-0.000676,0.523727,-2.580608,-0.002282,0.097083,-0.248690,-0.000585,-0.500111,-0.865961,-0.009531,0.026265,-0.005560,16.355928,-14.892484,-32.639282,,,,,,,
1504198510.486167,0.001610,0.523430,-2.583562,-0.038675,0.077145,-0.257257,0.001394,-0.499854,-0.866109,-0.006537,0.030463,-0.006664,16.804979,-14.515470,-32.640991,,,,,,,
1504198510.496177,0.003959,0.522844,-2.586545,-0.062016,0.092258,-0.259459,0.003430,-0.499347,-0.866396,-0.009473,0.029940,0.003892,16.804979,-14.515470,-32.640991,,,,,,,
1504198510.506187,0.006765,0.522106,-2.589526,-0.075481,0.143517,-0.258506,0.005864,-0.498707,-0.866751,-0.015721,0.031910,0.010580,16.880022,-14.440427,-32.491364,,,,,,,
1504198510.516197,0.009228,0.520637,-2.592120,-0.082625,0.185125,-0.258590,0.008005,-0.497433,-0.867465,-0.019114,0.031537,0.021106,16.880022,-14.440427,-32.491364,,,,,,,
1504198510.526206,0.012708,0.519746,-2.595104,-0.088884,0.202227,-0.259698,0.011030,-0.496660,-0.867875,-0.023435,0.028566,0.018617,17.179934,-14.364224,-32.416199,,,,,,,
1504198510.536216,0.016227,0.518685,-2.598136,-0.107018,0.198122,-0.267194,0.014092,-0.495738,-0.868358,-0.023537,0.026515,0.017360,17.179934,-14.364224,-32.416199,,,,,,,
1504198510.546195,0.019668,0.517372,-2.601261,-0.129482,0.185529,-0.275750,0.017093,-0.494598,-0.868954,-0.021839,0.023849,0.004849,17.104418,-14.289121,-32.641937,,,,,,,
1504198510.556205,0.022225,0.515092,-2.604057,-0.150873,0.176112,-0.282174,0.019339,-0.492615,-0.870032,-0.019889,0.021149,-0.002389,17.104418,-14.289121,-32.641937,,,,,,,
1504198510.566215,0.025577,0.513471,-2.607343,-0.157252,0.172978,-0.291786,0.022277,-0.491204,-0.870760,-0.023238,0.023125,-0.005140,17.478090,-13.762433,-32.644958,,,,,,,
1504198510.576225,0.028974,0.511844,-2.610706,-0.155047,0.177230,-0.299262,0.025257,-0.489785,-0.871477,-0.021747,0.028940,-0.006147,17.478090,-13.762433,-32.644958,,,,,,,
1504198510.586234,0.031660,0.509257,-2.613756,-0.150684,0.184654,-0.308873,0.027638,-0.487529,-0.872669,-0.021061,0.028361,-0.004070,17.629030,-13.912503,-32.268463,,,,,,,
1504198510.596244,0.034667,0.506586,-2.616996,-0.148539,0.185700,-0.312073,0.030307,-0.485195,-0.873881,-0.015109,0.031490,-0.006079,17.629030,-13.912503,-32.268463,,,,,,,
1504198510.606254,0.037847,0.503877,-2.620299,-0.145319,0.189932,-0.312075,0.033136,-0.482824,-0.875090,-0.011896,0.031973,-0.010332,17.778612,-13.836530,-32.418640,,,,,,,
1504198510.616264,0.041155,0.501321,-2.623671,-0.151599,0.200646,-0.321712,0.036080,-0.480584,-0.876206,-0.012383,0.027780,-0.006118,17.778612,-13.836530,-32.418640,,,,,,,
1504198510.626273,0.045146,0.498500,-2.627390,-0.161039,0.216720,-0.331365,0.039638,-0.478108,-0.877406,0.000065,0.033223,-0.008977,17.778200,-13.536969,-32.195892,,,,,,,
1504198510.636283,0.049479,0.495469,-2.631335,-0.179054,0.223284,-0.348488,0.043511,-0.475444,-0.878669,0.004722,0.032161,-0.012765,17.778200,-13.536969,-32.195892,,,,,,,
1504198510.646293,0.053677,0.493478,-2.635338,-0.181026,0.232909,-0.365587,0.047250,-0.473692,-0.879422,0.006613,0.030836,-0.020968,18.077059,-13.309873,-32.571838,,,,,,,
1504198510.656303,0.058076,0.491553,-2.639442,-0.168033,0.251990,-0.373070,0.051171,-0.471996,-0.880114,0.011650,0.035457,-0.014737,18.077059,-13.309873,-32.571838,,,,,,,
1504198510.666313,0.062856,0.489834,-2.643650,-0.143140,0.290157,-0.382701,0.055429,-0.470479,-0.880668,0.001883,0.034826,-0.010628,18.601870,-13.008267,-32.197784,,,,,,,
1504198510.676322,0.068278,0.487156,-2.648121,-0.116076,0.328320,-0.403004,0.060288,-0.468115,-0.881609,0.000839,0.040838,-0.008742,18.601870,-13.008267,-32.197784,,,,,,,
1504198510.686332,0.073958,0.485821,-2.652902,-0.098670,0.346332,-0.441432,0.065341,-0.466935,-0.881874,0.005765,0.048462,-0.014808,18.676394,-12.857770,-32.273743,,,,,,,
1504198510.696342,0.079794,0.484648,-2.658112,-0.075086,0.337651,-0.477667,0.070530,-0.465897,-0.882024,0.015285,0.051636,-0.023433,18.676394,-12.857770,-32.273743,,,,,,,
1504198510.706352,0.085707,0.483638,-2.663648,-0.055816,0.331123,-0.501105,0.075784,-0.465003,-0.882060,0.021658,0.050223,-0.024160,19.050554,-12.481244,-32.200623,,,,,,,
1504198510.716361,0.092402,0.481428,-2.669705,-0.039959,0.312893,-0.504252,0.081783,-0.463045,-0.882553,0.022694,0.044420,-0.015075,19.050554,-12.481244,-32.200623,,,,,,,
1504198510.726371,0.098034,0.480626,-2.675306,-0.030489,0.298958,-0.499942,0.086788,-0.462334,-0.882448,0.019291,0.037240,-0.022841,19.349764,-12.030332,-31.978271,,,,,,,
1504198510.736381,0.103395,0.479843,-2.680839,-0.026470,0.271214,-0.494549,0.091555,-0.461640,-0.882330,0.023756,0.035462,-0.024408,19.349764,-12.030332,-31.978271,,,,,,,
1504198510.746391,0.108403,0.479005,-2.686366,-0.034195,0.237181,-0.497704,0.096015,-0.460897,-0.882245,0.029779,0.032201,-0.028736,19.650057,-12.104138,-31.901947,,,,,,,
1504198510.756400,0.113043,0.477990,-2.691945,-0.048356,0.196812,-0.504062,0.100160,-0.459995,-0.882254,0.041350,0.026386,-0.028772,19.650057,-12.104138,-31.901947,,,,,,,
1504198510.766410,0.117329,0.476797,-2.697482,-0.067828,0.166065,-0.499772,0.104004,-0.458936,-0.882361,0.054397,0.016248,-0.029916,19.874071,-11.802823,-32.053650,,,,,,,
1504198510.776420,0.121108,0.475293,-2.702784,-0.102404,0.123706,-0.480544,0.107421,-0.457599,-0.882646,0.063157,0.002048,-0.025374,19.874071,-11.802823,-32.053650,,,,,,,
1504198510.786430,0.124125,0.473384,-2.707736,-0.145754,0.056902,-0.452749,0.110192,-0.455901,-0.883183,0.071891,-0.008729,-0.029705,19.873400,-11.353421,-31.757019,,,,,,,
1504198510.796439,0.125962,0.471115,-2.712204,-0.184110,-0.045121,-0.413142,0.111943,-0.453880,-0.884003,0.089275,-0.012169,-0.034881,19.873400,-11.353421,-31.757019,,,,,,,
1504198510.806449,0.126466,0.468446,-2.716358,-0.225631,-0.164132,-0.407667,0.112541,-0.451500,-0.885145,0.077767,-0.030647,-0.043169,20.098360,-11.427106,-31.905914,,,,,,,
1504198510.816459,0.126377,0.465330,-2.720942,-0.267505,-0.227672,-0.456728,0.112640,-0.448717,-0.886547,0.056672,-0.057600,-0.051472,20.098360,-11.427106,-31.905914,,,,,,,
1504198510.826469,0.125931,0.461800,-2.725785,-0.302924,-0.267850,-0.479134,0.112442,-0.445560,-0.888163,0.100571,-0.045712,-0.041555,20.321932,-10.900952,-31.984314,,,,,,,
1504198510.836479,0.125458,0.458034,-2.730780,-0.316727,-0.268786,-0.494100,0.112231,-0.442185,-0.889874,0.100919,-0.003982,-0.043399,20.321932,-10.900952,-31.984314,,,,,,,
1504198510.846488,0.125165,0.454224,-2.735894,-0.322904,-0.247412,-0.504822,0.112180,-0.438766,-0.891572,0.095462,0.023009,-0.023101,20.320681,-10.450803,-32.062653,,,,,,,
1504198510.856498,0.125035,0.450287,-2.741017,-0.336683,-0.236641,-0.505932,0.112279,-0.435224,-0.893294,0.099590,0.053067,-0.005983,20.320681,-10.450803,-32.062653,,,,,,,
1504198510.866508,0.124763,0.446261,-2.745951,-0.344345,-0.246193,-0.482446,0.112253,-0.431596,-0.895055,0.103781,0.078401,-0.020777,20.319368,-10.150052,-32.439941,,,,,,,
1504198510.876518,0.123825,0.442388,-2.750261,-0.331169,-0.291126,-0.415097,0.111619,-0.428099,-0.896812,0.097396,0.086989,-0.031120,20.319368,-10.150052,-32.439941,,,,,,,
1504198510.886527,0.121918,0.438810,-2.753774,-0.309678,-0.359578,-0.341289,0.110094,-0.424863,-0.898538,0.067808,0.063596,-0.030447,20.093538,-10.000455,-32.741638,,,,,,,
1504198510.896507,0.118911,0.435664,-2.756627,-0.269053,-0.444160,-0.279160,0.107550,-0.422012,-0.900188,0.048471,0.019302,-0.040867,20.093538,-10.000455,-32.741638,,,,,,,
1504198510.906516,0.114797,0.433072,-2.758916,-0.221991,-0.527723,-0.222359,0.103970,-0.419661,-0.901706,0.042041,-0.029237,-0.054714,19.942751,-9.775830,-32.893707,,,,,,,
1504198510.916526,0.109548,0.431201,-2.760520,-0.152618,-0.610426,-0.145239,0.099321,-0.417963,-0.903019,0.035490,-0.055594,-0.058621,19.942751,-9.775830,-32.893707,,,,,,,
1504198510.926536,0.103310,0.430115,-2.761349,-0.079902,-0.676105,-0.069212,0.093733,-0.416975,-0.904072,0.023576,-0.063707,-0.061199,19.866777,-9.475873,-33.046112,,,,,,,
1504198510.936546,0.096203,0.429920,-2.761671,-0.010222,-0.738534,-0.020948,0.087314,-0.416798,-0.904796,0.012387,-0.052578,-0.058034,19.866777,-9.475873,-33.046112,,,,,,,
1504198510.946555,0.088220,0.430215,-2.761718,0.043394,-0.824247,0.001712,0.080077,-0.417066,-0.905342,0.024797,-0.028842,-0.057473,19.116549,-9.478940,-33.197968,,,,,,,
1504198510.956565,0.079207,0.431048,-2.761762,0.094827,-0.930165,0.001987,0.071887,-0.417823,-0.905680,0.019010,-0.013604,-0.065634,19.116549,-9.478940,-33.197968,,,,,,,
1504198510.966575,0.069012,0.432253,-2.761865,0.127963,-1.057242,0.000134,0.062614,-0.418918,-0.905863,0.017555,0.001819,-0.064688,18.740267,-9.329434,-33.800049,,,,,,,
1504198510.976585,0.057491,0.433610,-2.761839,0.136519,-1.178807,0.015307,0.052142,-0.420149,-0.905956,0.016050,0.000960,-0.060963,18.740267,-9.329434,-33.800049,,,,,,,
1504198510.986595,0.044952,0.434911,-2.761671,0.127265,-1.263986,0.022913,0.040753,-0.421329,-0.905992,0.008700,0.002354,-0.063231,17.990313,-9.482358,-34.025787,,,,,,,
1504198510.996604,0.032039,0.436095,-2.761462,0.114315,-1.280931,0.025055,0.029035,-0.422403,-0.905943,0.007021,0.010446,-0.054918,17.990313,-9.482358,-34.025787,,,,,,,
1504198511.006614,0.021386,0.436851,-2.762062,0.039906,-0.930660,-0.111251,0.019376,-0.423088,-0.905881,-0.000226,0.012749,-0.037478,17.090395,-9.785504,-34.475739,,,,,,,
1504198511.016624,0.023571,0.434388,-2.765296,-0.308675,0.424709,-0.355478,0.021380,-0.420855,-0.906876,-0.041186,0.037142,0.027039,17.090395,-9.785504,-34.475739,,,,,,,
1504198511.026634,0.032575,0.430755,-2.770621,-0.351123,0.619167,-0.518140,0.029594,-0.417557,-0.908169,-0.121925,0.094116,0.379436,17.164415,-9.484876,-34.627838,,,,,,,
1504198511.036643,0.035812,0.426701,-2.777037,-0.415248,-0.134628,-0.634336,0.032594,-0.413870,-0.909752,-0.188325,0.053427,0.414345,17.164415,-9.484876,-34.627838,,,,,,,
1504198511.046653,0.033460,0.420690,-2.784674,-0.625918,-0.659193,-0.736247,0.030537,-0.408390,-0.912297,-0.113606,0.028538,-0.051021,17.163591,-9.110013,-34.555634,,,,,,,
1504198511.056663,0.028782,0.413184,-2.792550,-0.746473,-0.793528,-0.739421,0.026356,-0.401527,-0.915468,-0.001713,0.098763,-0.194792,17.163591,-9.110013,-34.555634,,,,,,,
1504198511.066673,0.024921,0.405736,-2.800317,-0.704850,-0.653220,-0.731057,0.022896,-0.394695,-0.918527,-0.054817,0.078624,-0.079978,16.786791,-8.660810,-35.009949,,,,,,,
1504198511.076682,0.022440,0.399709,-2.808150,-0.539442,-0.529925,-0.734172,0.020670,-0.389151,-0.920942,-0.089762,0.044272,0.060987,16.786791,-8.660810,-35.009949,,,,,,,
1504198511.086692,0.020383,0.395621,-2.815891,-0.348309,-0.499550,-0.715749,0.018807,-0.385381,-0.922566,-0.049660,0.029852,0.084019,16.559298,-7.761518,-35.167236,,,,,,,
1504198511.096702,0.018501,0.393245,-2.823216,-0.190922,-0.412436,-0.685741,0.017088,-0.383188,-0.923512,-0.028609,-0.006659,-0.000529,16.559298,-7.761518,-35.167236,,,,,,,
1504198511.106712,0.017365,0.391874,-2.830271,-0.100302,-0.395111,-0.643986,0.016048,-0.381921,-0.924055,-0.025890,-0.015158,-0.062791,16.182802,-7.163190,-35.172668,,,,,,,
1504198511.116721,0.015048,0.392145,-2.836893,0.089525,-0.512869,-0.600753,0.013905,-0.382171,-0.923987,-0.020329,0.002716,-0.093988,16.182802,-7.163190,-35.172668,,,,,,,
1504198511.126731,0.011699,0.394639,-2.843128,0.310609,-0.595713,-0.565000,0.010799,-0.384475,-0.923072,-0.010067,-0.000626,-0.082970,16.183031,-7.387753,-35.395996,,,,,,,
1504198511.136741,0.007703,0.398761,-2.849120,0.438264,-0.630884,-0.545503,0.007098,-0.388277,-0.921515,-0.003299,0.000597,0.012900,16.183031,-7.387753,-35.395996,,,,,,,
1504198511.146751,0.003707,0.403448,-2.854968,0.476639,-0.625888,-0.530502,0.003409,-0.392591,-0.919707,0.020700,0.012007,-0.018053,15.507463,-7.165784,-35.399353,,,,,,,
1504198511.156750,-0.000585,0.408249,-2.860534,0.480504,-0.658982,-0.502684,-0.000537,-0.397003,-0.917817,0.040805,0.011551,-0.052932,15.507463,-7.165784,-35.399353,,,,,,,
1504198511.166759,-0.005600,0.412934,-2.865638,0.457387,-0.720642,-0.458852,-0.005130,-0.401298,-0.915933,0.045932,0.003120,-0.050620,15.507509,-7.315335,-35.623230,,,,,,,
1504198511.176769,-0.011439,0.417332,-2.870333,0.424604,-0.795001,-0.422486,-0.010457,-0.405323,-0.914114,0.043202,-0.003582,-0.032023,15.507509,-7.315335,-35.623230,,,,,,,
1504198511.186779,-0.018143,0.421271,-2.874606,0.381233,-0.859682,-0.387223,-0.016556,-0.408921,-0.912420,0.056504,0.003449,-0.022959,14.982882,-7.467694,-35.623383,,,,,,,
1504198511.196790,-0.025005,0.424669,-2.878567,0.315131,-0.837852,-0.361759,-0.022782,-0.412019,-0.910891,0.050827,-0.022735,-0.013121,14.982882,-7.467694,-35.623383,,,,,,,
1504198511.206799,-0.031622,0.427344,-2.882282,0.240575,-0.806361,-0.337393,-0.028773,-0.414455,-0.909615,0.045955,-0.044804,0.009087,14.458193,-7.769467,-35.922455,,,,,,,
1504198511.216809,-0.037633,0.429265,-2.885642,0.143920,-0.726752,-0.297140,-0.034210,-0.416203,-0.908628,0.044067,-0.056179,0.004423,14.458193,-7.769467,-35.922455,,,,,,,
1504198511.226819,-0.043621,0.429336,-2.888481,-0.064313,-0.715502,-0.243083,-0.039650,-0.416267,-0.908378,0.022606,-0.070824,0.010581,14.232973,-7.770169,-36.072998,,,,,,,
1504198511.236798,-0.049814,0.426957,-2.890751,-0.310054,-0.715681,-0.174127,-0.045324,-0.414103,-0.909101,0.025670,-0.060293,0.013257,14.232973,-7.770169,-36.072998,,,,,,,
1504198511.246808,-0.056778,0.421483,-2.892040,-0.631053,-0.760041,-0.061461,-0.051781,-0.409114,-0.911013,0.024316,-0.026860,0.035601,13.707247,-7.622083,-36.300446,,,,,,,
1504198511.256818,-0.064122,0.413705,-2.892667,-0.813797,-0.757536,0.002262,-0.058672,-0.402004,-0.913756,0.012819,0.016461,0.051268,13.707247,-7.622083,-36.300446,,,,,,,
1504198511.266827,-0.070831,0.404965,-2.893546,-0.890837,-0.676940,-0.038574,-0.065048,-0.393987,-0.916811,0.021209,-0.009562,0.108355,12.881060,-7.325192,-36.604706,,,,,,,
1504198511.276837,-0.075835,0.396388,-2.895466,-0.850900,-0.547163,-0.136935,-0.069887,-0.386088,-0.919811,0.013140,-0.049336,0.132457,12.881060,-7.325192,-36.604706,,,,,,,
1504198511.286847,-0.079533,0.388977,-2.898182,-0.721684,-0.443724,-0.208410,-0.073514,-0.379242,-0.922373,0.022321,-0.040848,0.068842,12.653643,-6.500745,-36.836456,,,,,,,
1504198511.296857,-0.081910,0.383441,-2.901229,-0.517856,-0.326021,-0.242421,-0.075877,-0.374114,-0.924274,0.030955,-0.041475,-0.001202,12.653643,-6.500745,-36.836456,,,,,,,
1504198511.306867,-0.083901,0.380238,-2.903980,-0.287309,-0.300238,-0.218584,-0.077817,-0.371141,-0.925310,0.055891,-0.042937,-0.019972,12.202028,-5.902616,-36.917084,,,,,,,
1504198511.316875,-0.083956,0.379150,-2.906914,-0.150262,-0.336572,-0.156380,-0.077901,-0.370131,-0.925708,0.076788,-0.041887,-0.048887,12.202028,-5.902616,-36.917084,,,,,,,
1504198511.326885,-0.088206,0.378247,-2.907975,-0.086004,-0.517281,-0.066288,-0.081865,-0.369292,-0.925700,0.091706,-0.026475,-0.087956,12.125673,-5.452664,-37.070648,,,,,,,
1504198511.336895,-0.095450,0.377506,-2.908028,-0.073762,-0.797729,0.024957,-0.088594,-0.368604,-0.925355,0.091661,-0.023288,-0.095000,12.125673,-5.452664,-37.070648,,,,,,,
1504198511.346905,-0.105566,0.376578,-2.907261,-0.087797,-1.040645,0.096877,-0.097986,-0.367740,-0.924752,0.086222,-0.020107,-0.098472,11.526140,-5.680203,-37.145447,,,,,,,
1504198511.356915,-0.118375,0.375891,-2.905891,-0.033561,-1.299017,0.146527,-0.109853,-0.367102,-0.923671,0.080342,-0.007776,-0.100651,11.526140,-5.680203,-37.145447,,,,,,,
1504198511.366925,-0.133483,0.376299,-2.904021,0.100343,-1.481301,0.174833,-0.123775,-0.367481,-0.921758,0.063854,0.022480,-0.108394,10.775911,-5.683286,-37.297333,,,,,,,
1504198511.376935,-0.150455,0.378322,-2.901465,0.278101,-1.642647,0.214920,-0.139289,-0.369361,-0.918788,0.056144,0.052238,-0.118840,10.775911,-5.683286,-37.297333,,,,,,,
1504198511.386945,-0.168342,0.381714,-2.898762,0.397537,-1.673429,0.177822,-0.155490,-0.372511,-0.914909,0.053027,0.037779,-0.135872,9.725878,-5.986951,-37.822662,,,,,,,
1504198511.396954,-0.184064,0.385753,-2.896784,0.439377,-1.437111,0.082479,-0.169577,-0.376257,-0.910865,0.041800,0.025930,-0.124643,9.725878,-5.986951,-37.822662,,,,,,,
1504198511.406964,-0.196923,0.390149,-2.895333,0.458784,-1.167636,0.045745,-0.180950,-0.380326,-0.906978,0.013866,0.011475,-0.026631,8.375597,-5.917874,-37.901520,,,,,,,
1504198511.416974,-0.207690,0.394625,-2.894066,0.460328,-0.991796,0.017686,-0.190352,-0.384462,-0.903302,0.018126,0.000108,0.063825,8.375597,-5.917874,-37.901520,,,,,,,
1504198511.426984,-0.217278,0.399122,-2.893488,0.448537,-0.919148,-0.068923,-0.198629,-0.388609,-0.899738,0.030660,-0.000932,0.079624,7.927370,-6.669751,-37.972015,,,,,,,
1504198511.436993,-0.226154,0.403809,-2.893881,0.451163,-0.909492,-0.152192,-0.206197,-0.392924,-0.896155,0.022496,0.003290,0.046134,7.927370,-6.669751,-37.972015,,,,,,,
1504198511.447003,-0.235119,0.408523,-2.894338,0.450067,-0.908426,-0.144724,-0.213788,-0.397254,-0.892460,0.014585,0.012595,-0.012219,7.177752,-6.823117,-37.972748,,,,,,,
1504198511.457013,-0.243920,0.413419,-2.894707,0.470548,-0.888338,-0.154331,-0.221162,-0.401743,-0.888645,0.014619,0.008997,-0.047314,7.177752,-6.823117,-37.972748,,,,,,,
1504198511.467022,-0.252146,0.418431,-2.895466,0.466950,-0.837105,-0.206730,-0.227959,-0.406327,-0.884835,0.028008,0.004823,-0.020591,6.353991,-7.276975,-37.896393,,,,,,,
1504198511.477032,-0.259133,0.423734,-2.896796,0.462527,-0.747517,-0.245323,-0.233580,-0.411167,-0.881125,0.020934,-0.010891,0.002433,6.353991,-7.276975,-37.896393,,,,,,,
1504198511.487041,-0.265509,0.428901,-2.898077,0.469536,-0.670852,-0.244378,-0.238633,-0.415871,-0.877556,0.031327,-0.031577,0.020974,5.904116,-7.503400,-38.195831,,,,,,,
1504198511.497051,-0.271304,0.434094,-2.899255,0.475224,-0.624017,-0.240181,-0.243132,-0.420589,-0.874066,0.053542,-0.049977,0.030103,5.904116,-7.503400,-38.195831,,,,,,,
1504198511.507061,-0.277609,0.439526,-2.900389,0.500286,-0.698804,-0.250680,-0.248009,-0.425510,-0.870306,0.064522,-0.064221,0.019293,5.530214,-7.805539,-37.969482,,,,,,,
1504198511.517071,-0.284581,0.444967,-2.901862,0.469774,-0.796557,-0.279381,-0.253417,-0.430428,-0.866321,0.064483,-0.066444,-0.035916,5.530214,-7.805539,-37.969482,,,,,,,
1504198511.527081,-0.292682,0.449935,-2.903541,0.417683,-0.909077,-0.283542,-0.259806,-0.434907,-0.862181,0.054270,-0.016905,-0.066728,5.155550,-8.031934,-38.118713,,,,,,,
1504198511.537091,-0.301810,0.454125,-2.905377,0.323953,-1.019133,-0.278174,-0.267121,-0.438676,-0.858027,0.032990,0.026277,-0.061178,5.155550,-8.031934,-38.118713,,,,,,,
1504198511.547101,-0.312002,0.457396,-2.907644,0.226927,-1.155778,-0.296246,-0.275411,-0.441613,-0.853889,0.014180,0.032006,-0.038689,4.706011,-8.258801,-38.193146,,,,,,,
1504198511.557111,-0.323155,0.459668,-2.910198,0.134393,-1.248794,-0.289839,-0.284597,-0.443651,-0.849811,-0.003336,0.057008,-0.046063,4.706011,-8.258801,-38.193146,,,,,,,
1504198511.567120,-0.335000,0.461299,-2.912930,0.056973,-1.320623,-0.284509,-0.294404,-0.445112,-0.845696,-0.010405,0.076139,-0.062645,4.106691,-8.486646,-38.117920,,,,,,,
1504198511.577130,-0.347070,0.462364,-2.916162,-0.013469,-1.345581,-0.319811,-0.304429,-0.446065,-0.841635,-0.015685,0.060384,-0.053064,4.106691,-8.486646,-38.117920,,,,,,,
1504198511.587109,-0.359048,0.463226,-2.919956,-0.040176,-1.367708,-0.348638,-0.314353,-0.446837,-0.837567,-0.031365,0.052885,-0.043887,2.906359,-8.491590,-38.345886,,,,,,,
1504198511.597119,-0.370879,0.463117,-2.923607,-0.067917,-1.351521,-0.324165,-0.324258,-0.446739,-0.833836,-0.017982,0.066413,-0.028851,2.906359,-8.491590,-38.345886,,,,,,,
1504198511.607129,-0.383532,0.463310,-2.926952,-0.101934,-1.438671,-0.274970,-0.334750,-0.446912,-0.829586,-0.020887,0.042890,-0.003407,1.706331,-8.347440,-38.124969,,,,,,,
1504198511.617139,-0.397088,0.462940,-2.929339,-0.135683,-1.454491,-0.165058,-0.346028,-0.446580,-0.825125,-0.011104,0.001985,-0.037836,1.706331,-8.347440,-38.124969,,,,,,,
1504198511.627147,-0.411794,0.462140,-2.931546,-0.166862,-1.602378,-0.140301,-0.358268,-0.445865,-0.820274,0.030356,-0.023740,-0.039071,0.956255,-8.500211,-38.425720,,,,,,,
1504198511.637157,-0.427256,0.460945,-2.933966,-0.183547,-1.692808,-0.148710,-0.371128,-0.444795,-0.815121,0.041522,-0.032348,-0.065128,0.956255,-8.500211,-38.425720,,,,,,,
1504198511.647167,-0.443665,0.460252,-2.936523,-0.129779,-1.795512,-0.183660,-0.384585,-0.444174,-0.809200,-0.017347,-0.014734,-0.056279,-0.169294,-8.280271,-38.430176,,,,,,,
1504198511.657177,-0.460636,0.460261,-2.938922,-0.062801,-1.828027,-0.187756,-0.398260,-0.444182,-0.802553,-0.018854,0.023009,-0.044447,-0.169294,-8.280271,-38.430176,,,,,,,
1504198511.667187,-0.478263,0.460996,-2.940842,0.011843,-1.837160,-0.194015,-0.412194,-0.444840,-0.795119,-0.025352,0.016007,-0.063661,-1.519743,-8.061490,-38.360199,,,,,,,
1504198511.677197,-0.495973,0.462204,-2.942775,0.028926,-1.843681,-0.206783,-0.425954,-0.445922,-0.787221,-0.007594,-0.018342,-0.060481,-1.519743,-8.061490,-38.360199,,,,,,,
1504198511.687207,-0.513803,0.463511,-2.943818,0.079841,-1.830332,-0.125595,-0.439635,-0.447091,-0.778993,-0.015840,-0.043662,-0.021346,-2.643599,-8.292295,-37.986267,,,,,,,
1504198511.697217,-0.531419,0.464636,-2.944421,0.066371,-1.766308,-0.103316,-0.453033,-0.448097,-0.770694,0.037903,-0.041008,0.012104,-2.643599,-8.292295,-37.986267,,,,,,,
1504198511.707227,-0.548137,0.465778,-2.944991,0.085283,-1.669494,-0.103454,-0.465587,-0.449118,-0.762576,0.062709,-0.030283,0.017062,-3.994154,-8.073361,-37.991302,,,,,,,
1504198511.717236,-0.563812,0.468027,-2.945483,0.196473,-1.557373,-0.183514,-0.476942,-0.451126,-0.754329,0.058271,-0.009994,0.058329,-3.994154,-8.073361,-37.991302,,,,,,,
1504198511.727246,-0.577702,0.472079,-2.946592,0.316986,-1.397293,-0.344765,-0.486371,-0.454739,-0.746094,0.056897,0.006161,0.043244,-5.118086,-8.453565,-37.916229,,,,,,,
1504198511.737256,-0.589722,0.478240,-2.948558,0.449211,-1.257526,-0.533713,-0.493736,-0.460217,-0.737852,-0.006585,0.013471,0.023557,-5.118086,-8.453565,-37.916229,,,,,,,
1504198511.747266,-0.599859,0.486120,-2.951647,0.506620,-1.126746,-0.711033,-0.499127,-0.467199,-0.729793,-0.049350,0.022802,0.022014,-5.866728,-8.907239,-37.764709,,,,,,,
1504198511.757275,-0.609245,0.493936,-2.955322,0.459113,-1.075189,-0.730418,-0.503850,-0.474095,-0.722059,-0.061366,0.062337,0.017255,-5.866728,-8.907239,-37.764709,,,,,,,
1504198511.767285,-0.618506,0.501417,-2.958630,0.438365,-1.081500,-0.645051,-0.508444,-0.480669,-0.714452,-0.030160,0.123674,0.021413,-6.690260,-9.361402,-37.538361,,,,,,,
1504198511.777295,-0.627469,0.507891,-2.961108,0.387273,-0.985310,-0.515086,-0.512989,-0.486336,-0.707333,0.025547,0.123238,0.020474,-6.690260,-9.361402,-37.538361,,,,,,,
1504198511.787305,-0.636435,0.513572,-2.962610,0.369915,-0.974589,-0.440417,-0.517661,-0.491291,-0.700471,0.018836,0.089039,0.052827,-7.064268,-9.663388,-37.387054,,,,,,,
1504198511.797315,-0.644485,0.518802,-2.964395,0.314227,-0.866506,-0.439637,-0.521732,-0.495841,-0.694218,0.005786,0.055914,0.065662,-7.064268,-9.663388,-37.387054,,,,,,,
1504198511.807323,-0.652847,0.523806,-2.966047,0.318577,-0.960363,-0.392498,-0.526004,-0.500180,-0.687851,-0.059567,0.039792,0.042923,-7.439390,-9.440671,-37.089661,,,,,,,
1504198511.817333,-0.663455,0.528548,-2.968664,0.194012,-1.254408,-0.489329,-0.531805,-0.504280,-0.680356,-0.069254,0.018364,0.010663,-7.439390,-9.440671,-37.089661,,,,,,,
1504198511.827343,-0.675763,0.532899,-2.972938,0.094079,-1.524167,-0.565879,-0.538761,-0.508032,-0.672042,-0.059735,-0.042719,-0.094377,-7.439390,-9.440671,-37.089661,,,,,,,
1504198511.837353,-0.691778,0.537484,-2.978163,0.034652,-1.954064,-0.677301,-0.547962,-0.511976,-0.661527,-0.015881,-0.015917,-0.112063,-8.262236,-10.119977,-36.786591,,,,,,,
1504198511.847363,-0.708733,0.541606,-2.985117,-0.087829,-2.083020,-0.713578,-0.557721,-0.515513,-0.650534,0.013882,-0.021643,-0.134668,-9.162458,-9.899472,-36.565521,,,,,,,
1504198511.857373,-0.727469,0.546422,-2.993373,-0.109173,-2.328812,-0.892505,-0.568153,-0.519634,-0.638109,0.024162,-0.074467,-0.120878,-9.162458,-9.899472,-36.565521,,,,,,,
1504198511.867383,-0.745824,0.551800,-3.002995,-0.174024,-2.383549,-1.027014,-0.577864,-0.524221,-0.625512,0.091582,-0.070643,-0.080237,-10.736204,-10.132443,-36.117706,,,,,,,
1504198511.877393,-0.763638,0.558390,-3.014583,-0.194548,-2.392785,-1.205289,-0.586513,-0.529821,-0.612611,0.141292,-0.094858,-0.024627,-10.736204,-10.132443,-36.117706,,,,,,,
1504198511.887402,-0.781647,0.566619,-3.028599,-0.262106,-2.599746,-1.468690,-0.594359,-0.536783,-0.598834,0.232603,-0.079077,-0.005307,-11.710630,-10.137570,-35.745117,,,,,,,
1504198511.897412,-0.801412,0.575835,-3.045639,-0.402806,-3.003259,-1.714792,-0.602498,-0.544535,-0.583504,0.319615,-0.054372,-0.021842,-11.710630,-10.137570,-35.745117,,,,,,,
1504198511.907422,-0.823818,0.585133,-3.065563,-0.676549,-3.429237,-1.847940,-0.611678,-0.552310,-0.566395,0.370284,-0.071866,-0.053753,-13.208097,-10.745664,-35.069305,,,,,,,
1504198511.917432,-0.847686,0.592610,-3.089673,-1.089525,-3.862690,-1.886319,-0.621908,-0.558528,-0.548887,0.328039,-0.093312,-0.068163,-13.208097,-10.745664,-35.069305,,,,,,,
1504198511.927441,-0.872626,0.597449,-3.117749,-1.547409,-4.134934,-1.861015,-0.633325,-0.562535,-0.531464,0.188882,-0.051784,-0.267440,-15.381498,-10.757535,-34.024628,,,,,,,
1504198511.937421,-0.898711,0.600589,3.134175,-1.881633,-4.443324,-1.872792,-0.645585,-0.565128,-0.513663,0.065919,-0.070797,-0.331674,-15.381498,-10.757535,-34.024628,,,,,,,
1504198511.947429,-0.925328,0.602315,3.099644,-2.234426,-4.664196,-1.871946,-0.658247,-0.566552,-0.495712,0.018614,-0.125709,-0.269837,-17.556196,-10.244397,-32.983917,,,,,,,
1504198511.957439,-0.952436,0.602374,3.061972,-2.583310,-4.900067,-1.823034,-0.671414,-0.566600,-0.477668,0.062131,-0.165028,-0.222023,-17.556196,-10.244397,-32.983917,,,,,,,
1504198511.967449,-0.979843,0.600930,3.021321,-2.919933,-5.074228,-1.780614,-0.684931,-0.565409,-0.459546,0.145334,-0.197439,-0.179294,-20.031599,-9.507474,-32.020630,,,,,,,
1504198511.977459,-1.006685,0.598815,2.977519,-3.211815,-5.167699,-1.808708,-0.698026,-0.563664,-0.441636,0.210600,-0.227123,-0.163711,-20.031599,-9.507474,-32.020630,,,,,,,
1504198511.987469,-1.030906,0.596565,2.930562,-3.474763,-4.981151,-1.841514,-0.709603,-0.561804,-0.425251,0.251809,-0.205499,-0.152858,-22.581022,-8.846921,-30.531952,,,,,,,
1504198511.997478,-1.049149,0.593825,2.882390,-3.614174,-4.347128,-1.753212,-0.718575,-0.559535,-0.413002,0.297630,-0.177113,-0.118965,-22.581022,-8.846921,-30.531952,,,,,,,
1504198512.007488,-1.060062,0.591038,2.833110,-3.701361,-3.659070,-1.781262,-0.724396,-0.557224,-0.405896,0.286866,-0.196591,-0.002200,-24.831953,-7.585019,-29.047058,,,,,,,
1504198512.017498,-1.063087,0.588657,2.783982,-3.663726,-2.815435,-1.772010,-0.726778,-0.555245,-0.404347,0.210955,-0.213524,0.079625,-24.831953,-7.585019,-29.047058,,,,,,,
1504198512.027508,-1.058884,0.586315,2.736192,-3.547930,-2.044948,-1.720865,-0.726205,-0.553295,-0.408034,0.157677,-0.203312,0.150877,-26.482878,-6.320416,-27.560669,,,,,,,
1504198512.037518,-1.049664,0.584433,2.690564,-3.342744,-1.464828,-1.714061,-0.723313,-0.551727,-0.415229,0.111482,-0.213456,0.222068,-26.482878,-6.320416,-27.560669,,,,,,,
1504198512.047528,-1.037601,0.583537,2.647107,-3.121062,-1.119227,-1.753780,-0.718677,-0.550979,-0.424175,0.091984,-0.202835,0.248623,-27.234449,-5.424680,-27.119232,,,,,,,
1504198512.057538,-1.025803,0.583940,2.605617,-2.888135,-1.126391,-1.832352,-0.713433,-0.551315,-0.432510,0.093194,-0.184448,0.271606,-27.234449,-5.424680,-27.119232,,,,,,,
1504198512.067548,-1.016682,0.585827,2.565829,-2.671833,-1.343345,-1.908447,-0.708572,-0.552889,-0.438451,0.122925,-0.163466,0.263708,-27.385099,-4.901258,-26.673584,,,,,,,
1504198512.077557,-1.011418,0.589339,2.528131,-2.410206,-1.632099,-1.971513,-0.704604,-0.555811,-0.441142,0.150894,-0.061727,0.229747,-27.385099,-4.901258,-26.673584,,,,,,,
1504198512.087567,-1.009138,0.594598,2.492520,-2.158203,-1.785413,-2.044457,-0.701113,-0.560176,-0.441184,0.183443,-0.005864,0.226737,-27.984678,-4.979245,-26.524506,,,,,,,
1504198512.097577,-1.007487,0.602128,2.458086,-1.959856,-1.761312,-2.198929,-0.696798,-0.566397,-0.440076,0.187582,0.040045,0.255917,-27.984678,-4.979245,-26.524506,,,,,,,
1504198512.107587,-1.004471,0.612119,2.424037,-1.784721,-1.587808,-2.380390,-0.690657,-0.574603,-0.439117,0.160231,0.095660,0.304138,-28.357649,-5.207883,-25.548706,,,,,,,
1504198512.117595,-0.998552,0.624272,2.390532,-1.596817,-1.257810,-2.518341,-0.682125,-0.584507,-0.439383,0.115566,0.097248,0.347327,-28.357649,-5.207883,-25.548706,,,,,,,
1504198512.127605,-0.988921,0.638372,2.357962,-1.374263,-0.852461,-2.637152,-0.670909,-0.595889,-0.441359,0.078288,0.093646,0.384154,-28.430387,-5.659711,-24.795502,,,,,,,
1504198512.137615,-0.975697,0.654261,2.326890,-1.114558,-0.441074,-2.707876,-0.657090,-0.608573,-0.444827,0.050645,0.117973,0.404590,-28.430387,-5.659711,-24.795502,,,,,,,
1504198512.147625,-0.958848,0.671612,2.297584,-0.853830,-0.010556,-2.739138,-0.640762,-0.622249,-0.449701,0.025466,0.145198,0.408472,-28.728239,-6.336667,-24.491150,,,,,,,
1504198512.157599,-0.938987,0.690078,2.269844,-0.618595,0.309336,-2.756373,-0.622325,-0.636598,-0.455473,0.009349,0.161424,0.418745,-28.728239,-6.336667,-24.491150,,,,,,,
1504198512.167608,-0.917616,0.709626,2.243333,-0.397521,0.453530,-2.782929,-0.602450,-0.651550,-0.461017,-0.004300,0.173736,0.411502,-28.575529,-7.685102,-24.930664,,,,,,,
1504198512.177619,-0.896177,0.730131,2.217768,-0.200115,0.444465,-2.801784,-0.581872,-0.666967,-0.465382,-0.021583,0.190359,0.376819,-28.575529,-7.685102,-24.930664,,,,,,,
1504198512.187629,-0.876631,0.751681,2.193276,0.017006,0.239155,-2.809585,-0.561486,-0.682868,-0.467360,-0.034370,0.197272,0.338347,-27.673002,-8.730908,-24.995575,,,,,,,
1504198512.197639,-0.860591,0.773976,2.170194,0.215929,-0.072622,-2.761725,-0.542237,-0.698984,-0.466262,-0.045119,0.173242,0.298232,-27.673002,-8.730908,-24.995575,,,,,,,
1504198512.207648,-0.849228,0.796672,2.149151,0.415170,-0.444132,-2.659321,-0.524857,-0.715033,-0.461793,-0.066513,0.123984,0.264390,-27.070265,-10.002606,-25.284515,,,,,,,
1504198512.217658,-0.843001,0.819334,2.130679,0.589686,-0.799520,-2.494012,-0.509739,-0.730691,-0.454155,-0.089306,0.110269,0.235069,-27.070265,-10.002606,-25.284515,,,,,,,
1504198512.227668,-0.842255,0.841380,2.115710,0.750430,-1.094136,-2.250914,-0.497258,-0.745564,-0.443700,-0.118877,0.105122,0.212499,-26.615812,-11.501493,-24.822144,,,,,,,
1504198512.237678,-0.846681,0.862395,2.104839,0.892460,-1.305518,-1.972770,-0.487371,-0.759403,-0.431019,-0.155314,0.083652,0.201160,-26.615812,-11.501493,-24.822144,,,,,,,
1504198512.247687,-0.855307,0.881593,2.098033,0.948765,-1.401156,-1.649081,-0.479977,-0.771753,-0.417157,-0.197254,0.107797,0.186963,-26.610060,-13.303144,-23.983612,,,,,,,
1504198512.257697,-0.868379,0.898420,2.095990,0.995885,-1.441311,-1.321236,-0.475408,-0.782344,-0.402399,-0.230540,0.153438,0.160135,-26.610060,-13.303144,-23.983612,,,,,,,
1504198512.267707,-0.883634,0.913186,2.097181,0.998809,-1.417147,-1.012794,-0.472509,-0.791455,-0.387730,-0.257304,0.152188,0.146168,-26.681410,-14.130582,-22.927582,,,,,,,
1504198512.277686,-0.900452,0.925713,2.101597,0.993082,-1.295905,-0.739763,-0.471156,-0.799050,-0.373539,-0.267400,0.123604,0.140141,-26.681410,-14.130582,-22.927582,,,,,,,
1504198512.287696,-0.918266,0.936194,2.108967,0.987684,-1.152257,-0.496658,-0.471055,-0.805307,-0.359983,-0.265060,0.103174,0.138959,-26.901777,-15.258985,-21.719666,,,,,,,
1504198512.297706,-0.936788,0.944686,2.118701,0.959764,-1.042491,-0.284487,-0.472114,-0.810313,-0.347132,-0.248223,0.088481,0.122432,-26.901777,-15.258985,-21.719666,,,,,,,
1504198512.307715,-0.956236,0.951242,2.130097,0.908859,-1.020953,-0.097817,-0.474425,-0.814137,-0.334815,-0.223924,0.093724,0.087791,-27.123304,-16.012096,-20.664551,,,,,,,
1504198512.317724,-0.976946,0.955860,2.142508,0.830771,-1.075894,0.068659,-0.478136,-0.816810,-0.322811,-0.197859,0.111152,0.040860,-27.123304,-16.012096,-20.664551,,,,,,,
1504198512.327734,-0.998564,0.958736,2.155060,0.739963,-1.153054,0.182850,-0.483025,-0.818466,-0.311127,-0.171485,0.116150,0.001618,-27.495558,-16.391171,-19.462677,,,,,,,
1504198512.337744,-1.020310,0.960390,2.167273,0.662683,-1.172727,0.243593,-0.488522,-0.819415,-0.299842,-0.144749,0.127658,-0.013650,-27.495558,-16.391171,-19.462677,,,,,,,
1504198512.347754,-1.041392,0.961435,2.179009,0.622447,-1.127651,0.254117,-0.493995,-0.820013,-0.289045,-0.121071,0.128500,-0.000964,-28.093962,-16.620220,-18.787415,,,,,,,
1504198512.357764,-1.061593,0.962393,2.190746,0.635202,-1.020096,0.221928,-0.499046,-0.820562,-0.278624,-0.099220,0.106023,0.032225,-28.093962,-16.620220,-18.787415,,,,,,,
1504198512.367774,-1.080326,0.964044,2.202399,0.672913,-0.881810,0.155570,-0.502982,-0.821504,-0.268589,-0.080849,0.081666,0.064991,-28.092344,-16.771862,-17.961304,,,,,,,
