timestamp(unix),attitude_roll(radians),attitude_pitch(radians),attitude_yaw(radians),rotation_rate_x(radians/s),rotation_rate_y(radians/s),rotation_rate_z(radians/s),gravity_x(G),gravity_y(G),gravity_z(G),user_acc_x(G),user_acc_y(G),user_acc_z(G),magnetic_field_x(microteslas),magnetic_field_y(microteslas),magnetic_field_z(microteslas),latitude(degree),longitude(degree),altitude(meter),speed(m/s),course(degree),timestamp(unix),User Mark
1504198284.013891,-0.023000,0.316516,-0.896577,-0.017789,0.031049,-0.002410,-0.021855,-0.311257,-0.950074,-0.005428,0.015618,-0.002974,12.796450,-0.809476,-32.153778,,,,,,,
1504198284.023900,-0.022830,0.316159,-0.896640,-0.014653,0.019308,-0.008789,-0.021697,-0.310918,-0.950189,-0.004579,0.012838,-0.002722,13.021898,-0.809064,-31.853241,,,,,,,
1504198284.033910,-0.022764,0.315718,-0.896756,0.000155,0.001075,-0.013000,-0.021637,-0.310499,-0.950327,0.001236,0.011839,-0.002050,13.021898,-0.809064,-31.853241,,,,,,,
1504198284.043920,-0.022848,0.315876,-0.896866,0.019215,-0.015069,-0.009737,-0.021716,-0.310649,-0.950276,0.001315,0.011989,-0.002101,12.496935,-0.960965,-32.078400,,,,,,,
1504198284.053930,-0.023079,0.316050,-0.896929,0.041454,-0.032307,-0.004331,-0.021934,-0.310815,-0.950217,0.001869,0.012353,0.000266,12.496935,-0.960965,-32.078400,,,,,,,
1504198284.063940,-0.023414,0.316341,-0.896968,0.048847,-0.040894,-0.003235,-0.022250,-0.311091,-0.950120,0.003024,0.013591,0.004944,12.946886,-0.809400,-31.853424,,,,,,,
1504198284.073949,-0.023595,0.316333,-0.897043,0.047755,-0.041950,-0.001100,-0.022422,-0.311083,-0.950118,0.006995,0.015856,0.002257,12.946886,-0.809400,-31.853424,,,,,,,
1504198284.083959,-0.023881,0.316495,-0.897106,0.038122,-0.046131,-0.002177,-0.022693,-0.311238,-0.950061,0.008548,0.016331,0.004062,12.647799,-1.036191,-31.627472,,,,,,,
1504198284.093969,-0.024451,0.316838,-0.897081,0.032656,-0.059943,0.002107,-0.023232,-0.311563,-0.949941,0.009087,0.016657,0.003942,12.647799,-1.036191,-31.627472,,,,,,,
1504198284.103979,-0.024956,0.316893,-0.897061,0.032541,-0.070602,0.007463,-0.023711,-0.311616,-0.949912,0.010573,0.016420,0.002540,12.572161,-0.960935,-31.928192,,,,,,,
1504198284.113988,-0.025420,0.316778,-0.897014,0.041926,-0.089868,0.019255,-0.024153,-0.311506,-0.949937,0.012174,0.016569,0.002931,12.572161,-0.960935,-31.928192,,,,,,,
1504198284.123998,-0.026511,0.317329,-0.896745,0.064195,-0.102846,0.025720,-0.025184,-0.312030,-0.949738,0.013206,0.017093,0.002732,12.572268,-0.961087,-31.853210,,,,,,,
1504198284.134008,-0.027461,0.317864,-0.896516,0.081184,-0.111510,0.027900,-0.026082,-0.312538,-0.949547,0.014501,0.017067,0.003777,12.572268,-0.961087,-31.853210,,,,,,,
1504198284.144018,-0.028390,0.318518,-0.896285,0.098254,-0.110584,0.028995,-0.026958,-0.313159,-0.949318,0.015850,0.018848,0.003151,12.497271,-0.961423,-31.853394,,,,,,,
1504198284.154027,-0.029317,0.319220,-0.895987,0.100364,-0.108475,0.036467,-0.027832,-0.313826,-0.949072,0.016632,0.020247,0.006842,12.497271,-0.961423,-31.853394,,,,,,,
1504198284.164037,-0.030153,0.319843,-0.895618,0.087655,-0.092391,0.042820,-0.028620,-0.314418,-0.948853,0.015451,0.018733,0.005570,12.797228,-1.034772,-32.002106,,,,,,,
1504198284.174016,-0.030850,0.320339,-0.895182,0.072862,-0.072024,0.045961,-0.029276,-0.314888,-0.948677,0.012796,0.016975,0.000603,12.797228,-1.034772,-32.002106,,,,,,,
1504198284.184026,-0.031448,0.320665,-0.894750,0.054810,-0.062281,0.043778,-0.029840,-0.315198,-0.948557,0.010614,0.016126,0.002512,12.572496,-1.185636,-32.076538,,,,,,,
1504198284.194036,-0.032085,0.320896,-0.894310,0.045155,-0.066465,0.046970,-0.030442,-0.315417,-0.948465,0.009690,0.014910,0.002054,12.572496,-1.185636,-32.076538,,,,,,,
1504198284.204046,-0.032858,0.321100,-0.893806,0.053545,-0.080392,0.053414,-0.031173,-0.315610,-0.948377,0.009628,0.016584,-0.000979,12.347536,-1.111951,-31.927643,,,,,,,
1504198284.214056,-0.033709,0.321234,-0.893227,0.066276,-0.084764,0.059848,-0.031978,-0.315737,-0.948308,0.004513,0.014056,0.002888,12.347536,-1.111951,-31.927643,,,,,,,
1504198284.224065,-0.034766,0.322046,-0.892537,0.086542,-0.082805,0.064149,-0.032972,-0.316508,-0.948017,0.005506,0.014826,0.002597,11.973253,-1.264081,-31.702454,,,,,,,
1504198284.234075,-0.035718,0.322714,-0.891804,0.091933,-0.072198,0.069477,-0.033867,-0.317142,-0.947773,0.003792,0.015949,0.007267,11.973253,-1.264081,-31.702454,,,,,,,
1504198284.244085,-0.036491,0.323324,-0.891030,0.083595,-0.046556,0.070484,-0.034593,-0.317720,-0.947553,0.001420,0.016389,0.007688,12.047243,-1.038144,-32.003937,,,,,,,
1504198284.254095,-0.037044,0.323802,-0.890267,0.061444,-0.016534,0.067191,-0.035110,-0.318173,-0.947382,-0.003006,0.012204,0.004908,12.047243,-1.038144,-32.003937,,,,,,,
1504198284.264104,-0.037348,0.324097,-0.889542,0.041398,0.009209,0.062841,-0.035395,-0.318453,-0.947278,-0.005865,0.009386,0.002865,12.123369,-1.263562,-31.627075,,,,,,,
1504198284.274114,-0.037528,0.324237,-0.888875,0.026504,0.011468,0.057475,-0.035564,-0.318586,-0.947227,-0.005299,0.007398,0.000449,12.123369,-1.263562,-31.627075,,,,,,,
1504198284.284124,-0.037731,0.324314,-0.888251,0.013705,0.009445,0.053187,-0.035755,-0.318659,-0.947195,-0.006222,0.004801,0.000540,12.423815,-1.487058,-31.699646,,,,,,,
1504198284.294134,-0.037902,0.324437,-0.887712,0.015862,0.008368,0.046788,-0.035916,-0.318776,-0.947149,-0.004428,0.001957,0.000632,12.423815,-1.487058,-31.699646,,,,,,,
1504198284.304143,-0.038034,0.324539,-0.887212,0.010511,0.006280,0.046782,-0.036040,-0.318872,-0.947112,-0.002793,0.001321,0.003295,12.273638,-1.636991,-32.073914,,,,,,,
1504198284.314153,-0.038248,0.324612,-0.886687,0.004014,-0.004325,0.048925,-0.036242,-0.318941,-0.947081,-0.001554,0.000871,0.007659,12.273638,-1.636991,-32.073914,,,,,,,
1504198284.324163,-0.038640,0.324716,-0.886125,0.009210,-0.020354,0.051097,-0.036612,-0.319039,-0.947034,-0.002863,-0.002769,0.004789,12.348711,-1.711499,-32.148132,,,,,,,
1504198284.334173,-0.039224,0.325020,-0.885563,0.031498,-0.036520,0.049029,-0.037161,-0.319327,-0.946916,-0.004160,-0.002419,0.004990,12.348711,-1.711499,-32.148132,,,,,,,
1504198284.344182,-0.039965,0.325560,-0.885015,0.063317,-0.060226,0.049126,-0.037855,-0.319839,-0.946715,-0.000017,0.002441,0.007552,12.349047,-1.711942,-31.923126,,,,,,,
1504198284.354192,-0.040940,0.326340,-0.884452,0.087639,-0.086003,0.051349,-0.038768,-0.320578,-0.946428,0.001750,0.006247,0.009951,12.349047,-1.711942,-31.923126,,,,,,,
1504198284.364202,-0.042171,0.327340,-0.883834,0.114079,-0.111800,0.056777,-0.039920,-0.321526,-0.946059,0.003543,0.007500,0.011290,12.048479,-1.488294,-31.925568,,,,,,,
1504198284.374212,-0.043595,0.328377,-0.883172,0.113934,-0.127786,0.060007,-0.041252,-0.322507,-0.945668,0.003853,0.009855,0.007969,12.048479,-1.488294,-31.925568,,,,,,,
1504198284.384222,-0.045137,0.329270,-0.882467,0.108562,-0.130941,0.062138,-0.042697,-0.323352,-0.945315,0.001972,0.012470,0.002352,12.348360,-1.486798,-31.999817,,,,,,,
1504198284.394231,-0.046674,0.330132,-0.881776,0.106459,-0.128789,0.058928,-0.044138,-0.324168,-0.944969,0.000482,0.010722,-0.002556,12.348360,-1.486798,-31.999817,,,,,,,
1504198284.404241,-0.048165,0.331009,-0.881135,0.112927,-0.123509,0.053593,-0.045533,-0.324997,-0.944618,-0.000152,0.011505,-0.006905,12.198977,-1.862027,-32.222382,,,,,,,
1504198284.414251,-0.049568,0.331938,-0.880558,0.124771,-0.115073,0.045060,-0.046843,-0.325876,-0.944251,-0.001634,0.014765,-0.007821,12.198977,-1.862027,-32.222382,,,,,,,
1504198284.424261,-0.050850,0.332933,-0.880054,0.128060,-0.107635,0.038648,-0.048037,-0.326816,-0.943866,-0.000806,0.015460,-0.003552,11.823671,-1.788556,-32.298889,,,,,,,
1504198284.434270,-0.051966,0.333905,-0.879592,0.118560,-0.095832,0.036476,-0.049074,-0.327735,-0.943494,0.002352,0.015006,0.000425,11.823671,-1.788556,-32.298889,,,,,,,
1504198284.444280,-0.052905,0.334777,-0.879170,0.098455,-0.075419,0.035338,-0.049944,-0.328558,-0.943162,0.001818,0.011893,0.001771,12.123476,-1.712216,-32.298706,,,,,,,
1504198284.454290,-0.053507,0.335339,-0.878711,0.064550,-0.041048,0.042690,-0.050503,-0.329089,-0.942947,0.003414,0.009235,0.001755,12.123476,-1.712216,-32.298706,,,,,,,
1504198284.464300,-0.053899,0.335611,-0.878149,0.038138,-0.003543,0.050051,-0.050867,-0.329346,-0.942838,-0.004156,0.004349,0.000272,12.123598,-1.712354,-32.223694,,,,,,,
1504198284.474309,-0.053867,0.335910,-0.877528,0.034109,0.031646,0.058521,-0.050832,-0.329628,-0.942741,-0.004191,0.004631,0.000175,12.123598,-1.712354,-32.223694,,,,,,,
1504198284.484319,-0.053663,0.336103,-0.876797,0.028918,0.055123,0.067010,-0.050636,-0.329811,-0.942688,-0.004417,0.006035,-0.000214,12.047915,-1.487546,-32.300598,,,,,,,
1504198284.494329,-0.053403,0.336418,-0.875976,0.048126,0.060284,0.074506,-0.050386,-0.330108,-0.942597,-0.004149,0.006378,0.003633,12.047915,-1.487546,-32.300598,,,,,,,
1504198284.504339,-0.053128,0.336824,-0.875152,0.050169,0.049611,0.075596,-0.050119,-0.330491,-0.942478,0.000909,0.005708,0.006229,12.049349,-2.012692,-32.221619,,,,,,,
1504198284.514348,-0.052954,0.337203,-0.874369,0.038282,0.029465,0.073476,-0.049949,-0.330849,-0.942361,0.005027,0.002831,0.007333,12.049349,-2.012692,-32.221619,,,,,,,
1504198284.524358,-0.052942,0.337430,-0.873715,0.016799,0.004081,0.061741,-0.049933,-0.331064,-0.942286,0.007849,-0.000266,0.005214,12.273714,-1.936093,-32.521667,,,,,,,
1504198284.534368,-0.053089,0.337626,-0.873189,0.011369,-0.013978,0.052157,-0.050068,-0.331248,-0.942214,0.007939,-0.003164,0.003631,12.273714,-1.936093,-32.521667,,,,,,,
1504198284.544378,-0.053531,0.337951,-0.872648,0.047305,-0.055833,0.053360,-0.050479,-0.331554,-0.942085,0.006015,-0.003773,-0.000603,11.975222,-2.313184,-32.144562,,,,,,,
1504198284.554388,-0.054887,0.338905,-0.872232,0.078677,-0.154095,0.023701,-0.051739,-0.332455,-0.941699,0.001064,-0.003773,0.001056,11.975222,-2.313184,-32.144562,,,,,,,
1504198284.564397,-0.057667,0.340249,-0.872130,0.041633,-0.272040,-0.009245,-0.054331,-0.333722,-0.941105,0.004190,-0.013232,0.047504,12.050524,-2.387998,-32.068817,,,,,,,
1504198284.574407,-0.060636,0.340656,-0.872350,0.037178,-0.306085,-0.026271,-0.057116,-0.334105,-0.940804,0.006976,-0.012849,0.047203,12.050524,-2.387998,-32.068817,,,,,,,
1504198284.584417,-0.063392,0.340843,-0.872703,0.006513,-0.278116,-0.037047,-0.059706,-0.334281,-0.940580,-0.008913,-0.014153,0.051435,11.674837,-2.388791,-32.519775,,,,,,,
1504198284.594427,-0.065833,0.340759,-0.872867,-0.035577,-0.193608,-0.019123,-0.062002,-0.334202,-0.940460,-0.014795,0.002934,0.032409,11.674837,-2.388791,-32.519775,,,,,,,
1504198284.604436,-0.066791,0.340283,-0.872907,-0.049582,-0.062448,0.004105,-0.062914,-0.333753,-0.940559,-0.013883,0.002485,0.032508,11.823778,-2.012967,-32.597229,,,,,,,
1504198284.614446,-0.066435,0.339603,-0.872869,-0.070993,0.064530,0.008113,-0.062595,-0.333113,-0.940807,-0.035961,-0.003252,-0.000081,11.823778,-2.012967,-32.597229,,,,,,,
1504198284.624456,-0.065295,0.338827,-0.872894,-0.080097,0.122155,0.000524,-0.061539,-0.332381,-0.941135,-0.051452,0.000137,-0.013775,11.523561,-2.014020,-32.747955,,,,,,,
1504198284.634466,-0.064049,0.337944,-0.873074,-0.090763,0.112669,-0.015489,-0.060385,-0.331549,-0.941504,-0.040704,0.005346,-0.016962,11.523561,-2.014020,-32.747955,,,,,,,
1504198284.644445,-0.063702,0.336961,-0.873364,-0.081331,0.068934,-0.051686,-0.060079,-0.330620,-0.941850,-0.026911,-0.000877,-0.029586,11.673708,-1.938794,-32.523132,,,,,,,
1504198284.654455,-0.063102,0.336347,-0.874356,-0.058073,0.010188,-0.102777,-0.059526,-0.330041,-0.942088,-0.027464,-0.001456,-0.029348,11.673708,-1.938794,-32.523132,,,,,,,
1504198284.664464,-0.063202,0.336199,-0.875949,-0.012673,-0.088157,-0.164434,-0.059624,-0.329901,-0.942131,-0.015648,-0.001596,-0.020836,11.523149,-1.714459,-32.525208,,,,,,,
1504198284.674474,-0.064208,0.336719,-0.878152,0.058221,-0.200565,-0.226022,-0.060561,-0.330392,-0.941899,-0.007356,0.000924,-0.021709,11.523149,-1.714459,-32.525208,,,,,,,
1504198284.684484,-0.066003,0.337993,-0.880857,0.149574,-0.283315,-0.278021,-0.062224,-0.331594,-0.941368,-0.002199,0.001272,-0.027962,11.523409,-1.864316,-32.599091,,,,,,,
1504198284.694494,-0.068248,0.340312,-0.884010,0.230441,-0.339344,-0.323680,-0.064284,-0.333781,-0.940456,0.002364,-0.002477,-0.024388,11.523409,-1.864316,-32.599091,,,,,,,
1504198284.704504,-0.070676,0.343212,-0.887525,0.273082,-0.365235,-0.357717,-0.066499,-0.336514,-0.939328,0.002427,-0.001545,-0.016254,11.524996,-2.314908,-32.295685,,,,,,,
1504198284.714513,-0.073139,0.346365,-0.891294,0.288210,-0.360001,-0.387587,-0.068734,-0.339481,-0.938098,-0.011878,-0.010677,-0.027692,11.524996,-2.314908,-32.295685,,,,,,,
1504198284.724523,-0.075087,0.349402,-0.895454,0.268372,-0.325705,-0.419704,-0.070484,-0.342336,-0.936930,-0.010128,-0.007823,-0.028860,11.299196,-2.090619,-32.447968,,,,,,,
1504198284.734533,-0.076358,0.352160,-0.899901,0.233766,-0.263593,-0.441222,-0.071602,-0.344926,-0.935895,-0.012840,-0.009704,-0.033679,11.299196,-2.090619,-32.447968,,,,,,,
1504198284.744543,-0.076890,0.354517,-0.904515,0.190598,-0.198225,-0.452086,-0.072037,-0.347137,-0.935044,-0.017074,-0.012848,-0.037903,11.074923,-2.466336,-32.595703,,,,,,,
1504198284.754552,-0.076761,0.356424,-0.909349,0.144195,-0.142411,-0.471478,-0.071866,-0.348925,-0.934391,-0.021533,-0.014859,-0.038067,11.074923,-2.466336,-32.595703,,,,,,,
1504198284.764562,-0.076295,0.357983,-0.914430,0.112645,-0.103760,-0.501488,-0.071389,-0.350386,-0.933881,-0.018165,-0.013704,-0.041217,10.924807,-2.466855,-32.671051,,,,,,,
1504198284.774572,-0.075234,0.359451,-0.919968,0.104427,-0.086605,-0.537824,-0.070359,-0.351760,-0.933442,-0.014922,-0.014954,-0.047347,10.924807,-2.466855,-32.671051,,,,,,,
1504198284.784582,-0.074195,0.361033,-0.925906,0.125669,-0.118715,-0.569753,-0.069348,-0.353240,-0.932959,-0.011402,-0.011506,-0.042093,11.075106,-2.317090,-32.221802,,,,,,,
1504198284.794591,-0.073439,0.362915,-0.932122,0.154360,-0.155145,-0.604863,-0.068594,-0.355001,-0.932346,-0.012583,-0.001444,-0.037121,11.075106,-2.317090,-32.221802,,,,,,,
1504198284.804601,-0.073043,0.364851,-0.939049,0.176799,-0.203196,-0.689063,-0.068174,-0.356810,-0.931686,-0.021395,0.017028,-0.032349,10.849428,-2.317197,-32.672363,,,,,,,
1504198284.814611,-0.072439,0.367181,-0.947055,0.185847,-0.235151,-0.788222,-0.067551,-0.358985,-0.930895,0.017777,0.000007,-0.039365,10.849428,-2.317197,-32.672363,,,,,,,
1504198284.824621,-0.071903,0.369809,-0.956144,0.209365,-0.290654,-0.886284,-0.066984,-0.361437,-0.929987,0.017210,0.002459,-0.040273,11.074617,-2.166928,-32.297913,,,,,,,
1504198284.834630,-0.071603,0.372700,-0.966138,0.226384,-0.348251,-0.968343,-0.066631,-0.364131,-0.928961,0.009670,0.010768,-0.041788,11.074617,-2.166928,-32.297913,,,,,,,
1504198284.844640,-0.071604,0.375950,-0.976886,0.262494,-0.410285,-1.034350,-0.066546,-0.367156,-0.927776,0.012927,0.008514,-0.030064,11.074434,-2.316190,-32.671814,,,,,,,
1504198284.854650,-0.072585,0.379628,-0.987738,0.304256,-0.519329,-1.025546,-0.067358,-0.370575,-0.926357,0.025549,-0.000641,-0.019780,11.074434,-2.316190,-32.671814,,,,,,,
1504198284.864660,-0.074198,0.383669,-0.998239,0.345256,-0.572984,-0.989089,-0.068740,-0.374325,-0.924746,0.027740,0.006588,-0.011609,10.398760,-2.094068,-32.750153,,,,,,,
1504198284.874670,-0.076356,0.388204,-1.008467,0.399315,-0.610736,-0.978255,-0.070606,-0.378527,-0.922893,-0.002408,0.017901,-0.000401,10.398760,-2.094068,-32.750153,,,,,,,
1504198284.884679,-0.079097,0.393452,-1.018742,0.464967,-0.681592,-0.991892,-0.072977,-0.383379,-0.920704,0.002054,-0.014754,-0.017605,10.398455,-1.794660,-32.452423,,,,,,,
1504198284.894689,-0.082583,0.399441,-1.029173,0.537909,-0.778077,-1.010809,-0.075995,-0.388903,-0.918139,0.042395,0.017688,-0.010603,10.398455,-1.794660,-32.452423,,,,,,,
1504198284.904699,-0.087011,0.406206,-1.039821,0.606572,-0.881976,-1.039327,-0.079830,-0.395127,-0.915151,0.048427,0.038895,-0.010386,9.499453,-2.323270,-32.675690,,,,,,,
1504198284.914709,-0.092227,0.413593,-1.050736,0.666599,-0.996462,-1.064639,-0.084331,-0.401902,-0.911791,0.049724,0.034089,-0.011610,9.199450,-2.548871,-33.049744,,,,,,,
1504198284.924718,-0.098589,0.421592,-1.061894,0.707419,-1.117175,-1.099579,-0.089811,-0.409213,-0.908008,0.073652,0.032520,0.003497,9.199450,-2.548871,-33.049744,,,,,,,
1504198284.934728,-0.105912,0.430089,-1.073458,0.748273,-1.241072,-1.146256,-0.096087,-0.416952,-0.903835,0.087832,0.030645,0.001446,9.199450,-2.548871,-33.049744,,,,,,,
1504198284.944738,-0.114210,0.439291,-1.085599,0.807268,-1.375756,-1.211027,-0.103141,-0.425298,-0.899157,0.100242,0.031102,-0.019010,8.749559,-2.551038,-32.975861,,,,,,,
1504198284.954748,-0.123448,0.449202,-1.098430,0.866066,-1.531754,-1.270426,-0.110919,-0.434246,-0.893939,0.111010,0.030651,-0.013608,8.749559,-2.551038,-32.975861,,,,,,,
1504198284.964746,-0.132647,0.458254,-1.110412,0.673682,-1.345977,-1.119515,-0.118613,-0.442383,-0.888948,0.102317,0.049820,-0.011168,8.000628,-3.153821,-33.273193,,,,,,,
1504198284.974756,-0.139599,0.463711,-1.121251,0.328502,-1.087493,-1.021301,-0.124452,-0.447271,-0.885698,0.044221,0.051305,-0.012801,8.000628,-3.153821,-33.273193,,,,,,,
1504198284.984766,-0.142537,0.465578,-1.132027,-0.024851,-0.677580,-0.967131,-0.126935,-0.448939,-0.884501,-0.168460,-0.011556,-0.144903,7.326159,-3.232297,-33.049286,,,,,,,
1504198284.994776,-0.142761,0.465024,-1.142805,-0.236799,-0.477666,-0.935829,-0.127168,-0.448445,-0.884718,-0.149809,-0.086361,-0.197100,7.326159,-3.232297,-33.049286,,,,,,,
1504198285.004785,-0.142974,0.463361,-1.153710,-0.314031,-0.536691,-0.947600,-0.127463,-0.446957,-0.885428,-0.131967,0.013852,-0.055383,7.250704,-3.007779,-32.976196,,,,,,,
1504198285.014795,-0.144767,0.461589,-1.165002,-0.320811,-0.737999,-0.980346,-0.129164,-0.445372,-0.885980,-0.130266,0.012266,-0.054831,7.250704,-3.007779,-32.976196,,,,,,,
1504198285.024805,-0.148880,0.459937,-1.176620,-0.315260,-0.996954,-1.010835,-0.132916,-0.443892,-0.886168,-0.028079,0.016157,-0.077440,6.498903,-2.560254,-33.431396,,,,,,,
1504198285.034815,-0.156368,0.460249,-1.188641,-0.050032,-1.367754,-1.088709,-0.139527,-0.444171,-0.885011,0.038880,-0.064603,-0.094847,6.498903,-2.560254,-33.431396,,,,,,,
1504198285.044825,-0.165860,0.463372,-1.201230,0.171046,-1.532513,-1.183034,-0.147691,-0.446967,-0.882274,0.069855,-0.083779,-0.082158,5.974062,-2.712323,-33.581573,,,,,,,
1504198285.054833,-0.174747,0.466871,-1.213741,0.131364,-1.396902,-1.138511,-0.155253,-0.450094,-0.879382,0.072169,-0.047800,0.057299,5.974062,-2.712323,-33.581573,,,,,,,
1504198285.064843,-0.181851,0.468602,-1.225015,-0.090634,-1.167211,-0.969584,-0.161354,-0.451639,-0.877489,-0.010551,0.005350,-0.005980,5.298540,-2.415647,-33.435486,,,,,,,
1504198285.074853,-0.188425,0.468454,-1.234178,-0.156778,-1.036879,-0.761785,-0.167133,-0.451507,-0.876475,-0.162732,0.043807,-0.145025,5.298540,-2.415647,-33.435486,,,,,,,
1504198285.084863,-0.194528,0.468543,-1.241600,-0.089321,-0.920363,-0.623111,-0.172470,-0.451587,-0.875399,-0.211670,0.057208,-0.278867,4.773012,-2.342557,-33.662354,,,,,,,
1504198285.094872,-0.200457,0.469699,-1.247840,0.036611,-0.873519,-0.554662,-0.177554,-0.452618,-0.873849,-0.104978,0.050366,-0.154807,4.773012,-2.342557,-33.662354,,,,,,,
1504198285.104882,-0.207514,0.471843,-1.253497,0.128347,-0.996840,-0.534005,-0.183516,-0.454529,-0.871622,0.022734,0.080322,-0.067480,4.098238,-2.345899,-33.514008,,,,,,,
1504198285.114892,-0.216379,0.474519,-1.258706,0.172734,-1.161345,-0.498413,-0.190973,-0.456911,-0.868770,0.087564,0.065477,-0.050953,4.098238,-2.345899,-33.514008,,,,,,,
1504198285.124902,-0.227141,0.477277,-1.263171,0.180748,-1.318124,-0.430877,-0.200027,-0.459362,-0.865434,0.140777,0.028759,-0.064254,3.872347,-2.121457,-33.741272,,,,,,,
1504198285.134881,-0.239480,0.479669,-1.267022,0.136832,-1.440360,-0.378435,-0.210429,-0.461486,-0.861830,0.162257,0.023376,-0.073275,3.872347,-2.121457,-33.741272,,,,,,,
1504198285.144892,-0.252950,0.481105,-1.271014,0.023847,-1.561970,-0.381618,-0.221852,-0.462759,-0.858275,0.117497,0.017919,-0.060213,2.898439,-2.650540,-33.889740,,,,,,,
1504198285.154901,-0.267439,0.481362,-1.275491,-0.110433,-1.680205,-0.388047,-0.234233,-0.462987,-0.854856,0.110240,0.037999,-0.084979,2.898439,-2.650540,-33.889740,,,,,,,
1504198285.164911,-0.282737,0.480448,-1.280266,-0.232839,-1.771913,-0.379558,-0.247400,-0.462176,-0.851579,0.118586,0.069217,-0.108291,2.148256,-2.578916,-33.892151,,,,,,,
1504198285.174921,-0.299285,0.478525,-1.285536,-0.345090,-1.947853,-0.402925,-0.261719,-0.460471,-0.848216,0.141190,0.070456,-0.110982,2.148256,-2.578916,-33.892151,,,,,,,
1504198285.184931,-0.314518,0.475355,-1.293316,-0.470981,-2.138505,-0.495679,-0.275060,-0.457654,-0.845514,0.156880,0.023694,-0.048330,1.023119,-2.434262,-33.746033,,,,,,,
1504198285.194941,-0.332981,0.471769,-1.301784,-0.617353,-2.252237,-0.637696,-0.291157,-0.454463,-0.841838,0.164143,-0.013784,-0.026418,1.023119,-2.434262,-33.746033,,,,,,,
1504198285.204950,-0.350814,0.467263,-1.312691,-0.800202,-2.275063,-0.807690,-0.306824,-0.450444,-0.838427,0.146683,-0.025371,0.018206,-0.478193,-1.916013,-33.753693,,,,,,,
1504198285.214960,-0.367223,0.461525,-1.326180,-1.014618,-2.232644,-0.961842,-0.321462,-0.445314,-0.835678,0.103612,-0.039489,0.077515,-0.478193,-1.916013,-33.753693,,,,,,,
1504198285.224969,-0.382176,0.454459,-1.341817,-1.218381,-2.163721,-1.070124,-0.335086,-0.438976,-0.833677,0.060016,-0.025089,0.111387,-1.979307,-1.472745,-33.760773,,,,,,,
1504198285.234979,-0.395470,0.446369,-1.359220,-1.378156,-2.055747,-1.164523,-0.347496,-0.431693,-0.832399,0.030098,0.011329,0.134263,-1.979307,-1.472745,-33.760773,,,,,,,
1504198285.244988,-0.406870,0.437840,-1.377858,-1.452272,-1.893095,-1.232184,-0.358407,-0.423984,-0.831734,0.007607,0.032459,0.177864,-3.255812,-0.878476,-33.768402,,,,,,,
1504198285.254998,-0.416257,0.429508,-1.397052,-1.461118,-1.688388,-1.269920,-0.367614,-0.416424,-0.831535,0.009597,0.034252,0.229210,-3.255812,-0.878476,-33.768402,,,,,,,
1504198285.265008,-0.423200,0.421629,-1.416495,-1.438641,-1.433859,-1.304487,-0.374714,-0.409247,-0.831929,-0.000194,0.046866,0.277364,-4.607313,-0.060285,-33.402924,,,,,,,
1504198285.275018,-0.427243,0.414186,-1.436442,-1.428470,-1.136572,-1.370105,-0.379326,-0.402445,-0.833157,-0.008156,0.095148,0.336239,-4.607313,-0.060285,-33.402924,,,,,,,
1504198285.285028,-0.427775,0.407209,-1.457402,-1.431652,-0.807153,-1.488105,-0.380925,-0.396048,-0.835489,-0.006801,0.153296,0.369623,-5.208174,0.461413,-33.108337,,,,,,,
1504198285.295038,-0.424791,0.400827,-1.479506,-1.409290,-0.487532,-1.609247,-0.379465,-0.390180,-0.838908,-0.015875,0.135373,0.388331,-5.208174,0.461413,-33.108337,,,,,,,
1504198285.305048,-0.419452,0.395312,-1.501990,-1.327345,-0.292061,-1.682033,-0.375850,-0.385096,-0.842874,-0.030751,0.038188,0.372644,-5.885115,1.283221,-33.041199,,,,,,,
1504198285.315058,-0.412499,0.390646,-1.524108,-1.224656,-0.122416,-1.676817,-0.370697,-0.380786,-0.847104,-0.056808,-0.097150,0.328473,-5.885115,1.283221,-33.041199,,,,,,,
1504198285.325067,-0.405661,0.386760,-1.545666,-1.147044,-0.159282,-1.680887,-0.365478,-0.377190,-0.850972,-0.051331,-0.074028,0.268560,-6.186781,2.031573,-32.897583,,,,,,,
1504198285.335077,-0.398970,0.381732,-1.568511,-1.346248,-0.176727,-1.771931,-0.360508,-0.372528,-0.855135,-0.045925,-0.040481,0.190844,-6.186781,2.031573,-32.897583,,,,,,,
1504198285.345087,-0.392621,0.374695,-1.592948,-1.583956,-0.328140,-1.844659,-0.356065,-0.365989,-0.859808,-0.070952,0.023948,0.123495,-6.561781,2.029895,-32.898499,,,,,,,
1504198285.355097,-0.388919,0.365503,-1.618992,-1.837010,-0.657393,-1.906426,-0.354140,-0.357419,-0.864197,-0.112718,-0.017642,0.172272,-6.561781,2.029895,-32.898499,,,,,,,
1504198285.365107,-0.388594,0.353881,-1.646304,-2.111831,-1.014216,-1.926554,-0.355410,-0.346541,-0.868097,-0.077436,-0.084306,0.091883,-6.713652,3.003467,-32.531189,,,,,,,
1504198285.375115,-0.391528,0.339777,-1.674533,-2.374754,-1.329613,-1.912577,-0.359785,-0.333277,-0.871482,-0.056139,-0.092718,0.039680,-6.713652,3.003467,-32.531189,,,,,,,
1504198285.385125,-0.397190,0.323634,-1.703267,-2.593175,-1.535646,-1.875233,-0.366747,-0.318014,-0.874279,-0.043028,-0.108713,0.039593,-7.165083,3.750857,-32.237885,,,,,,,
1504198285.395135,-0.404009,0.305837,-1.732245,-2.743123,-1.579214,-1.829517,-0.374866,-0.301091,-0.876824,-0.023281,-0.132716,0.047264,-7.165083,3.750857,-32.237885,,,,,,,
1504198285.405145,-0.410759,0.287035,-1.760921,-2.827036,-1.480574,-1.746579,-0.382968,-0.283110,-0.879309,-0.004208,-0.154024,0.089728,-8.441999,4.868930,-31.649475,,,,,,,
1504198285.415154,-0.416688,0.267587,-1.788508,-2.846547,-1.298340,-1.607105,-0.390330,-0.264405,-0.881891,0.016948,-0.168350,0.132471,-8.441999,4.868930,-31.649475,,,,,,,
1504198285.425164,-0.420331,0.253565,-1.809859,-1.722615,-0.839184,-1.173669,-0.395014,-0.250857,-0.883762,0.007517,-0.162244,0.164767,-9.568388,5.912234,-30.835144,,,,,,,
1504198285.435174,-0.429241,0.251909,-1.819946,-0.151447,-1.126485,-0.690109,-0.403045,-0.249253,-0.880583,0.017166,-0.106170,0.138976,-9.568388,5.912234,-30.835144,,,,,,,
1504198285.445184,-0.438871,0.259168,-1.821624,0.740203,-0.999840,-0.424071,-0.410727,-0.256276,-0.875000,0.169394,-0.040950,-0.404251,-10.470335,6.957294,-30.395203,,,,,,,
1504198285.455194,-0.449546,0.267306,-1.822963,0.551269,-1.174057,-0.472124,-0.419124,-0.264134,-0.868659,0.194850,-0.024379,-0.615823,-10.470335,6.957294,-30.395203,,,,,,,
1504198285.465204,-0.459069,0.269043,-1.828623,-0.269229,-1.003042,-0.622217,-0.427173,-0.265809,-0.864216,0.139224,-0.185500,-0.318585,-10.918455,6.429523,-30.017365,,,,,,,
1504198285.475214,-0.468782,0.267785,-1.838486,-0.579524,-1.380682,-0.836636,-0.435697,-0.264596,-0.860324,0.101102,0.043756,-0.054380,-10.918455,6.429523,-30.017365,,,,,,,
1504198285.485224,-0.482992,0.266156,-1.849889,-0.671042,-1.802885,-0.919308,-0.448078,-0.263025,-0.854426,0.032490,-0.033423,0.197688,-11.593000,6.201632,-30.092346,,,,,,,
1504198285.495233,-0.499293,0.263381,-1.862868,-0.905855,-1.990556,-0.988765,-0.462293,-0.260347,-0.847646,0.118879,0.069292,-0.145853,-11.593000,6.201632,-30.092346,,,,,,,
1504198285.505243,-0.515107,0.258642,-1.877559,-1.158348,-1.957551,-1.010609,-0.476242,-0.255768,-0.841294,0.075989,0.104095,-0.178206,-12.791853,6.194751,-29.345306,,,,,,,
1504198285.515253,-0.531189,0.253376,-1.892678,-1.181176,-2.006387,-1.004158,-0.490386,-0.250673,-0.834677,-0.004106,-0.005842,0.012579,-12.791853,6.194751,-29.345306,,,,,,,
1504198285.525263,-0.548009,0.248558,-1.907747,-1.156025,-2.067327,-1.010411,-0.504978,-0.246007,-0.827332,0.010486,-0.010509,0.005234,-13.916594,6.488345,-28.675293,,,,,,,
1504198285.535273,-0.564849,0.244186,-1.923030,-1.149429,-2.055639,-1.030701,-0.519409,-0.241767,-0.819612,0.033706,-0.028283,-0.009475,-13.916594,6.488345,-28.675293,,,,,,,
1504198285.545281,-0.582019,0.240424,-1.938206,-1.101647,-2.083739,-1.029501,-0.533900,-0.238115,-0.811327,0.044520,-0.020446,0.032686,-15.266203,6.780780,-27.930878,,,,,,,
1504198285.555291,-0.600527,0.236942,-1.951862,-0.995376,-2.177476,-0.880783,-0.549289,-0.234731,-0.801987,0.071948,-0.007380,0.077530,-15.266203,6.780780,-27.930878,,,,,,,
1504198285.565301,-0.618997,0.234141,-1.964274,-0.921570,-2.108895,-0.808192,-0.564387,-0.232008,-0.792237,0.074228,-0.065722,0.077699,-16.390287,6.998782,-26.960327,,,,,,,
1504198285.575311,-0.636285,0.231499,-1.976053,-0.854572,-1.979483,-0.770945,-0.578360,-0.229437,-0.782852,0.089423,-0.130060,0.091400,-16.390287,6.998782,-26.960327,,,,,,,
1504198285.585320,-0.652651,0.230315,-1.987188,-0.701919,-1.859223,-0.808252,-0.591259,-0.228284,-0.773498,0.179561,-0.094225,0.167190,-17.438581,6.991824,-25.837891,,,,,,,
1504198285.595330,-0.668025,0.231583,-1.997881,-0.480647,-1.755415,-0.939342,-0.602901,-0.229519,-0.764089,0.186015,-0.100666,0.203985,-17.438581,6.991824,-25.837891,,,,,,,
1504198285.605340,-0.683024,0.236755,-2.008472,-0.157211,-1.764203,-1.198145,-0.613535,-0.234550,-0.754030,0.215998,-0.082849,0.212282,-18.637739,7.060092,-25.166412,,,,,,,
1504198285.615350,-0.697044,0.244954,-2.020416,-0.090883,-1.657884,-1.491753,-0.622791,-0.242512,-0.743855,0.254490,-0.058300,0.217411,-18.637739,7.060092,-25.166412,,,,,,,
1504198285.625329,-0.712272,0.256220,-2.033967,0.039618,-1.944215,-1.803771,-0.632220,-0.253426,-0.732170,0.263919,-0.047386,0.205727,-19.460173,6.529727,-24.339508,,,,,,,
1504198285.635339,-0.731069,0.270158,-2.049181,0.078002,-2.391788,-2.087912,-0.643449,-0.266884,-0.717459,0.301865,-0.023186,0.222509,-19.460173,6.529727,-24.339508,,,,,,,
1504198285.645349,-0.754198,0.285668,-2.065930,0.036493,-2.896345,-2.274956,-0.656956,-0.281799,-0.699284,0.355870,-0.009537,0.104100,-20.431547,5.623553,-23.435089,,,,,,,
1504198285.655359,-0.781541,0.301773,-2.083814,-0.056393,-3.362217,-2.367160,-0.672544,-0.297214,-0.677752,0.402113,-0.030194,-0.007077,-20.431547,5.623553,-23.435089,,,,,,,
1504198285.665369,-0.812134,0.317893,-2.102708,-0.196553,-3.710525,-2.419091,-0.689394,-0.312566,-0.653482,0.413942,-0.053874,-0.052633,-21.627104,4.565753,-22.230164,,,,,,,
1504198285.675379,-0.844747,0.333704,-2.122923,-0.394638,-3.965646,-2.473422,-0.706551,-0.327545,-0.627296,0.397546,-0.053635,-0.071267,-21.627104,4.565753,-22.230164,,,,,,,
1504198285.685389,-0.878347,0.349090,-2.145270,-0.664521,-4.146616,-2.560030,-0.723261,-0.342043,-0.599917,0.373514,-0.055784,-0.067487,-23.571852,3.503558,-20.502075,,,,,,,
1504198285.695398,-0.912687,0.364396,-2.170220,-0.937635,-4.355226,-2.685022,-0.739202,-0.356385,-0.571463,0.349584,-0.027709,-0.065729,-23.571852,3.503558,-20.502075,,,,,,,
1504198285.705408,-0.947879,0.379771,-2.197763,-1.198127,-4.572487,-2.787560,-0.754312,-0.370708,-0.541839,0.322625,-0.013234,-0.057237,-25.216688,2.741794,-18.325439,,,,,,,
1504198285.715418,-0.984589,0.395548,-2.226666,-1.331210,-4.821777,-2.816171,-0.768722,-0.385314,-0.510490,0.276290,0.014800,-0.002846,-25.216688,2.741794,-18.325439,,,,,,,
1504198285.725427,-1.023813,0.411887,-2.255107,-1.331495,-5.088235,-2.758062,-0.782667,-0.400339,-0.476614,0.290235,0.029825,-0.036722,-26.784636,1.454623,-15.769714,,,,,,,
1504198285.735436,-1.064451,0.427722,-2.282819,-1.405989,-5.232708,-2.599961,-0.795740,-0.414799,-0.441293,0.280527,0.003941,0.032083,-26.784636,1.454623,-15.769714,,,,,,,
1504198285.745446,-1.107010,0.442763,-2.309674,-1.468193,-5.427387,-2.419335,-0.808122,-0.428438,-0.404202,0.280123,-0.036284,0.139050,-27.602171,0.095553,-13.061584,,,,,,,
1504198285.755456,-1.151664,0.457299,-2.336050,-1.543306,-5.677302,-2.305879,-0.819585,-0.441527,-0.365151,0.277409,-0.009432,0.086572,-27.602171,0.095553,-13.061584,,,,,,,
1504198285.765466,-1.199224,0.472244,-2.361907,-1.557736,-5.984126,-2.257330,-0.829777,-0.454886,-0.323341,0.309391,-0.002237,0.117515,-28.644148,-1.265302,-9.978973,,,,,,,
1504198285.775476,-1.248936,0.488160,-2.387868,-1.660816,-6.227253,-2.301911,-0.837844,-0.469002,-0.279384,0.317458,0.011879,0.073558,-28.644148,-1.265302,-9.978973,,,,,,,
1504198285.785486,-1.300138,0.506208,-2.414920,-1.764330,-6.461734,-2.459652,-0.842750,-0.484864,-0.233836,0.332756,0.030915,0.080378,-29.385862,-2.550412,-6.596191,,,,,,,
1504198285.795496,-1.352513,0.526473,-2.441931,-1.789365,-6.577589,-2.545951,-0.844069,-0.502487,-0.187230,0.347563,0.082504,0.103657,-29.385862,-2.550412,-6.596191,,,,,,,
1504198285.805506,-1.404437,0.548060,-2.467726,-1.752280,-6.467087,-2.531138,-0.841753,-0.521032,-0.141340,0.355044,0.087820,0.122083,-29.226820,-4.131467,-3.208954,,,,,,,
1504198285.815515,-1.453852,0.570600,-2.492638,-1.783836,-6.172731,-2.535952,-0.835829,-0.540137,-0.098193,0.355253,0.036154,0.187686,-29.226820,-4.131467,-3.208954,,,,,,,
1504198285.825525,-1.498796,0.594896,-2.516324,-1.709752,-5.639378,-2.630696,-0.826061,-0.560423,-0.059579,0.339901,0.018141,0.248193,-28.917448,-5.488050,0.777008,,,,,,,
1504198285.835535,-1.537260,0.621106,-2.536401,-1.410681,-4.716812,-2.716129,-0.812778,-0.581935,-0.027268,0.304523,0.031047,0.282761,-28.917448,-5.488050,0.777008,,,,,,,
1504198285.845545,-1.566571,0.648081,-2.550020,-0.955329,-3.406685,-2.710178,-0.797237,-0.603657,-0.003369,0.267223,0.072514,0.345486,-27.558958,-7.212522,3.568329,,,,,,,
1504198285.855555,-1.585862,0.676046,-2.560775,-0.843998,-2.371707,-2.837764,-0.779964,-0.625714,0.011752,0.228268,0.065563,0.512479,-27.558958,-7.212522,3.568329,,,,,,,
1504198285.865563,-1.600689,0.706596,-2.569564,-0.706088,-1.966577,-3.099753,-0.760236,-0.649249,0.022733,0.184095,0.094943,0.496112,-26.651472,-8.937665,5.683563,,,,,,,
1504198285.875573,-1.614795,0.738790,-2.576163,-0.589048,-1.811844,-3.215102,-0.738568,-0.673394,0.032517,0.162427,0.119088,0.486327,-26.651472,-8.937665,5.683563,,,,,,,
1504198285.885583,-1.629023,0.771278,-2.580712,-0.458041,-1.712746,-3.224657,-0.715805,-0.697052,0.041726,0.101120,0.155502,0.358054,-24.920042,-10.956708,6.602997,,,,,,,
1504198285.895593,-1.644929,0.803431,-2.582231,-0.269194,-1.688768,-3.185946,-0.692335,-0.719742,0.051419,0.047315,0.107346,0.347187,-24.920042,-10.956708,6.602997,,,,,,,
1504198285.905602,-1.663402,0.834760,-2.580032,-0.058350,-1.692714,-3.109787,-0.668479,-0.741135,0.062083,-0.006753,0.114411,0.336782,-24.014509,-12.754025,7.293793,,,,,,,
1504198285.915612,-1.686159,0.864752,-2.573827,0.149906,-1.860785,-2.991716,-0.644516,-0.760935,0.074685,-0.037064,0.110666,0.324333,-24.014509,-12.754025,7.293793,,,,,,,
1504198285.925622,-1.715229,0.892840,-2.563517,0.337251,-2.210954,-2.823192,-0.620672,-0.778856,0.090274,-0.052348,0.077181,0.299237,-22.959959,-14.250348,7.832642,,,,,,,
1504198285.935632,-1.752548,0.918607,-2.549125,0.493321,-2.727115,-2.639485,-0.596931,-0.794757,0.109704,-0.062600,0.049182,0.238868,-22.959959,-14.250348,7.832642,,,,,,,
1504198285.945642,-1.797731,0.942248,-2.531192,0.589266,-3.184127,-2.499751,-0.572896,-0.808882,0.132289,-0.078014,0.023970,0.177144,-21.379820,-15.670377,8.897217,,,,,,,
1504198285.955652,-1.848554,0.964259,-2.510149,0.644777,-3.394595,-2.414959,-0.548178,-0.821627,0.156301,-0.114282,0.008715,0.146159,-21.379820,-15.670377,8.897217,,,,,,,
1504198285.965647,-1.901394,0.984444,-2.485797,0.720551,-3.188609,-2.303113,-0.523363,-0.832965,0.179614,-0.172804,0.002734,0.172543,-20.175413,-16.567822,10.332001,,,,,,,
1504198285.975657,-1.952890,1.002232,-2.458014,0.827377,-2.681348,-2.158656,-0.499595,-0.842675,0.200758,-0.239739,-0.010551,0.254320,-20.175413,-16.567822,10.332001,,,,,,,
1504198285.985666,-2.001838,1.017447,-2.426996,0.941979,-2.135790,-2.014253,-0.477469,-0.850769,0.219580,-0.294550,-0.033279,0.354959,-18.221708,-17.236752,11.691833,,,,,,,
1504198285.995676,-2.048999,1.029935,-2.393420,1.043232,-1.772371,-1.838597,-0.457117,-0.857266,0.236937,-0.325430,-0.061817,0.390947,-18.221708,-17.236752,11.691833,,,,,,,
1504198286.005686,-2.095486,1.039261,-2.359071,1.103484,-1.693197,-1.598466,-0.438675,-0.862030,0.253908,-0.332107,-0.074143,0.337645,-16.493467,-17.906094,12.751221,,,,,,,
1504198286.015696,-2.143028,1.045626,-2.325115,1.138333,-1.872726,-1.385676,-0.421491,-0.865239,0.271491,-0.321811,-0.086284,0.236764,-16.493467,-17.906094,12.751221,,,,,,,
1504198286.025706,-2.192464,1.049528,-2.291571,1.172130,-2.084157,-1.227270,-0.404813,-0.867188,0.290020,-0.312381,-0.091933,0.131398,-15.591505,-18.054134,13.804565,,,,,,,
1504198286.035715,-2.242004,1.051502,-2.259010,1.171193,-2.126898,-1.107647,-0.388613,-0.868170,0.308645,-0.316847,-0.104548,0.069468,-15.591505,-18.054134,13.804565,,,,,,,
1504198286.045725,-2.289325,1.052227,-2.227549,1.148892,-1.933918,-1.033307,-0.373104,-0.868529,0.326268,-0.325061,-0.135927,0.080562,-14.015776,-17.898556,14.557343,,,,,,,
1504198286.055735,-2.332510,1.051766,-2.197547,1.115660,-1.632170,-0.946370,-0.358960,-0.868301,0.342347,-0.332477,-0.151276,0.121657,-14.015776,-17.898556,14.557343,,,,,,,
1504198286.065745,-2.370627,1.050416,-2.169850,1.058810,-1.338769,-0.843448,-0.346470,-0.867630,0.356618,-0.346340,-0.160507,0.157847,-12.888594,-18.270138,15.387970,,,,,,,
1504198286.075754,-2.404271,1.048086,-2.144839,1.011597,-1.158427,-0.714692,-0.335636,-0.866470,0.369566,-0.349514,-0.168198,0.152681,-12.888594,-18.270138,15.387970,,,,,,,
1504198286.085764,-2.434457,1.044731,-2.123033,0.954462,-1.131484,-0.553661,-0.326216,-0.864790,0.381736,-0.346483,-0.176745,0.114984,-12.063383,-17.818218,16.286621,,,,,,,
1504198286.095774,-2.461844,1.040397,-2.105144,0.895238,-1.219630,-0.372150,-0.317994,-0.862605,0.393436,-0.338028,-0.177205,0.060085,-12.063383,-17.818218,16.286621,,,,,,,
1504198286.105784,-2.487409,1.035404,-2.090603,0.834004,-1.323691,-0.240782,-0.310450,-0.860069,0.404850,-0.322668,-0.171944,0.010937,-11.312361,-17.816204,16.963470,,,,,,,
1504198286.115763,-2.510814,1.030003,-2.078716,0.785653,-1.304215,-0.141632,-0.303625,-0.857301,0.415749,-0.310084,-0.161086,-0.015450,-11.312361,-17.816204,16.963470,,,,,,,
1504198286.125773,-2.531580,1.024469,-2.068587,0.744895,-1.169660,-0.097109,-0.297640,-0.854439,0.425846,-0.303327,-0.173149,0.002804,-10.412367,-17.363644,17.712341,,,,,,,
1504198286.135782,-2.549506,1.019087,-2.059524,0.699510,-0.964707,-0.081538,-0.292522,-0.851630,0.434923,-0.291432,-0.200861,0.050749,-10.412367,-17.363644,17.712341,,,,,,,
1504198286.145792,-2.564287,1.013876,-2.051629,0.651930,-0.758685,-0.052096,-0.288479,-0.848887,0.442911,-0.277851,-0.213628,0.076498,-9.661634,-17.436031,18.089752,,,,,,,
1504198286.155802,-2.576707,1.008865,-2.044785,0.606909,-0.636860,-0.028906,-0.285229,-0.846228,0.450047,-0.263172,-0.212549,0.084285,-9.661634,-17.436031,18.089752,,,,,,,
1504198286.165812,-2.587652,1.004074,-2.039006,0.560087,-0.603471,-0.000226,-0.282416,-0.843665,0.456585,-0.247964,-0.205224,0.068958,-9.362272,-16.910564,18.536591,,,,,,,
1504198286.175822,-2.597717,0.999479,-2.034446,0.504181,-0.630759,0.041354,-0.279810,-0.841189,0.462717,-0.231955,-0.191098,0.032751,-9.362272,-16.910564,18.536591,,,,,,,
1504198286.185831,-2.606970,0.995180,-2.031177,0.448333,-0.654844,0.076524,-0.277356,-0.838857,0.468394,-0.208468,-0.175669,-0.002939,-9.212538,-16.535793,18.984161,,,,,,,
1504198286.195841,-2.615236,0.990931,-2.028680,0.434777,-0.598285,0.104153,-0.275263,-0.836536,0.473748,-0.182317,-0.161862,-0.027337,-9.212538,-16.535793,18.984161,,,,,,,
1504198286.205851,-2.622105,0.986460,-2.026706,0.439692,-0.496063,0.138138,-0.273856,-0.834079,0.478869,-0.161126,-0.163373,-0.019290,-8.912809,-16.384594,19.058746,,,,,,,
1504198286.215861,-2.627425,0.981981,-2.025465,0.417837,-0.408534,0.167833,-0.273140,-0.831599,0.483567,-0.142540,-0.179509,0.001998,-8.912809,-16.384594,19.058746,,,,,,,
1504198286.225870,-2.631734,0.977350,-2.024834,0.423239,-0.375586,0.207278,-0.272930,-0.829018,0.488096,-0.122044,-0.191596,0.002871,-8.613478,-15.933835,19.356110,,,,,,,
1504198286.235880,-2.635738,0.972543,-2.024995,0.409752,-0.433064,0.252187,-0.272901,-0.826321,0.492665,-0.105624,-0.193714,-0.009801,-8.613478,-15.933835,19.356110,,,,,,,
1504198286.245890,-2.640262,0.967759,-2.026025,0.382809,-0.575674,0.291886,-0.272567,-0.823617,0.497356,-0.094056,-0.199333,-0.030895,-8.537428,-16.084393,19.807404,,,,,,,
1504198286.255900,-2.645385,0.963174,-2.028114,0.337712,-0.718137,0.334755,-0.271810,-0.821008,0.502061,-0.082178,-0.185294,-0.064943,-8.537428,-16.084393,19.807404,,,,,,,
1504198286.265909,-2.651125,0.958734,-2.031087,0.300250,-0.847863,0.364806,-0.270638,-0.818465,0.506824,-0.073585,-0.154588,-0.086978,-8.686979,-16.085674,20.107086,,,,,,,
1504198286.275919,-2.657524,0.954618,-2.034315,0.269930,-0.911536,0.352057,-0.268955,-0.816093,0.511523,-0.066784,-0.131096,-0.083026,-8.686979,-16.085674,20.107086,,,,,,,
1504198286.285929,-2.663657,0.950715,-2.037408,0.263147,-0.835806,0.335901,-0.267276,-0.813831,0.515987,-0.060025,-0.105221,-0.070232,-8.462507,-15.784955,20.255402,,,,,,,
1504198286.295939,-2.668435,0.946904,-2.040443,0.248287,-0.696084,0.330292,-0.266219,-0.811611,0.520015,-0.059526,-0.083775,-0.040569,-8.462507,-15.784955,20.255402,,,,,,,
1504198286.305948,-2.671831,0.943668,-2.043947,0.173296,-0.601692,0.328928,-0.265639,-0.809716,0.523255,-0.055925,-0.074043,0.000701,-7.863005,-15.407865,20.554047,,,,,,,
1504198286.315958,-2.673946,0.941573,-2.048323,0.033954,-0.553649,0.320062,-0.265296,-0.808485,0.525329,-0.042108,-0.075655,-0.037414,-7.863005,-15.407865,20.554047,,,,,,,
1504198286.325968,-2.674947,0.941087,-2.053578,-0.146953,-0.512701,0.290857,-0.264947,-0.808199,0.525945,-0.016868,-0.091612,-0.145314,-7.488417,-15.330869,20.404419,,,,,,,
1504198286.335978,-2.674272,0.942485,-2.060044,-0.345645,-0.421534,0.271139,-0.264792,-0.809021,0.524757,0.005133,-0.119598,-0.232612,-7.488417,-15.330869,20.404419,,,,,,,
1504198286.345988,-2.672189,0.945270,-2.067125,-0.446471,-0.374849,0.238859,-0.264864,-0.810655,0.522192,0.018420,-0.126692,-0.255576,-7.262785,-15.405469,20.705505,,,,,,,
1504198286.355997,-2.670370,0.948030,-2.073919,-0.417437,-0.355892,0.223933,-0.264797,-0.812268,0.519715,0.018002,-0.125782,-0.216339,-7.262785,-15.405469,20.705505,,,,,,,
1504198286.366007,-2.668568,0.950521,-2.080427,-0.382261,-0.357252,0.228266,-0.264810,-0.813719,0.517434,-0.029089,-0.162966,-0.111779,-7.486952,-15.781323,20.632782,,,,,,,
1504198286.376017,-2.666773,0.952470,-2.087163,-0.339915,-0.371499,0.272128,-0.265013,-0.814850,0.515546,-0.079591,-0.162399,0.030520,-7.486952,-15.781323,20.632782,,,,,,,
1504198286.386027,-2.664297,0.953951,-2.094520,-0.323952,-0.343979,0.324410,-0.265735,-0.815707,0.513816,-0.097516,-0.103528,0.059884,-7.111769,-15.854642,20.634277,,,,,,,
1504198286.396036,-2.660957,0.955173,-2.102707,-0.328376,-0.332273,0.374549,-0.266988,-0.816413,0.512041,-0.108058,-0.048211,0.060377,-7.111769,-15.854642,20.634277,,,,,,,
1504198286.406046,-2.657083,0.956493,-2.111512,-0.359446,-0.338428,0.390517,-0.268467,-0.817175,0.510049,-0.090481,-0.009485,0.050727,-7.337095,-15.855206,20.408722,,,,,,,
1504198286.416056,-2.653138,0.958113,-2.120510,-0.391386,-0.339214,0.375520,-0.269856,-0.818108,0.507816,-0.058131,0.031792,0.015987,-7.337095,-15.855206,20.408722,,,,,,,
1504198286.426066,-2.649321,0.960264,-2.129497,-0.451143,-0.358938,0.345564,-0.270960,-0.819343,0.505230,-0.033682,0.056556,-0.021740,-7.111235,-16.154339,20.486542,,,,,,,
1504198286.436075,-2.645098,0.963369,-2.138725,-0.547784,-0.329326,0.302648,-0.271878,-0.821119,0.501843,-0.010135,0.071668,-0.049313,-7.111235,-16.154339,20.486542,,,,,,,
1504198286.446085,-2.640951,0.967631,-2.147653,-0.641105,-0.309291,0.220261,-0.272275,-0.823544,0.497636,0.003491,0.089871,-0.055360,-7.261869,-16.079418,20.185577,,,,,,,
1504198286.456095,-2.636467,0.973118,-2.156017,-0.724123,-0.210472,0.123877,-0.272312,-0.826644,0.492448,0.017353,0.117248,-0.036058,-7.261869,-16.079418,20.185577,,,,,,,
1504198286.466105,-2.630907,0.979469,-2.163588,-0.779787,-0.017055,0.042316,-0.272474,-0.830202,0.486336,0.034590,0.144014,-0.014305,-7.035521,-16.528698,20.339508,,,,,,,
1504198286.476114,-2.623128,0.987175,-2.171251,-0.909061,0.186543,-0.024446,-0.273071,-0.834473,0.478631,0.035202,0.175094,0.061194,-7.035521,-16.528698,20.339508,,,,,,,
1504198286.486124,-2.613908,0.995726,-2.178575,-0.944718,0.352080,-0.097383,-0.273869,-0.839154,0.469911,0.039204,0.167676,0.131393,-6.960524,-16.752621,19.966370,,,,,,,
1504198286.496134,-2.604501,1.004694,-2.184629,-0.925382,0.439404,-0.197839,-0.274416,-0.843998,0.460829,0.041109,0.141132,0.114061,-6.960524,-16.752621,19.966370,,,,,,,
1504198286.506144,-2.596342,1.013310,-2.188703,-0.825326,0.496201,-0.273551,-0.274385,-0.848588,0.452340,0.025209,0.117814,0.131797,-7.485060,-16.979839,19.891785,,,,,,,
1504198286.516154,-2.588929,1.021468,-2.191090,-0.741515,0.536061,-0.327914,-0.274087,-0.852875,0.444387,0.026498,0.066941,0.121134,-7.485060,-16.979839,19.891785,,,,,,,
1504198286.526163,-2.580865,1.029394,-2.193741,-0.763651,0.593745,-0.289627,-0.274058,-0.856987,0.436424,0.023997,0.030693,0.131997,-7.334044,-17.653271,19.447205,,,,,,,
1504198286.536173,-2.572622,1.037588,-2.198524,-0.848091,0.355667,-0.212501,-0.273854,-0.861181,0.428220,0.026905,0.008092,0.090244,-7.334044,-17.653271,19.447205,,,,,,,
1504198286.546183,-2.564615,1.046526,-2.205284,-0.953240,0.157251,-0.198457,-0.273064,-0.865689,0.419545,0.005211,0.016324,0.010799,-7.334166,-17.877361,18.998901,,,,,,,
1504198286.556193,-2.558115,1.055570,-2.212239,-0.946632,0.046380,-0.203587,-0.271460,-0.870181,0.411210,0.012931,0.056552,-0.053910,-7.334166,-17.877361,18.998901,,,,,,,
1504198286.566202,-2.550128,1.064845,-2.219954,-0.977832,0.139357,-0.216614,-0.270224,-0.874714,0.402312,0.030402,0.048374,-0.077269,-7.407804,-18.552258,18.778778,,,,,,,
1504198286.576212,-2.543915,1.073370,-2.224703,-0.787709,0.244442,-0.303997,-0.268512,-0.878814,0.394446,0.044681,-0.037065,-0.034492,-7.407804,-18.552258,18.778778,,,,,,,
1504198286.586222,-2.538365,1.081210,-2.226993,-0.688347,0.357705,-0.363799,-0.266781,-0.882528,0.387264,0.069668,-0.149562,0.025944,-7.332319,-18.926327,18.481750,,,,,,,
1504198286.596232,-2.535217,1.088655,-2.227584,-0.599506,0.228089,-0.414652,-0.264246,-0.886004,0.381012,0.042826,-0.265775,0.070923,-7.332319,-18.926327,18.481750,,,,,,,
1504198286.606211,-2.535900,1.095286,-2.225496,-0.454263,0.080957,-0.464308,-0.260636,-0.889059,0.376355,0.009659,-0.301370,-0.023754,-7.257093,-19.150539,18.258636,,,,,,,
1504198286.616221,-2.539259,1.100778,-2.221829,-0.327300,-0.037330,-0.439329,-0.256600,-0.891560,0.373199,-0.005104,-0.246562,-0.085692,-7.257093,-19.150539,18.258636,,,,,,,
1504198286.626230,-2.544372,1.105120,-2.217095,-0.206276,-0.101217,-0.419794,-0.252509,-0.893518,0.371302,-0.006189,-0.219199,-0.064524,-7.256300,-19.600094,18.036987,,,,,,,
1504198286.636240,-2.551095,1.108227,-2.210708,-0.060131,-0.094978,-0.404608,-0.248460,-0.894909,0.370683,-0.016952,-0.208240,-0.037217,-7.256300,-19.600094,18.036987,,,,,,,
1504198286.646250,-2.558135,1.110230,-2.203545,0.029671,-0.049934,-0.368240,-0.244856,-0.895801,0.370926,-0.022066,-0.158337,-0.002426,-7.331480,-19.525433,18.036255,,,,,,,
1504198286.656260,-2.565102,1.111618,-2.196099,0.073474,-0.027942,-0.344720,-0.241588,-0.896417,0.371580,-0.043523,-0.114676,-0.000135,-7.331480,-19.525433,18.036255,,,,,,,
1504198286.666270,-2.571640,1.112630,-2.189335,0.072971,-0.058893,-0.293431,-0.238664,-0.896865,0.372388,-0.043410,-0.061967,-0.036481,-6.806074,-19.598370,18.188110,,,,,,,
1504198286.676279,-2.577358,1.113799,-2.184243,-0.003669,-0.133979,-0.235792,-0.235970,-0.897382,0.372860,-0.023643,-0.010333,-0.040783,-6.806074,-19.598370,18.188110,,,,,,,
1504198286.686289,-2.581428,1.115598,-2.181743,-0.122894,-0.194866,-0.173982,-0.233592,-0.898174,0.372449,-0.005024,0.015056,-0.025739,-6.431227,-19.671230,17.964600,,,,,,,
1504198286.696299,-2.583410,1.118197,-2.181769,-0.253325,-0.198104,-0.126169,-0.231616,-0.899313,0.370930,0.013278,0.049185,-0.007679,-6.431227,-19.671230,17.964600,,,,,,,
1504198286.706309,-2.583591,1.121627,-2.183711,-0.363224,-0.185499,-0.105033,-0.229915,-0.900808,0.368353,0.026393,0.063162,0.027720,-6.430738,-19.821392,18.040741,,,,,,,
1504198286.716318,-2.582246,1.125945,-2.187111,-0.470861,-0.170759,-0.106313,-0.228344,-0.902675,0.364743,0.038280,0.052104,0.052630,-6.430738,-19.821392,18.040741,,,,,,,
1504198286.726328,-2.580176,1.131172,-2.191439,-0.563707,-0.184894,-0.124595,-0.226583,-0.904912,0.360271,0.051733,0.036488,0.054677,-6.505064,-20.046871,18.117218,,,,,,,
1504198286.736338,-2.576863,1.137273,-2.197100,-0.665093,-0.183002,-0.116235,-0.224817,-0.907491,0.354848,0.064172,0.029531,0.040446,-6.505064,-20.046871,18.117218,,,,,,,
1504198286.746348,-2.571785,1.143789,-2.204745,-0.737905,-0.185648,-0.068323,-0.223421,-0.910209,0.348715,0.049974,0.040992,0.036218,-6.280439,-20.120113,17.743317,,,,,,,
1504198286.756357,-2.564595,1.150495,-2.214316,-0.790055,-0.139448,-0.020462,-0.222588,-0.912966,0.341976,0.033211,0.060656,0.015705,-6.280439,-20.120113,17.743317,,,,,,,
1504198286.766367,-2.555191,1.157325,-2.225819,-0.848706,-0.101726,0.033807,-0.222338,-0.915732,0.334666,0.029665,0.062491,0.007604,-6.129652,-20.568996,17.522095,,,,,,,
1504198286.776377,-2.543341,1.164262,-2.239939,-0.900295,-0.110954,0.094576,-0.222705,-0.918497,0.326751,0.035769,0.059000,0.021867,-5.978559,-21.093029,17.376373,,,,,,,
1504198286.786387,-2.529379,1.171195,-2.256507,-0.956245,-0.129741,0.158556,-0.223580,-0.921216,0.318391,0.032708,0.076993,0.009001,-5.978559,-21.093029,17.376373,,,,,,,
1504198286.796396,-2.511925,1.177777,-2.277368,-1.020561,-0.202900,0.315482,-0.225527,-0.923757,0.309532,0.022356,0.119344,0.004860,-5.978559,-21.093029,17.376373,,,,,,,
1504198286.806406,-2.490295,1.183581,-2.304094,-1.099577,-0.350580,0.519480,-0.228915,-0.925964,0.300314,0.017047,0.153915,0.017847,-6.203810,-21.168438,17.076416,,,,,,,
1504198286.816416,-2.463935,1.188746,-2.338074,-1.214475,-0.575763,0.734225,-0.233749,-0.927902,0.290446,0.017166,0.169678,0.033147,-6.203810,-21.168438,17.076416,,,,,,,
1504198286.826426,-2.435515,1.193196,-2.376457,-1.275805,-0.742656,0.817694,-0.239227,-0.929552,0.280542,0.031295,0.213182,0.018225,-6.053968,-21.466564,16.479004,,,,,,,
1504198286.836436,-2.401079,1.200029,-2.421479,-1.729342,-0.782562,0.771080,-0.244453,-0.932050,0.267445,0.047691,0.320584,0.001690,-6.053968,-21.466564,16.479004,,,,,,,
1504198286.846445,-2.362377,1.207531,-2.471705,-1.781804,-0.795998,0.785957,-0.249697,-0.934742,0.252803,0.070406,0.309589,0.094563,-6.053404,-21.915829,16.107361,,,,,,,
1504198286.856455,-2.324725,1.213998,-2.520041,-1.634834,-0.754487,0.692207,-0.254624,-0.937020,0.239083,0.076814,0.031151,0.114769,-6.053404,-21.915829,16.107361,,,,,,,
1504198286.866465,-2.290247,1.220521,-2.565012,-1.623441,-0.775706,0.512941,-0.258112,-0.939278,0.226131,0.011972,0.105477,0.210423,-6.427336,-22.741161,15.437653,,,,,,,
1504198286.876475,-2.258023,1.227606,-2.607591,-1.529883,-0.779514,0.359404,-0.260112,-0.941686,0.213470,0.033549,0.167241,0.104493,-6.427336,-22.741161,15.437653,,,,,,,
1504198286.886484,-2.229201,1.234511,-2.646159,-1.405136,-0.732463,0.237853,-0.261006,-0.943987,0.201902,0.053959,-0.003889,-0.101621,-6.502348,-22.965755,15.064117,,,,,,,
1504198286.896494,-2.206218,1.239420,-2.678468,-1.005665,-0.805028,0.248280,-0.261844,-0.945596,0.193098,0.054798,-0.002280,-0.092817,-6.502348,-22.965755,15.064117,,,,,,,
1504198286.906504,-2.199608,1.241335,-2.696733,-0.465864,-1.130137,0.169734,-0.261650,-0.946217,0.190297,0.046211,-0.201168,-0.206944,-6.427229,-23.414074,14.392670,,,,,,,
1504198286.916514,-2.206779,1.242252,-2.700501,-0.062609,-1.019189,-0.070996,-0.259581,-0.946513,0.191653,-0.021608,-0.406346,-0.353518,-6.427229,-23.414074,14.392670,,,,,,,
1504198286.926523,-2.221479,1.244447,-2.692261,0.127290,-0.567517,-0.414100,-0.255081,-0.947219,0.194189,-0.109558,-0.435471,-0.280096,-6.277006,-23.637951,14.169739,,,,,,,
1504198286.936533,-2.240742,1.247031,-2.674395,0.348199,-0.132265,-0.583134,-0.249374,-0.948044,0.197546,-0.141449,-0.249252,0.012125,-5.827223,-23.635632,14.020844,,,,,,,
1504198286.946543,-2.262901,1.248355,-2.650532,0.556853,0.089771,-0.561816,-0.243970,-0.948465,0.202222,-0.107135,-0.151053,0.179584,-5.827223,-23.635632,14.020844,,,,,,,
1504198286.956553,-2.286783,1.247693,-2.624757,0.690229,0.035262,-0.436603,-0.239545,-0.948255,0.208402,-0.067462,-0.183093,0.156527,-5.827223,-23.635632,14.020844,,,,,,,
1504198286.966535,-2.310827,1.244867,-2.600247,0.790412,-0.142624,-0.271735,-0.236443,-0.947354,0.215907,-0.016944,-0.205768,0.013463,-5.751020,-23.711636,14.696594,,,,,,,
1504198286.976545,-2.332751,1.240860,-2.580554,0.711854,-0.379795,-0.088928,-0.234398,-0.946063,0.223657,-0.004586,-0.221875,-0.080194,-5.751020,-23.711636,14.696594,,,,,,,
1504198286.986555,-2.350265,1.236496,-2.567834,0.554627,-0.606686,0.053165,-0.233379,-0.944640,0.230628,-0.012974,-0.177598,-0.105384,-5.076567,-23.408901,14.846008,,,,,,,
1504198286.996565,-2.362749,1.232958,-2.561995,0.332596,-0.705105,0.130874,-0.232828,-0.943473,0.235900,0.023188,-0.109612,-0.077804,-5.077085,-23.109203,14.993744,,,,,,,
1504198287.006575,-2.369830,1.230600,-2.561599,0.127026,-0.641639,0.162428,-0.232703,-0.942689,0.239137,0.107047,0.125535,0.039214,-5.077085,-23.109203,14.993744,,,,,,,
1504198287.016584,-2.370701,1.229072,-2.565630,-0.015349,-0.395443,0.223656,-0.233498,-0.942178,0.240373,0.107842,0.125024,0.037978,-4.702360,-22.957668,15.068573,,,,,,,
1504198287.026594,-2.365166,1.227648,-2.573364,-0.096668,-0.107145,0.304130,-0.235765,-0.941700,0.240033,0.096742,0.127613,0.142520,-4.702360,-22.957668,15.068573,,,,,,,
1504198287.036604,-2.355526,1.225569,-2.583516,-0.082276,0.027952,0.415993,-0.239453,-0.940998,0.239132,0.074734,0.022114,0.209018,-4.776594,-23.033749,15.443970,,,,,,,
1504198287.046614,-2.344572,1.221990,-2.595002,-0.006387,0.002666,0.562404,-0.244465,-0.939781,0.238848,0.061863,-0.071144,0.150450,-4.776594,-23.033749,15.443970,,,,,,,
1504198287.056623,-2.333542,1.217073,-2.607022,0.060076,-0.031016,0.659712,-0.250422,-0.938089,0.239326,0.065867,-0.136679,0.011543,-5.227720,-22.810024,15.066132,,,,,,,
1504198287.066633,-2.323233,1.211437,-2.618283,0.109109,-0.020791,0.685396,-0.256731,-0.936122,0.240341,0.070818,-0.107426,-0.062622,-5.227720,-22.810024,15.066132,,,,,,,
1504198287.076643,-2.312855,1.205731,-2.629342,0.092330,0.012387,0.679972,-0.263144,-0.934101,0.241270,0.064399,-0.035428,-0.032545,-5.376936,-23.035992,15.217499,,,,,,,
1504198287.086653,-2.301592,1.200865,-2.641002,-0.019182,0.044262,0.627420,-0.269227,-0.932352,0.241322,0.049881,0.026026,0.011059,-5.376936,-23.035992,15.217499,,,,,,,
1504198287.096662,-2.288271,1.197385,-2.654991,-0.198467,0.021260,0.598330,-0.274861,-0.931088,0.239846,0.028676,0.075757,0.040092,-5.977003,-22.963848,15.290466,,,,,,,
1504198287.106642,-2.272478,1.194896,-2.672249,-0.349517,-0.055284,0.598203,-0.280384,-0.930177,0.236971,-0.009213,0.054536,0.071775,-5.977003,-22.963848,15.290466,,,,,,,
1504198287.116651,-2.256092,1.193263,-2.691050,-0.451157,-0.118337,0.553307,-0.285404,-0.929577,0.233306,-0.023311,-0.007252,0.072556,-5.976927,-23.038692,15.216003,,,,,,,
1504198287.126661,-2.240927,1.192364,-2.708818,-0.447696,-0.147034,0.455163,-0.289564,-0.929245,0.229470,-0.024141,-0.009964,0.038688,-5.976927,-23.038692,15.216003,,,,,,,
1504198287.136671,-2.226483,1.192258,-2.725918,-0.514481,-0.133629,0.389912,-0.292926,-0.929206,0.225324,-0.027676,-0.019845,0.032611,-6.126966,-23.114071,15.066162,,,,,,,
1504198287.146681,-2.213215,1.192327,-2.740787,-0.398975,-0.024725,0.294921,-0.295839,-0.929231,0.221379,-0.029402,-0.024382,0.007610,-6.126966,-23.114071,15.066162,,,,,,,
1504198287.156691,-2.203282,1.193281,-2.750756,-0.385626,0.076565,0.133588,-0.297308,-0.929583,0.217906,-0.027536,-0.012220,0.025106,-6.578688,-22.740047,14.537262,,,,,,,
1504198287.166700,-2.191438,1.194745,-2.762522,-0.437759,0.090854,0.127068,-0.298760,-0.930122,0.213577,-0.039817,-0.028526,0.036454,-6.578688,-22.740047,14.537262,,,,,,,
1504198287.176710,-2.180714,1.196229,-2.772897,-0.382947,0.112826,0.082293,-0.299902,-0.930666,0.209570,-0.062250,-0.053541,0.005472,-6.278395,-22.813854,14.613556,,,,,,,
1504198287.186720,-2.172636,1.198301,-2.780666,-0.333556,0.072060,-0.045637,-0.299995,-0.931422,0.206049,-0.006325,0.031962,0.039785,-6.278395,-22.813854,14.613556,,,,,,,
1504198287.196730,-2.169117,1.201147,-2.783497,-0.219390,0.096876,-0.220537,-0.298526,-0.932454,0.203498,-0.000195,0.106984,0.041650,-6.277006,-23.413708,14.543060,,,,,,,
1504198287.206739,-2.171082,1.204874,-2.779574,-0.044622,0.197967,-0.444567,-0.295256,-0.933794,0.202119,-0.024446,0.093645,0.007842,-6.277006,-23.413708,14.543060,,,,,,,
1504198287.216749,-2.178021,1.209197,-2.769028,0.093706,0.321663,-0.599319,-0.290529,-0.935332,0.201858,-0.007597,0.137328,-0.021973,-6.427610,-23.264080,14.391541,,,,,,,
1504198287.226759,-2.185512,1.213599,-2.756875,0.087947,0.402695,-0.598404,-0.285642,-0.936880,0.201652,0.021024,0.165213,-0.032463,-6.427610,-23.264080,14.391541,,,,,,,
1504198287.236769,-2.189919,1.217789,-2.747269,0.008107,0.481049,-0.509019,-0.281552,-0.938337,0.200629,0.055218,0.128416,-0.007316,-6.427946,-23.263622,14.166565,,,,,,,
1504198287.246778,-2.189537,1.221903,-2.742431,-0.145999,0.486474,-0.406825,-0.278481,-0.939752,0.198281,0.073143,0.094888,0.031440,-6.427946,-23.263622,14.166565,,,,,,,
1504198287.256788,-2.184184,1.226039,-2.743701,-0.319288,0.373755,-0.284175,-0.276358,-0.941157,0.194548,0.069265,0.048442,0.072099,-5.977385,-23.486599,14.169373,,,,,,,
1504198287.266798,-2.178829,1.229644,-2.746997,-0.257207,0.174970,-0.214336,-0.274609,-0.942370,0.191127,0.051449,0.019427,0.055318,-5.977385,-23.486599,14.169373,,,,,,,
1504198287.276808,-2.182705,1.231482,-2.742806,0.125313,-0.046588,-0.252776,-0.272447,-0.942983,0.191194,0.042085,0.043050,0.001784,-6.127714,-23.486828,13.944000,,,,,,,
1504198287.286817,-2.201627,1.231909,-2.724018,0.596308,-0.109937,-0.449318,-0.268456,-0.943125,0.196077,0.040963,0.080836,-0.052690,-6.127714,-23.486828,13.944000,,,,,,,
1504198287.296827,-2.229869,1.232301,-2.694631,0.778383,-0.027025,-0.670101,-0.262520,-0.943255,0.203353,0.022118,0.129580,-0.113052,-5.976820,-23.711605,14.171051,,,,,,,
1504198287.306837,-2.259804,1.233431,-2.662349,0.734855,0.068281,-0.774950,-0.255493,-0.943630,0.210442,0.017212,0.178585,-0.116814,-5.976820,-23.711605,14.171051,,,,,,,
1504198287.316847,-2.288977,1.234975,-2.630810,0.676068,0.046402,-0.788889,-0.248148,-0.944140,0.216845,-0.000890,0.171496,-0.110034,-5.377501,-23.259502,14.469147,,,,,,,
1504198287.326857,-2.320075,1.236337,-2.599173,0.693309,-0.203084,-0.794824,-0.240344,-0.944588,0.223580,-0.034909,0.155754,-0.052331,-5.377501,-23.259502,14.469147,,,,,,,
1504198287.336866,-2.358426,1.236537,-2.564885,0.852326,-0.731865,-0.794683,-0.231462,-0.944654,0.232497,-0.035918,0.192105,-0.037108,-5.002012,-23.183712,14.919525,,,,,,,
1504198287.346876,-2.405724,1.233836,-2.525493,1.173745,-1.062776,-0.736970,-0.221922,-0.943764,0.245071,-0.049745,0.180458,-0.146057,-5.002012,-23.183712,14.919525,,,,,,,
1504198287.356886,-2.457698,1.227890,-2.481307,1.477568,-0.957659,-0.731292,-0.212433,-0.941781,0.260615,-0.069687,0.179239,-0.291971,-4.402311,-22.881618,15.218781,,,,,,,
1504198287.366896,-2.505134,1.220688,-2.435585,1.516624,-0.260992,-0.814643,-0.203862,-0.939336,0.275842,-0.119533,0.190343,-0.288720,-4.402311,-22.881618,15.218781,,,,,,,
1504198287.376905,-2.546416,1.214388,-2.390295,1.369672,0.228397,-0.943849,-0.195618,-0.937156,0.288915,-0.100509,0.214713,-0.127447,-3.877180,-22.356197,16.191132,,,,,,,
1504198287.386915,-2.583582,1.211242,-2.347636,0.964027,0.211698,-1.143059,-0.186308,-0.936054,0.298484,-0.030718,0.216587,0.098626,-3.877180,-22.356197,16.191132,,,,,,,
1504198287.396925,-2.624383,1.213309,-2.305574,0.429292,-0.273750,-1.453744,-0.173021,-0.936779,0.304153,0.001406,0.134609,0.201920,-3.427595,-21.830364,16.788300,,,,,,,
1504198287.406935,-2.668696,1.221662,-2.264203,-0.211057,-0.596404,-1.720068,-0.155808,-0.939669,0.304542,0.020539,-0.035703,0.241814,-3.427595,-21.830364,16.788300,,,,,,,
1504198287.416944,-2.718544,1.236422,-2.217232,-0.738289,-0.511650,-2.193990,-0.134731,-0.944616,0.299247,0.030437,-0.061412,0.135354,-2.377943,-21.825207,16.565887,,,,,,,
1504198287.426954,-2.778675,1.254667,-2.157936,-1.026969,-0.384268,-2.510666,-0.110367,-0.950446,0.290641,-0.019790,-0.083215,0.084710,-2.377943,-21.825207,16.565887,,,,,,,
1504198287.436964,-2.850095,1.274193,-2.087216,-1.183801,-0.355095,-2.679639,-0.083996,-0.956335,0.279944,0.005825,-0.035410,0.082819,-1.252012,-22.419399,16.198151,,,,,,,
1504198287.446974,-2.918255,1.291919,-2.014265,-1.203093,0.396995,-2.312745,-0.060970,-0.961365,0.268440,0.098369,-0.063019,-0.027595,-1.252012,-22.419399,16.198151,,,,,,,
1504198287.456983,-2.971131,1.307925,-1.950577,-1.266063,0.935186,-1.874033,-0.044081,-0.965648,0.256088,0.167647,-0.365270,0.168671,0.023256,-22.787777,15.754120,,,,,,,
1504198287.466993,-3.014279,1.323892,-1.896742,-1.415903,0.855025,-1.480280,-0.031032,-0.969674,0.242425,0.121745,-0.591178,0.374091,0.023256,-22.787777,15.754120,,,,,,,
