timestamp(unix),attitude_roll(radians),attitude_pitch(radians),attitude_yaw(radians),rotation_rate_x(radians/s),rotation_rate_y(radians/s),rotation_rate_z(radians/s),gravity_x(G),gravity_y(G),gravity_z(G),user_acc_x(G),user_acc_y(G),user_acc_z(G),magnetic_field_x(microteslas),magnetic_field_y(microteslas),magnetic_field_z(microteslas),latitude(degree),longitude(degree),altitude(meter),speed(m/s),course(degree),timestamp(unix),User Mark
1504199778.014391,0.000015,0.581090,-0.338364,0.028041,0.098554,-0.135337,0.000013,-0.548935,-0.835865,-0.003125,0.015778,0.018436,16.804491,-12.347028,-29.357269,,,,,,,
1504199778.024401,0.001179,0.580948,-0.340007,-0.011921,0.025376,-0.155557,0.000986,-0.548817,-0.835942,-0.013712,0.023731,0.024342,16.804491,-12.347028,-29.357269,,,,,,,
1504199778.034411,0.001742,0.580399,-0.341963,-0.069252,-0.078571,-0.165079,0.001457,-0.548357,-0.836243,-0.021675,0.023226,0.004257,16.879290,-12.271695,-29.357635,,,,,,,
1504199778.044420,0.001125,0.579317,-0.343775,-0.118223,-0.185814,-0.144694,0.000942,-0.547453,-0.836836,-0.015453,0.011472,-0.021944,16.879290,-12.271695,-29.357635,,,,,,,
1504199778.054430,-0.000467,0.578021,-0.345178,-0.130634,-0.247554,-0.108315,-0.000392,-0.546368,-0.837545,0.000285,-0.001560,-0.041208,16.880007,-12.422147,-29.131500,,,,,,,
1504199778.064440,-0.002415,0.576648,-0.346075,-0.106308,-0.243544,-0.059180,-0.002024,-0.545217,-0.838293,0.003642,-0.010814,-0.035105,16.880007,-12.422147,-29.131500,,,,,,,
1504199778.074450,-0.004401,0.575975,-0.346332,-0.053924,-0.199272,-0.008999,-0.003691,-0.544652,-0.838654,0.015349,-0.017848,-0.020157,16.728960,-12.271924,-29.582977,,,,,,,
1504199778.084459,-0.006117,0.575937,-0.346000,0.014604,-0.138083,0.040112,-0.005130,-0.544621,-0.838667,0.020420,-0.022487,-0.005205,16.728960,-12.271924,-29.582977,,,,,,,
1504199778.094469,-0.007443,0.576610,-0.345133,0.084319,-0.067304,0.080669,-0.006239,-0.545185,-0.838293,0.019896,-0.025845,0.010107,16.953356,-12.120603,-29.733582,,,,,,,
1504199778.104479,-0.007955,0.578679,-0.344051,0.145563,0.003561,0.109469,-0.006659,-0.546919,-0.837159,0.012977,-0.024828,0.023851,16.953356,-12.120603,-29.733582,,,,,,,
1504199778.114489,-0.008217,0.580439,-0.342598,0.184429,0.069294,0.123297,-0.006871,-0.548391,-0.836194,0.006047,-0.020548,0.034176,16.729708,-12.571927,-29.580750,,,,,,,
1504199778.124498,-0.008016,0.582384,-0.341071,0.197596,0.116070,0.125372,-0.006695,-0.550017,-0.835127,0.000377,-0.015322,0.037138,16.729708,-12.571927,-29.580750,,,,,,,
1504199778.134508,-0.007372,0.584317,-0.339569,0.192605,0.157672,0.123155,-0.006149,-0.551630,-0.834066,-0.004426,-0.012152,0.038275,16.504152,-12.347928,-29.582977,,,,,,,
1504199778.144518,-0.006513,0.586897,-0.338081,0.179144,0.196167,0.103852,-0.005423,-0.553780,-0.832645,-0.009774,-0.009071,0.042301,16.504152,-12.347928,-29.582977,,,,,,,
1504199778.154528,-0.004769,0.588470,-0.337086,0.150815,0.237988,0.074909,-0.003967,-0.555089,-0.831782,-0.017014,-0.003551,0.049967,16.654863,-12.497708,-29.356506,,,,,,,
1504199778.164538,-0.002675,0.589696,-0.336392,0.111557,0.250059,0.050270,-0.002223,-0.556108,-0.831107,-0.011418,-0.000395,0.054740,16.654863,-12.497708,-29.356506,,,,,,,
1504199778.174547,-0.000529,0.590416,-0.336004,0.057094,0.229220,0.026729,-0.000439,-0.556707,-0.830709,-0.018543,-0.004878,0.054754,16.730242,-12.647367,-29.355194,,,,,,,
1504199778.184557,0.001030,0.591193,-0.335605,-0.008133,0.199939,0.009591,0.000855,-0.557352,-0.830276,-0.016053,-0.003332,0.047530,16.730242,-12.647367,-29.355194,,,,,,,
1504199778.194567,0.002884,0.590604,-0.335650,-0.076492,0.179209,-0.008636,0.002395,-0.556863,-0.830601,-0.011993,0.006127,0.034810,16.956697,-12.872556,-28.752930,,,,,,,
1504199778.204577,0.004769,0.589325,-0.335884,-0.143667,0.174451,-0.024755,0.003965,-0.555800,-0.831306,-0.009839,0.012206,0.026711,16.956697,-12.872556,-28.752930,,,,,,,
1504199778.214556,0.006936,0.587652,-0.336389,-0.171068,0.200279,-0.051534,0.005772,-0.554408,-0.832225,-0.003285,0.010280,0.017207,16.955767,-12.721814,-29.129089,,,,,,,
1504199778.224566,0.009691,0.585961,-0.337283,-0.155833,0.223621,-0.073964,0.008074,-0.553001,-0.833142,0.002210,0.010474,0.014721,16.955767,-12.721814,-29.129089,,,,,,,
1504199778.234575,0.012656,0.584757,-0.338315,-0.105435,0.244535,-0.090992,0.010553,-0.551997,-0.833779,-0.007150,0.037333,0.031884,17.255388,-12.570462,-29.129456,,,,,,,
1504199778.244585,0.015886,0.584185,-0.339518,-0.038020,0.259980,-0.105846,0.013251,-0.551520,-0.834056,-0.026740,0.039344,0.037288,17.255388,-12.570462,-29.129456,,,,,,,
1504199778.254595,0.019373,0.584235,-0.340897,0.020852,0.276556,-0.117515,0.016159,-0.551561,-0.833978,-0.031814,0.047151,0.045633,17.179750,-12.270947,-29.056885,,,,,,,
1504199778.264605,0.022140,0.584367,-0.341901,0.075340,0.282503,-0.123831,0.018465,-0.551672,-0.833857,-0.033647,0.052175,0.041880,17.179750,-12.270947,-29.056885,,,,,,,
1504199778.274614,0.025907,0.585442,-0.343521,0.121317,0.287464,-0.135502,0.021590,-0.552568,-0.833188,-0.039641,0.048143,0.032163,17.554476,-12.119412,-28.982117,,,,,,,
1504199778.284624,0.029916,0.586953,-0.345341,0.167408,0.304151,-0.151462,0.024905,-0.553826,-0.832260,-0.038898,0.045312,0.025756,17.554476,-12.119412,-28.982117,,,,,,,
1504199778.294634,0.034347,0.588962,-0.347356,0.216851,0.341054,-0.165318,0.028554,-0.555499,-0.831027,-0.034047,0.046893,0.020282,17.705187,-12.493436,-29.128906,,,,,,,
1504199778.304644,0.038556,0.590981,-0.349132,0.238666,0.390970,-0.181375,0.032009,-0.557176,-0.829777,-0.036418,0.035982,0.025135,17.705187,-12.493436,-29.128906,,,,,,,
1504199778.314653,0.044113,0.593258,-0.351590,0.233684,0.425127,-0.197455,0.036563,-0.559066,-0.828317,-0.035419,0.021712,0.016046,17.855913,-12.643216,-28.902405,,,,,,,
1504199778.324663,0.049748,0.595426,-0.354121,0.222944,0.415626,-0.198525,0.041170,-0.560862,-0.826885,-0.025590,0.007471,-0.004551,17.855913,-12.643216,-28.902405,,,,,,,
1504199778.334673,0.054892,0.597379,-0.356584,0.201121,0.360386,-0.189926,0.045363,-0.562477,-0.825567,-0.014174,-0.010765,-0.022043,17.931810,-12.868329,-28.675507,,,,,,,
1504199778.344683,0.059242,0.599116,-0.358831,0.174813,0.285988,-0.168492,0.048895,-0.563913,-0.824386,0.000116,-0.025489,-0.036683,17.931810,-12.868329,-28.675507,,,,,,,
1504199778.354693,0.062724,0.600662,-0.360713,0.162472,0.229581,-0.137460,0.051711,-0.565189,-0.823339,0.022309,-0.039135,-0.053248,18.231432,-12.716977,-28.675873,,,,,,,
1504199778.364702,0.065608,0.602211,-0.362174,0.163122,0.200766,-0.100049,0.054028,-0.566466,-0.822312,0.040683,-0.056016,-0.055587,18.231432,-12.716977,-28.675873,,,,,,,
1504199778.374712,0.068132,0.603761,-0.363128,0.157566,0.199702,-0.057360,0.056043,-0.567742,-0.821296,0.047121,-0.070777,-0.038445,18.381197,-12.491742,-28.452209,,,,,,,
1504199778.384722,0.071912,0.606401,-0.364389,0.142467,0.207247,-0.010441,0.059040,-0.569914,-0.819581,0.053647,-0.084505,-0.029190,18.457262,-12.642301,-28.000916,,,,,,,
1504199778.394732,0.073928,0.607738,-0.364128,0.129459,0.216885,0.046092,0.060635,-0.571012,-0.818699,0.065769,-0.098727,-0.021923,18.457262,-12.642301,-28.000916,,,,,,,
1504199778.404741,0.075530,0.609029,-0.363179,0.119555,0.213713,0.101585,0.061891,-0.572072,-0.817865,0.072844,-0.100765,-0.011053,18.532183,-12.567121,-27.926270,,,,,,,
1504199778.414751,0.076638,0.610306,-0.361649,0.117038,0.192377,0.144315,0.062741,-0.573118,-0.817067,0.073413,-0.083300,-0.002299,18.532183,-12.567121,-27.926270,,,,,,,
1504199778.424761,0.077262,0.611599,-0.359818,0.116666,0.157196,0.162522,0.063194,-0.574177,-0.816288,0.062310,-0.048427,-0.005138,18.982210,-12.714643,-28.149048,,,,,,,
1504199778.434771,0.077355,0.612773,-0.357955,0.101303,0.101915,0.159391,0.063218,-0.575138,-0.815610,0.046661,-0.012676,-0.013369,18.982210,-12.714643,-28.149048,,,,,,,
1504199778.444780,0.076933,0.613653,-0.356252,0.067832,0.040406,0.140228,0.062834,-0.575858,-0.815131,0.030061,0.003394,-0.025262,18.758379,-13.090955,-27.996796,,,,,,,
1504199778.454790,0.076237,0.614165,-0.354912,0.034621,0.000226,0.102882,0.062245,-0.576277,-0.814881,0.011806,0.003263,-0.039291,18.758379,-13.090955,-27.996796,,,,,,,
1504199778.464800,0.075674,0.614426,-0.353994,0.015597,0.001483,0.068690,0.061775,-0.576490,-0.814766,0.000771,-0.000247,-0.042610,18.459139,-13.168057,-27.621979,,,,,,,
1504199778.474810,0.075631,0.614514,-0.353428,0.004295,0.037837,0.039787,0.061735,-0.576562,-0.814718,-0.004195,-0.000678,-0.022898,18.459139,-13.168057,-27.621979,,,,,,,
1504199778.484819,0.076196,0.614555,-0.353095,0.001566,0.086894,0.023684,0.062194,-0.576595,-0.814660,-0.007125,-0.001195,0.001076,18.683535,-13.016751,-27.772522,,,,,,,
1504199778.494829,0.077256,0.614596,-0.352815,0.004061,0.132693,0.024675,0.063056,-0.576629,-0.814569,-0.000312,-0.004624,0.007898,18.683535,-13.016751,-27.772522,,,,,,,
1504199778.504839,0.078874,0.615134,-0.352576,0.015911,0.157089,0.041730,0.064349,-0.577068,-0.814157,0.007794,-0.006840,0.013803,18.458529,-13.017758,-27.773102,,,,,,,
1504199778.514818,0.080118,0.615440,-0.351889,0.029728,0.164411,0.064156,0.065348,-0.577318,-0.813901,0.011922,-0.006911,0.018643,18.458529,-13.017758,-27.773102,,,,,,,
1504199778.524828,0.081210,0.615950,-0.350934,0.049909,0.166354,0.085536,0.066213,-0.577734,-0.813535,0.011134,-0.003976,0.020688,18.909746,-13.316327,-27.469727,,,,,,,
1504199778.534838,0.082484,0.616758,-0.349818,0.082127,0.201239,0.099406,0.067211,-0.578393,-0.812984,0.001728,-0.000678,0.019711,18.909746,-13.316327,-27.469727,,,,,,,
1504199778.544848,0.084273,0.618366,-0.348660,0.127375,0.259469,0.105786,0.068586,-0.579705,-0.811935,-0.002104,0.000924,0.020416,18.834444,-13.465772,-27.918793,,,,,,,
1504199778.554857,0.086741,0.620107,-0.347480,0.180238,0.335751,0.111081,0.070503,-0.581123,-0.810756,-0.006309,0.010139,0.030452,18.834444,-13.465772,-27.918793,,,,,,,
1504199778.564867,0.090057,0.622418,-0.346346,0.234319,0.426949,0.109946,0.073070,-0.583001,-0.809179,-0.007319,0.015008,0.038168,18.985231,-13.466153,-27.393402,,,,,,,
1504199778.574877,0.095128,0.625228,-0.345500,0.282570,0.578951,0.091616,0.077016,-0.585282,-0.807164,-0.015966,0.016572,0.044438,18.985231,-13.466153,-27.393402,,,,,,,
1504199778.584887,0.100676,0.628111,-0.344798,0.271064,0.600370,0.079817,0.081323,-0.587617,-0.805042,-0.018350,0.022768,0.114871,19.286623,-13.840390,-27.089844,,,,,,,
1504199778.594896,0.105851,0.630589,-0.344234,0.191551,0.520057,0.063810,0.085334,-0.589621,-0.803160,-0.019935,-0.003763,0.111815,19.286623,-13.840390,-27.089844,,,,,,,
1504199778.604906,0.109428,0.631611,-0.343793,0.064309,0.336781,0.039362,0.088141,-0.590446,-0.802250,-0.006811,-0.020119,0.042988,19.435946,-13.614575,-27.166138,,,,,,,
1504199778.614916,0.111254,0.631367,-0.343440,-0.056509,0.160905,0.022384,0.089621,-0.590249,-0.802231,0.011544,-0.027427,-0.028198,19.435946,-13.614575,-27.166138,,,,,,,
1504199778.624926,0.111657,0.630149,-0.343165,-0.142867,0.024172,0.004330,0.090025,-0.589265,-0.802908,0.038775,-0.003722,-0.069009,19.661348,-13.688855,-27.015045,,,,,,,
1504199778.634935,0.112133,0.627073,-0.343610,-0.186015,-0.050036,-0.022303,0.090609,-0.586777,-0.804663,0.030851,0.004517,-0.061624,19.661348,-13.688855,-27.015045,,,,,,,
1504199778.644945,0.111632,0.625143,-0.343938,-0.184971,-0.073453,-0.055350,0.090333,-0.585213,-0.805832,0.034561,0.003579,-0.049087,19.661272,-13.614011,-26.940582,,,,,,,
1504199778.654955,0.111056,0.623408,-0.344530,-0.160554,-0.098147,-0.070207,0.089980,-0.583806,-0.806892,0.041688,0.007496,-0.013390,19.661272,-13.614011,-26.940582,,,,,,,
1504199778.664965,0.110131,0.621858,-0.345307,-0.147039,-0.150460,-0.082901,0.089333,-0.582547,-0.807873,0.041450,0.016339,0.005368,19.436052,-13.614728,-27.091156,,,,,,,
1504199778.674975,0.109562,0.619327,-0.346839,-0.136974,-0.233643,-0.096618,0.089035,-0.580488,-0.809387,0.028000,0.032956,-0.004685,19.436052,-13.614728,-27.091156,,,,,,,
1504199778.684984,0.107352,0.617813,-0.348079,-0.141725,-0.311364,-0.124241,0.087340,-0.579254,-0.810455,0.011568,0.053955,-0.023774,19.436434,-13.764722,-27.090027,,,,,,,
1504199778.694994,0.104978,0.616022,-0.349800,-0.171576,-0.337709,-0.171212,0.085524,-0.577793,-0.811690,0.000627,0.051075,-0.025834,19.436434,-13.764722,-27.090027,,,,,,,
1504199778.705004,0.103264,0.613830,-0.352110,-0.208260,-0.287270,-0.222600,0.084263,-0.576002,-0.813094,0.002300,0.036573,-0.018465,19.136385,-13.840772,-27.240234,,,,,,,
1504199778.715014,0.103076,0.610609,-0.355075,-0.248692,-0.168607,-0.269846,0.084301,-0.573367,-0.814950,0.005726,0.023531,0.003946,19.136385,-13.840772,-27.240234,,,,,,,
1504199778.725023,0.104379,0.607497,-0.358386,-0.291041,-0.020096,-0.311810,0.085548,-0.570814,-0.816611,0.000710,0.011396,0.026282,19.134813,-13.390180,-27.543610,,,,,,,
1504199778.735033,0.107458,0.603994,-0.362120,-0.323839,0.124070,-0.350548,0.088276,-0.567935,-0.818326,0.000469,0.007022,0.035138,19.134813,-13.390180,-27.543610,,,,,,,
1504199778.745043,0.111705,0.600227,-0.366247,-0.343253,0.207387,-0.389155,0.091988,-0.564830,-0.820064,-0.008279,0.015498,0.039608,19.359240,-13.164166,-27.544739,,,,,,,
1504199778.755053,0.115873,0.596310,-0.370690,-0.369770,0.189550,-0.448942,0.095660,-0.561593,-0.821865,-0.028171,0.010186,0.035763,19.359240,-13.164166,-27.544739,,,,,,,
1504199778.765062,0.120033,0.591870,-0.376273,-0.391683,0.065143,-0.533085,0.099376,-0.557914,-0.823928,-0.037883,-0.002389,0.025161,19.657885,-12.712506,-27.697357,,,,,,,
1504199778.775072,0.122554,0.587087,-0.382739,-0.417726,-0.170062,-0.608501,0.101778,-0.553938,-0.826313,-0.031633,0.001677,0.006855,19.657885,-12.712506,-27.697357,,,,,,,
1504199778.785082,0.122680,0.581890,-0.389865,-0.450650,-0.453182,-0.664631,0.102233,-0.549604,-0.829147,-0.031402,-0.001467,-0.005296,19.882235,-12.411649,-27.624084,,,,,,,
1504199778.795092,0.120040,0.576267,-0.397211,-0.490007,-0.720298,-0.688778,0.100413,-0.544898,-0.832469,-0.039149,-0.008935,-0.014532,19.882235,-12.411649,-27.624084,,,,,,,
1504199778.805101,0.115379,0.570288,-0.404743,-0.528863,-0.918166,-0.702372,0.096904,-0.539875,-0.836149,-0.041134,-0.003918,-0.018282,19.504717,-11.587735,-27.931183,,,,,,,
1504199778.815111,0.109254,0.563963,-0.412448,-0.565095,-1.057442,-0.720335,0.092152,-0.534539,-0.840105,-0.026768,0.005914,-0.018248,19.504717,-11.587735,-27.931183,,,,,,,
1504199778.825088,0.101759,0.557187,-0.420235,-0.617415,-1.199795,-0.726579,0.086219,-0.528801,-0.844355,0.003152,0.017799,-0.020833,19.202501,-11.287137,-28.909210,,,,,,,
1504199778.835098,0.092497,0.549814,-0.427888,-0.683933,-1.371886,-0.714650,0.078753,-0.522529,-0.848977,0.016538,0.013084,-0.034233,19.202501,-11.287137,-28.909210,,,,,,,
1504199778.845108,0.081311,0.541953,-0.435265,-0.743014,-1.538727,-0.687773,0.069583,-0.515811,-0.853872,0.021833,-0.000287,-0.048533,18.375063,-10.540097,-29.291870,,,,,,,
1504199778.855118,0.068840,0.533628,-0.442299,-0.797174,-1.620365,-0.655701,0.059223,-0.508660,-0.858928,0.031354,-0.003943,-0.046910,18.375063,-10.540097,-29.291870,,,,,,,
1504199778.865128,0.056277,0.525028,-0.448885,-0.828959,-1.562611,-0.607825,0.048671,-0.501237,-0.863940,0.042622,-0.007278,-0.031400,17.773149,-10.091748,-29.821747,,,,,,,
1504199778.875137,0.045082,0.516396,-0.454810,-0.834108,-1.360180,-0.534540,0.039190,-0.493749,-0.868721,0.043207,-0.015848,-0.000695,17.773149,-10.091748,-29.821747,,,,,,,
1504199778.885147,0.035955,0.508052,-0.459864,-0.807835,-1.090887,-0.450645,0.031407,-0.486476,-0.873129,0.031704,-0.019963,0.041388,17.320070,-9.267423,-30.504059,,,,,,,
1504199778.895157,0.028901,0.500132,-0.463917,-0.768975,-0.841955,-0.356018,0.025357,-0.479542,-0.877153,0.021334,-0.024822,0.072145,17.320070,-9.267423,-30.504059,,,,,,,
1504199778.905167,0.023351,0.492633,-0.466973,-0.733800,-0.656924,-0.266621,0.020572,-0.472948,-0.880850,0.012310,-0.034834,0.084525,16.717089,-8.443921,-31.111725,,,,,,,
1504199778.915176,0.018814,0.485488,-0.469170,-0.705414,-0.528300,-0.189946,0.016639,-0.466640,-0.884291,0.014154,-0.035526,0.082228,16.717089,-8.443921,-31.111725,,,,,,,
1504199778.925186,0.014881,0.478562,-0.470727,-0.683667,-0.445415,-0.138819,0.013209,-0.460503,-0.887560,0.018239,-0.033973,0.078005,16.490633,-8.218732,-31.713989,,,,,,,
1504199778.935196,0.011357,0.471953,-0.471922,-0.650348,-0.395638,-0.107894,0.010116,-0.454627,-0.890625,0.023469,-0.038339,0.071563,16.490633,-8.218732,-31.713989,,,,,,,
1504199778.945206,0.008019,0.465911,-0.472941,-0.585200,-0.378075,-0.092869,0.007165,-0.449237,-0.893384,0.028556,-0.038693,0.066693,16.264162,-7.769300,-31.942932,,,,,,,
1504199778.955215,0.004636,0.461032,-0.474032,-0.497931,-0.409788,-0.096921,0.004152,-0.444873,-0.895584,0.025481,-0.039502,0.058670,16.264162,-7.769300,-31.942932,,,,,,,
1504199778.965225,0.000594,0.456652,-0.475164,-0.417289,-0.470118,-0.104147,0.000533,-0.440945,-0.897534,0.026887,-0.043567,0.041088,16.038897,-7.620450,-31.869598,,,,,,,
1504199778.975235,-0.004012,0.453019,-0.476335,-0.347286,-0.521844,-0.103934,-0.003607,-0.437682,-0.899123,0.028036,-0.049638,0.022475,16.038897,-7.620450,-31.869598,,,,,,,
1504199778.985245,-0.008692,0.449945,-0.477524,-0.295991,-0.511610,-0.103864,-0.007827,-0.434916,-0.900437,0.023391,-0.050375,0.015641,15.662203,-7.171384,-32.248932,,,,,,,
1504199778.995254,-0.011852,0.448908,-0.478962,-0.247208,-0.409720,-0.092219,-0.010677,-0.433982,-0.900858,0.024929,-0.045419,0.019862,15.662203,-7.171384,-32.248932,,,,,,,
1504199779.005264,-0.014289,0.446902,-0.479845,-0.184028,-0.233374,-0.070005,-0.012885,-0.432174,-0.901698,0.021247,-0.037430,0.036769,15.362398,-7.247739,-32.249084,,,,,,,
1504199779.015274,-0.014621,0.445727,-0.480448,-0.094756,0.003497,-0.047853,-0.013192,-0.431114,-0.902201,0.009484,-0.020317,0.059214,15.362398,-7.247739,-32.249084,,,,,,,
1504199779.025284,-0.012554,0.445530,-0.480848,0.006342,0.247736,-0.032097,-0.011328,-0.430936,-0.902311,-0.004114,-0.003436,0.071821,15.286196,-6.947476,-32.551544,,,,,,,
1504199779.035294,-0.009106,0.446894,-0.480963,0.095243,0.421762,-0.035449,-0.008212,-0.432167,-0.901756,-0.015348,0.016472,0.067787,15.286196,-6.947476,-32.551544,,,,,,,
1504199779.045303,-0.004221,0.448170,-0.481555,0.133057,0.464103,-0.062143,-0.003804,-0.433317,-0.901233,-0.023784,0.024626,0.043018,15.661837,-7.021390,-32.250061,,,,,,,
1504199779.055313,0.000345,0.449490,-0.482626,0.128381,0.383206,-0.110042,0.000311,-0.434506,-0.900669,-0.023382,0.022626,-0.001263,15.661837,-7.021390,-32.250061,,,,,,,
1504199779.065323,0.003745,0.450636,-0.484354,0.111370,0.219306,-0.170624,0.003371,-0.435538,-0.900164,-0.022078,0.021827,-0.044996,15.887514,-7.245526,-32.172791,,,,,,,
1504199779.075333,0.005040,0.449817,-0.486550,0.089934,0.035196,-0.235447,0.004539,-0.434801,-0.900515,-0.017616,0.026186,-0.068220,15.887514,-7.245526,-32.172791,,,,,,,
1504199779.085342,0.005567,0.450545,-0.489715,0.070875,-0.121222,-0.301383,0.005011,-0.435457,-0.900196,-0.020041,0.032762,-0.082485,15.737276,-7.245908,-32.323181,,,,,,,
1504199779.095352,0.005279,0.451242,-0.493734,0.071516,-0.225570,-0.383388,0.004750,-0.436084,-0.899894,-0.030019,0.036212,-0.085412,15.737276,-7.245908,-32.323181,,,,,,,
1504199779.105362,0.004935,0.451888,-0.498838,0.064230,-0.265898,-0.484733,0.004440,-0.436664,-0.899613,-0.033004,0.038715,-0.074813,15.735964,-6.720899,-32.327118,,,,,,,
1504199779.115372,0.004058,0.451147,-0.504786,0.055858,-0.305159,-0.582878,0.003652,-0.435998,-0.899940,-0.026998,0.037454,-0.066109,15.735964,-6.720899,-32.327118,,,,,,,
1504199779.125351,0.003508,0.451133,-0.511808,0.046291,-0.348691,-0.660737,0.003157,-0.435985,-0.899948,-0.028792,0.027141,-0.069183,15.585558,-6.646268,-32.478058,,,,,,,
1504199779.135361,0.002984,0.451254,-0.519641,0.028148,-0.388969,-0.724741,0.002685,-0.436095,-0.899897,-0.034820,0.023802,-0.062261,15.585558,-6.646268,-32.478058,,,,,,,
1504199779.145370,0.002523,0.451115,-0.528108,-0.007022,-0.415268,-0.774923,0.002270,-0.435969,-0.899959,-0.026196,0.037806,-0.054295,15.735552,-6.645597,-32.477692,,,,,,,
1504199779.155380,0.002082,0.450615,-0.537115,-0.060378,-0.445682,-0.821928,0.001874,-0.435519,-0.900178,-0.017866,0.054217,-0.049835,15.735552,-6.645597,-32.477692,,,,,,,
1504199779.165390,0.001375,0.449503,-0.546688,-0.126731,-0.503689,-0.874243,0.001238,-0.434518,-0.900662,-0.010882,0.066674,-0.045672,15.509752,-6.421308,-32.629913,,,,,,,
1504199779.175400,0.000189,0.447782,-0.556942,-0.183587,-0.584137,-0.941446,0.000170,-0.432967,-0.901410,-0.000903,0.071227,-0.039050,15.509752,-6.421308,-32.629913,,,,,,,
1504199779.185410,-0.001502,0.444763,-0.568118,-0.205319,-0.684037,-1.024567,-0.001356,-0.430244,-0.902712,0.008222,0.063300,-0.026381,15.132433,-5.672391,-32.936493,,,,,,,
1504199779.195419,-0.004074,0.442627,-0.580144,-0.222947,-0.804220,-1.105508,-0.003681,-0.428315,-0.903622,0.019932,0.044739,-0.009036,15.132433,-5.672391,-32.936493,,,,,,,
1504199779.205429,-0.007748,0.440265,-0.592998,-0.252611,-0.955218,-1.175742,-0.007009,-0.426179,-0.904612,0.029058,0.019426,-0.006018,14.907885,-5.674008,-32.637024,,,,,,,
1504199779.215439,-0.012893,0.437665,-0.606379,-0.277217,-1.122273,-1.216051,-0.011678,-0.423826,-0.905668,0.045705,0.011717,-0.019396,14.907885,-5.674008,-32.637024,,,,,,,
1504199779.225449,-0.019284,0.435048,-0.620048,-0.272846,-1.253359,-1.232891,-0.017487,-0.421454,-0.906681,0.058579,0.018271,-0.021404,14.456224,-5.374829,-33.240387,,,,,,,
1504199779.235458,-0.026572,0.432822,-0.633734,-0.240240,-1.313299,-1.234864,-0.024119,-0.419434,-0.907465,0.072321,0.035965,0.004176,14.456224,-5.374829,-33.240387,,,,,,,
1504199779.245468,-0.033938,0.431164,-0.647339,-0.188949,-1.298811,-1.227329,-0.030826,-0.417929,-0.907957,0.087604,0.062155,0.037687,13.779543,-4.927121,-33.620453,,,,,,,
1504199779.255478,-0.040846,0.430195,-0.660852,-0.126608,-1.237526,-1.220924,-0.037114,-0.417048,-0.908126,0.090672,0.078547,0.070419,13.779543,-4.927121,-33.620453,,,,,,,
1504199779.265488,-0.046661,0.429882,-0.674306,-0.074240,-1.093036,-1.221088,-0.042400,-0.416764,-0.908025,0.085384,0.070466,0.101858,12.953264,-4.555371,-33.850342,,,,,,,
1504199779.275497,-0.047826,0.429277,-0.688287,-0.146228,-0.527610,-1.284119,-0.043470,-0.416213,-0.908227,0.065138,0.043670,0.137124,12.953264,-4.555371,-33.850342,,,,,,,
1504199779.285507,-0.041872,0.427393,-0.702782,-0.277220,0.152286,-1.313298,-0.038094,-0.414500,-0.909252,0.049157,0.043254,0.250698,12.576876,-4.181455,-34.154053,,,,,,,
1504199779.295517,-0.031357,0.424531,-0.717675,-0.351056,0.499258,-1.355666,-0.028568,-0.411893,-0.910784,0.049412,0.009077,0.380236,12.576876,-4.181455,-34.154053,,,,,,,
1504199779.305527,-0.019455,0.421023,-0.733131,-0.399423,0.555123,-1.409219,-0.017755,-0.408695,-0.912498,0.055871,-0.043484,0.337364,12.874727,-3.280255,-34.085083,,,,,,,
1504199779.315536,-0.008070,0.416900,-0.749036,-0.442635,0.459623,-1.455024,-0.007379,-0.404928,-0.914319,0.049509,-0.066522,0.225537,12.874727,-3.280255,-34.085083,,,,,,,
1504199779.325546,0.001999,0.412117,-0.765123,-0.495866,0.330076,-1.471966,0.001832,-0.400550,-0.916273,0.038604,-0.092233,0.140913,13.099337,-3.129239,-34.085663,,,,,,,
1504199779.335556,0.010390,0.407089,-0.780482,-0.493341,0.165863,-1.385212,0.009541,-0.395938,-0.918228,0.042629,-0.092328,0.082458,13.099337,-3.129239,-34.085663,,,,,,,
1504199779.345566,0.014667,0.402519,-0.795006,-0.414921,-0.271729,-1.337339,0.013494,-0.391737,-0.919978,0.096506,0.058073,0.047313,13.547380,-2.302365,-34.015717,,,,,,,
1504199779.355576,0.015162,0.398364,-0.809644,-0.408564,-0.536063,-1.324053,0.013975,-0.387911,-0.921591,0.074145,0.143984,-0.073908,13.547380,-2.302365,-34.015717,,,,,,,
1504199779.365585,0.016713,0.393746,-0.823099,-0.442443,-0.304657,-1.219914,0.015434,-0.383651,-0.923349,-0.035087,0.097014,-0.133062,13.095537,-1.479688,-33.873047,,,,,,,
1504199779.375595,0.019242,0.390197,-0.835502,-0.282970,-0.185653,-1.129119,0.017795,-0.380371,-0.924663,-0.040500,-0.046326,0.091838,13.095537,-1.479688,-33.873047,,,,,,,
1504199779.385605,0.022547,0.389864,-0.845812,0.095867,-0.023859,-0.884312,0.020853,-0.380063,-0.924726,0.033133,0.018719,0.137113,13.169970,-1.478604,-34.247864,,,,,,,
1504199779.395615,0.025754,0.394612,-0.852654,0.627350,0.084345,-0.526002,0.023772,-0.384450,-0.922840,0.049226,0.100743,0.085956,13.169970,-1.478604,-34.247864,,,,,,,
1504199779.405624,0.028661,0.404574,-0.856212,1.115298,0.172738,-0.241384,0.026343,-0.393627,-0.918893,0.017495,-0.021931,-0.018287,13.095583,-1.629239,-34.096924,,,,,,,
1504199779.415634,0.031722,0.417653,-0.858536,1.351144,0.224001,-0.169549,0.028991,-0.405616,-0.913584,0.001130,-0.160576,-0.105658,13.095583,-1.629239,-34.096924,,,,,,,
1504199779.425613,0.035347,0.430579,-0.861468,1.248108,0.234517,-0.244465,0.032114,-0.417397,-0.908157,0.005773,-0.194694,-0.115937,13.246935,-2.078870,-33.943176,,,,,,,
1504199779.435623,0.038282,0.436837,-0.864405,0.434100,0.226331,-0.271478,0.034679,-0.423075,-0.905431,-0.014614,-0.229009,-0.071788,13.246935,-2.078870,-33.943176,,,,,,,
1504199779.445633,0.042187,0.436815,-0.868433,-0.085429,0.163597,-0.386480,0.038214,-0.423055,-0.905298,0.051126,-0.156916,0.049615,13.322832,-2.528226,-34.089600,,,,,,,
1504199779.455643,0.042222,0.433855,-0.872396,-0.360256,-0.290258,-0.346662,0.038299,-0.420372,-0.906543,0.046204,0.012993,0.177845,13.322832,-2.528226,-34.089600,,,,,,,
1504199779.465652,0.038567,0.428947,-0.875539,-0.489622,-0.563097,-0.302642,0.035064,-0.415914,-0.908728,0.013596,0.202001,-0.032480,13.323030,-2.603238,-34.089050,,,,,,,
1504199779.475662,0.032590,0.424009,-0.879369,-0.481470,-0.804954,-0.399335,0.029699,-0.411418,-0.910963,0.043147,0.098582,0.004621,13.323030,-2.603238,-34.089050,,,,,,,
1504199779.485672,0.026911,0.418970,-0.885485,-0.523134,-0.823550,-0.632068,0.024581,-0.406820,-0.913177,0.029146,-0.045572,0.029999,12.945925,-1.854611,-34.245605,,,,,,,
1504199779.495682,0.022155,0.413457,-0.894446,-0.531540,-0.840253,-0.898903,0.020287,-0.401777,-0.915513,0.026787,-0.118166,0.122574,12.945925,-1.854611,-34.245605,,,,,,,
1504199779.505692,0.018533,0.408110,-0.906210,-0.497099,-0.824294,-1.147577,0.017010,-0.396875,-0.917715,0.025531,-0.101340,0.207098,12.195024,-1.632535,-34.474152,,,,,,,
1504199779.515701,0.015815,0.404581,-0.919877,-0.254087,-0.809101,-1.287012,0.014537,-0.393634,-0.919152,0.040516,-0.049543,0.246591,12.195024,-1.632535,-34.474152,,,,,,,
1504199779.525711,0.013116,0.405023,-0.934702,0.177987,-0.876491,-1.387547,0.012055,-0.394040,-0.919014,0.107681,-0.010104,0.285088,11.743410,-1.034406,-34.554749,,,,,,,
1504199779.535721,0.009873,0.409470,-0.951107,0.535129,-1.009273,-1.543603,0.009057,-0.398123,-0.917287,0.172110,-0.024088,0.272008,11.743410,-1.034406,-34.554749,,,,,,,
1504199779.545731,0.005788,0.416124,-0.969744,0.718177,-1.202364,-1.759628,0.005294,-0.404218,-0.914647,0.221192,-0.027606,0.257421,11.517885,-0.959973,-34.780853,,,,,,,
1504199779.555740,0.001704,0.423461,-0.991531,0.735862,-1.318338,-2.068939,0.001553,-0.410919,-0.911671,0.286838,0.019027,0.236866,11.517885,-0.959973,-34.780853,,,,,,,
1504199779.565750,-0.001209,0.429744,-1.017332,0.575098,-1.374169,-2.441643,-0.001099,-0.416638,-0.909072,0.364274,-0.033023,0.237334,10.317507,-1.039624,-35.158264,,,,,,,
1504199779.575760,-0.002246,0.433357,-1.047692,0.283811,-1.372396,-2.864842,-0.002038,-0.419920,-0.907559,0.433496,-0.115725,0.250531,10.317507,-1.039624,-35.158264,,,,,,,
1504199779.585770,-0.001796,0.434477,-1.081890,0.064125,-1.415027,-3.168290,-0.001629,-0.420936,-0.907089,0.412945,-0.142281,0.235397,9.492220,-0.968183,-35.235870,,,,,,,
1504199779.595779,-0.000445,0.433160,-1.118602,-0.221870,-1.409273,-3.361995,-0.000404,-0.419741,-0.907644,0.254341,-0.166121,0.243307,9.492220,-0.968183,-35.235870,,,,,,,
1504199779.605789,0.001175,0.429251,-1.156155,-0.454240,-1.413699,-3.413625,0.001069,-0.416190,-0.909277,0.046875,-0.230279,0.227179,8.290758,-0.523114,-35.467224,,,,,,,
1504199779.615799,0.002245,0.424216,-1.193068,-0.536830,-1.415240,-3.328372,0.002046,-0.411606,-0.911359,-0.031877,-0.280670,0.143842,8.290758,-0.523114,-35.467224,,,,,,,
1504199779.625809,0.001950,0.419314,-1.227751,-0.472224,-1.466094,-3.099746,0.001781,-0.407134,-0.913367,-0.095210,-0.327134,0.128393,7.388918,0.073291,-35.698944,,,,,,,
1504199779.635818,-0.000859,0.415403,-1.259190,-0.363711,-1.581325,-2.793010,-0.000786,-0.403559,-0.914953,-0.140892,-0.370504,0.127234,7.388918,0.073291,-35.698944,,,,,,,
1504199779.645828,-0.006066,0.412417,-1.287098,-0.289105,-1.657931,-2.471458,-0.005557,-0.400825,-0.916138,-0.161069,-0.382454,0.096848,6.186632,0.893191,-35.858124,,,,,,,
1504199779.655838,-0.012907,0.410138,-1.311559,-0.235148,-1.655500,-2.161822,-0.011836,-0.398736,-0.916989,-0.165151,-0.366446,0.085095,6.186632,0.893191,-35.858124,,,,,,,
1504199779.665848,-0.020623,0.408551,-1.333160,-0.179506,-1.623168,-1.928021,-0.018924,-0.397280,-0.917502,-0.154385,-0.353224,0.090720,4.760775,1.186938,-35.938873,,,,,,,
1504199779.675858,-0.028418,0.407176,-1.353990,-0.195361,-1.598538,-1.918486,-0.026091,-0.396018,-0.917872,-0.122545,-0.340432,0.104136,4.760775,1.186938,-35.938873,,,,,,,
1504199779.685867,-0.035164,0.405392,-1.375770,-0.254915,-1.502042,-2.016960,-0.032307,-0.394379,-0.918380,-0.096218,-0.273849,0.095839,3.710222,1.407199,-35.943146,,,,,,,
1504199779.695877,-0.040059,0.403577,-1.398221,-0.255396,-1.321907,-2.059975,-0.036831,-0.392711,-0.918924,-0.074512,-0.141164,0.077982,3.710222,1.407199,-35.943146,,,,,,,
1504199779.705887,-0.042942,0.402438,-1.420461,-0.171704,-1.106318,-2.022851,-0.039499,-0.391663,-0.919261,-0.079199,-0.071548,0.079874,2.884325,1.628940,-36.171875,,,,,,,
1504199779.715897,-0.044094,0.402620,-1.441768,-0.031789,-0.898706,-1.933313,-0.040555,-0.391830,-0.919143,-0.107623,-0.065415,0.079238,2.884325,1.628940,-36.171875,,,,,,,
1504199779.725876,-0.043784,0.404010,-1.461980,0.081203,-0.719648,-1.839501,-0.040246,-0.393108,-0.918611,-0.123603,-0.058155,0.064073,1.608797,1.922915,-36.027283,,,,,,,
1504199779.735886,-0.042304,0.406109,-1.481454,0.145961,-0.592367,-1.784108,-0.038852,-0.395038,-0.917843,-0.127652,-0.028897,0.039532,1.608797,1.922915,-36.027283,,,,,,,
1504199779.745895,-0.040285,0.408545,-1.500592,0.178165,-0.553229,-1.760639,-0.036960,-0.397274,-0.916955,-0.120953,0.024960,0.007913,1.085192,1.544955,-35.725739,,,,,,,
1504199779.755905,-0.038552,0.411313,-1.519752,0.219356,-0.608974,-1.765806,-0.035328,-0.399813,-0.915916,-0.105130,0.067888,-0.020486,1.085192,1.544955,-35.725739,,,,,,,
1504199779.765915,-0.037532,0.414284,-1.538910,0.232607,-0.683680,-1.761382,-0.034349,-0.402535,-0.914760,-0.089110,0.083901,-0.033681,0.559893,1.617740,-35.802612,,,,,,,
1504199779.775925,-0.037158,0.417568,-1.558217,0.275826,-0.763931,-1.784648,-0.033957,-0.405539,-0.913447,-0.068033,0.124899,-0.039449,0.559893,1.617740,-35.802612,,,,,,,
1504199779.785934,-0.037296,0.421493,-1.577888,0.341615,-0.828377,-1.815375,-0.034024,-0.409123,-0.911844,-0.058307,0.135533,-0.027395,-0.189528,1.389377,-35.802765,,,,,,,
1504199779.795944,-0.037811,0.426113,-1.597846,0.413819,-0.886490,-1.838631,-0.034421,-0.413335,-0.909928,-0.049960,0.137044,-0.017653,-0.189528,1.389377,-35.802765,,,,,,,
1504199779.805954,-0.038824,0.431676,-1.618093,0.507236,-0.962888,-1.866086,-0.035254,-0.418393,-0.907582,-0.039347,0.134015,-0.009731,-1.088087,0.860187,-35.726044,,,,,,,
1504199779.815964,-0.040515,0.437983,-1.638523,0.570599,-1.051843,-1.877561,-0.036681,-0.424113,-0.904866,-0.039262,0.124294,-0.013713,-1.088087,0.860187,-35.726044,,,,,,,
1504199779.825948,-0.043142,0.444827,-1.658957,0.616634,-1.160921,-1.869817,-0.038931,-0.430302,-0.901845,-0.038324,0.137074,-0.024791,-1.688841,1.157489,-35.729767,,,,,,,
1504199779.835958,-0.046757,0.451891,-1.679194,0.621040,-1.261150,-1.844015,-0.042048,-0.436668,-0.898640,-0.033254,0.135322,-0.033840,-1.688841,1.157489,-35.729767,,,,,,,
1504199779.845968,-0.051206,0.458711,-1.699204,0.580820,-1.340761,-1.822596,-0.045892,-0.442792,-0.895449,-0.033118,0.119123,-0.035887,-2.286390,0.179797,-35.723938,,,,,,,
1504199779.855978,-0.056113,0.464996,-1.719155,0.513181,-1.388165,-1.814091,-0.050129,-0.448419,-0.892417,-0.039761,0.111535,-0.033746,-2.286390,0.179797,-35.723938,,,,,,,
1504199779.865988,-0.060983,0.470576,-1.739034,0.432103,-1.375794,-1.796107,-0.054321,-0.453400,-0.889650,-0.052689,0.118698,-0.030897,-3.035292,-0.124021,-35.498505,,,,,,,
1504199779.875997,-0.065326,0.475337,-1.758450,0.342845,-1.293070,-1.736633,-0.058043,-0.457638,-0.887242,-0.064424,0.116360,-0.017696,-3.035292,-0.124021,-35.498505,,,,,,,
1504199779.886007,-0.068905,0.479299,-1.777355,0.260093,-1.207186,-1.693165,-0.061092,-0.461157,-0.885213,-0.071354,0.107764,0.001378,-4.157911,-0.804990,-35.046204,,,,,,,
1504199779.896017,-0.071393,0.482202,-1.795696,0.145709,-1.060325,-1.627443,-0.063199,-0.463731,-0.883719,-0.073245,0.131639,0.005560,-4.157911,-0.804990,-35.046204,,,,,,,
1504199779.906027,-0.072927,0.484145,-1.813498,0.069491,-0.947871,-1.567999,-0.064489,-0.465452,-0.882721,-0.069178,0.108564,0.028564,-5.132719,-0.884366,-35.048065,,,,,,,
1504199779.916036,-0.073973,0.485517,-1.830263,0.016201,-0.872953,-1.459348,-0.065365,-0.466666,-0.882015,-0.077213,0.071417,0.036022,-5.132719,-0.884366,-35.048065,,,,,,,
1504199779.926046,-0.075331,0.486308,-1.845646,-0.032306,-0.852444,-1.327111,-0.066534,-0.467365,-0.881557,-0.080667,0.052356,0.031780,-5.580793,-1.561688,-34.894104,,,,,,,
1504199779.936056,-0.077652,0.486911,-1.859306,-0.027972,-0.877156,-1.165882,-0.068558,-0.467898,-0.881119,-0.087493,0.054553,0.021683,-5.580793,-1.561688,-34.894104,,,,,,,
1504199779.946066,-0.081257,0.487758,-1.870842,0.024326,-0.893762,-0.982169,-0.071702,-0.468646,-0.880471,-0.085250,0.051334,0.014474,-6.405104,-1.790555,-34.819427,,,,,,,
1504199779.956075,-0.085706,0.489319,-1.880346,0.105675,-0.883960,-0.804856,-0.075556,-0.470025,-0.879414,-0.077673,0.048028,0.019138,-6.405104,-1.790555,-34.819427,,,,,,,
1504199779.966085,-0.090455,0.491454,-1.887961,0.167385,-0.810123,-0.650097,-0.079641,-0.471908,-0.878043,-0.070872,0.055816,0.026694,-6.929579,-1.868360,-34.595154,,,,,,,
1504199779.976095,-0.094838,0.493901,-1.893939,0.198637,-0.686912,-0.514700,-0.083378,-0.474064,-0.876534,-0.060176,0.072636,0.032570,-6.929579,-1.868360,-34.595154,,,,,,,
1504199779.986105,-0.098335,0.496122,-1.898687,0.175939,-0.530181,-0.418950,-0.086340,-0.476019,-0.875186,-0.043009,0.085684,0.036182,-7.303892,-2.095197,-34.519409,,,,,,,
1504199779.996115,-0.100512,0.497782,-1.902850,0.109705,-0.377305,-0.371301,-0.088165,-0.477477,-0.874209,-0.023346,0.090408,0.034457,-7.303892,-2.095197,-34.519409,,,,,,,
1504199780.006124,-0.101348,0.498469,-1.906836,0.006131,-0.242206,-0.352506,-0.088863,-0.478082,-0.873808,-0.001774,0.088128,0.034209,-7.602690,-2.397138,-34.217896,,,,,,,
1504199780.016134,-0.100896,0.498141,-1.911098,-0.093168,-0.132672,-0.376354,-0.088484,-0.477793,-0.874005,0.026030,0.078379,0.034359,-7.602690,-2.397138,-34.217896,,,,,,,
1504199780.026113,-0.096135,0.494913,-1.917534,-0.161495,-0.048897,-0.444945,-0.084470,-0.474955,-0.875947,0.053159,0.067729,0.036072,-7.902601,-2.473340,-34.293091,,,,,,,
1504199780.036123,-0.093452,0.493360,-1.923752,-0.219430,-0.028052,-0.561429,-0.082188,-0.473588,-0.876903,0.076862,0.071397,0.040493,-7.902601,-2.473340,-34.293091,,,,,,,
1504199780.046133,-0.090584,0.491545,-1.931253,-0.243911,-0.085285,-0.664908,-0.079750,-0.471989,-0.877990,0.084053,0.091877,0.033782,-7.903395,-2.248044,-34.444763,,,,,,,
1504199780.056143,-0.088148,0.489927,-1.939513,-0.214421,-0.168586,-0.721282,-0.077679,-0.470561,-0.878941,0.082043,0.104411,0.010503,-7.903395,-2.248044,-34.444763,,,,,,,
1504199780.066152,-0.086666,0.488867,-1.947783,-0.152286,-0.265011,-0.712466,-0.076419,-0.469626,-0.879552,0.065616,0.073920,0.001271,-7.901823,-2.698636,-34.141388,,,,,,,
1504199780.076162,-0.086507,0.488333,-1.955508,-0.101123,-0.372047,-0.659885,-0.076301,-0.469154,-0.879814,0.043983,0.028175,0.002708,-7.901823,-2.698636,-34.141388,,,,,,,
1504199780.086172,-0.087737,0.488091,-1.962398,-0.071341,-0.470405,-0.584942,-0.077393,-0.468941,-0.879832,0.027115,-0.011849,0.000743,-7.902388,-2.473645,-34.143097,,,,,,,
1504199780.096182,-0.090224,0.487942,-1.968422,-0.060604,-0.549424,-0.511133,-0.079587,-0.468809,-0.879707,0.017606,-0.053652,0.003944,-7.902388,-2.473645,-34.143097,,,,,,,
1504199780.106191,-0.093710,0.487547,-1.973817,-0.096611,-0.617380,-0.459841,-0.082671,-0.468460,-0.879609,0.017332,-0.073487,0.009262,-8.351698,-2.700818,-34.067505,,,,,,,
1504199780.116201,-0.097889,0.486376,-1.979037,-0.183556,-0.674220,-0.446015,-0.086399,-0.467425,-0.879801,0.022831,-0.067228,0.011789,-8.351698,-2.700818,-34.067505,,,,,,,
1504199780.126211,-0.102367,0.484383,-1.984348,-0.263779,-0.700198,-0.447175,-0.090432,-0.465662,-0.880330,0.024743,-0.045538,0.008656,-8.501478,-2.701779,-33.917877,,,,,,,
1504199780.136221,-0.106889,0.481750,-1.989610,-0.324633,-0.694387,-0.430213,-0.094543,-0.463331,-0.881128,0.022247,-0.025286,0.007974,-8.501478,-2.701779,-33.917877,,,,,,,
1504199780.146230,-0.111325,0.478777,-1.994632,-0.346973,-0.667594,-0.400411,-0.098603,-0.460694,-0.882065,0.016328,-0.020446,0.011414,-9.025419,-3.079297,-33.841309,,,,,,,
1504199780.156240,-0.115642,0.475857,-1.999039,-0.327681,-0.618798,-0.339622,-0.102565,-0.458101,-0.882963,0.006145,-0.027693,0.010466,-9.025419,-3.079297,-33.841309,,,,,,,
1504199780.166250,-0.119680,0.473281,-2.002607,-0.280539,-0.548932,-0.267080,-0.106270,-0.455809,-0.883711,-0.004097,-0.039583,0.009291,-9.401014,-2.706433,-33.620056,,,,,,,
1504199780.176260,-0.123528,0.471824,-2.005318,-0.247066,-0.464024,-0.210597,-0.109752,-0.454512,-0.883953,-0.008290,-0.045641,0.005505,-9.401014,-2.706433,-33.620056,,,,,,,
1504199780.186270,-0.126293,0.469616,-2.007803,-0.247449,-0.363879,-0.187291,-0.112322,-0.452543,-0.884640,-0.007505,-0.044756,-0.000904,-9.851011,-2.708447,-33.621185,,,,,,,
1504199780.196279,-0.128127,0.467335,-2.010117,-0.252068,-0.263692,-0.170397,-0.114076,-0.450508,-0.885454,-0.007827,-0.032829,-0.002165,-9.851011,-2.708447,-33.621185,,,,,,,
1504199780.206289,-0.129231,0.465222,-2.012090,-0.222737,-0.177654,-0.137409,-0.115175,-0.448622,-0.886269,-0.005751,-0.030718,0.000146,-9.926008,-2.708783,-33.621368,,,,,,,
1504199780.216299,-0.129886,0.463487,-2.013557,-0.175536,-0.121606,-0.098999,-0.115856,-0.447070,-0.886964,-0.001453,-0.038404,0.006242,-9.926008,-2.708783,-33.621368,,,,,,,
1504199780.226309,-0.130480,0.464715,-2.014592,-0.117973,-0.108277,-0.065825,-0.116311,-0.448168,-0.886351,0.002633,-0.039595,0.010481,-10.150740,-2.635404,-33.322449,,,,,,,
1504199780.236318,-0.131392,0.464141,-2.015093,-0.044603,-0.115315,-0.027259,-0.117153,-0.447655,-0.886499,0.003308,-0.028404,0.006113,-10.150740,-2.635404,-33.322449,,,,,,,
1504199780.246328,-0.132293,0.465195,-2.015311,0.005275,-0.132809,-0.000453,-0.117891,-0.448597,-0.885925,0.006761,-0.018825,0.002486,-10.375822,-2.561566,-33.248596,,,,,,,
1504199780.256338,-0.133880,0.465423,-2.015300,0.025299,-0.167067,-0.005695,-0.119282,-0.448801,-0.885635,0.015751,-0.017065,-0.001847,-10.375822,-2.561566,-33.248596,,,,,,,
1504199780.266348,-0.133967,0.465636,-2.016376,0.000695,-0.197727,-0.039841,-0.119346,-0.448991,-0.885530,0.026497,-0.006285,-0.013091,-10.375669,-2.487012,-33.024170,,,,,,,
1504199780.276357,-0.135745,0.465332,-2.017361,-0.056877,-0.230223,-0.100726,-0.120939,-0.448719,-0.885452,0.040541,0.009876,-0.026459,-10.375669,-2.487012,-33.024170,,,,,,,
1504199780.286367,-0.137416,0.464409,-2.019390,-0.133550,-0.267860,-0.190454,-0.122476,-0.447895,-0.885658,0.050958,0.016803,-0.034447,-10.225035,-2.786191,-33.096527,,,,,,,
1504199780.296377,-0.139020,0.463033,-2.022588,-0.185720,-0.315280,-0.288662,-0.123981,-0.446664,-0.886070,0.053943,0.020074,-0.038139,-10.225035,-2.786191,-33.096527,,,,,,,
1504199780.306387,-0.137871,0.459750,-2.028066,-0.205961,-0.366155,-0.374008,-0.123164,-0.443724,-0.887660,0.046946,0.022230,-0.037343,-10.450300,-2.637341,-33.023224,,,,,,,
1504199780.316366,-0.139598,0.458286,-2.033038,-0.204860,-0.399136,-0.433722,-0.124787,-0.442411,-0.888088,0.035187,0.025816,-0.038838,-10.450300,-2.637341,-33.023224,,,,,,,
1504199780.326376,-0.141217,0.456995,-2.038369,-0.191865,-0.391756,-0.460398,-0.126305,-0.441253,-0.888450,0.015694,0.021164,-0.036721,-10.825590,-2.563886,-33.099670,,,,,,,
1504199780.336386,-0.142381,0.455894,-2.043754,-0.167954,-0.337606,-0.461520,-0.127408,-0.440265,-0.888782,-0.008456,-0.003094,-0.026318,-10.825590,-2.563886,-33.099670,,,,,,,
1504199780.346395,-0.143443,0.455598,-2.048603,-0.133048,-0.230291,-0.443500,-0.128370,-0.439999,-0.888775,-0.029894,-0.030902,-0.012622,-11.050398,-2.415631,-32.726379,,,,,,,
1504199780.356405,-0.142722,0.455334,-2.053406,-0.071407,-0.110414,-0.416920,-0.127746,-0.439762,-0.888983,-0.044022,-0.046185,-0.000986,-11.050398,-2.415631,-32.726379,,,,,,,
1504199780.366415,-0.141207,0.455626,-2.057951,-0.016419,-0.032024,-0.406289,-0.126381,-0.440024,-0.889048,-0.049079,-0.054238,-0.000860,-11.124159,-2.866132,-32.648193,,,,,,,
1504199780.376425,-0.139421,0.456145,-2.062449,-0.004593,-0.021464,-0.407354,-0.124761,-0.440490,-0.889046,-0.045848,-0.051484,-0.018424,-11.124159,-2.866132,-32.648193,,,,,,,
1504199780.386434,-0.139710,0.456972,-2.066246,-0.040296,-0.080854,-0.405173,-0.124968,-0.441233,-0.888649,-0.044268,-0.040258,-0.047066,-11.048857,-2.940946,-32.572418,,,,,,,
1504199780.396444,-0.139234,0.456663,-2.070796,-0.103023,-0.180514,-0.395499,-0.124563,-0.440955,-0.888843,-0.047068,-0.039086,-0.073330,-11.048857,-2.940946,-32.572418,,,,,,,
1504199780.406454,-0.139955,0.455592,-2.075283,-0.181952,-0.300294,-0.378347,-0.125269,-0.439994,-0.889220,-0.051855,-0.048608,-0.090882,-11.273298,-3.166959,-32.571289,,,,,,,
1504199780.416464,-0.141892,0.453869,-2.079601,-0.237333,-0.405359,-0.352640,-0.127099,-0.438446,-0.889725,-0.057288,-0.054260,-0.100845,-11.273298,-3.166959,-32.571289,,,,,,,
1504199780.426473,-0.144688,0.451716,-2.083540,-0.271095,-0.462671,-0.306699,-0.129722,-0.436510,-0.890298,-0.067742,-0.062163,-0.103506,-11.423857,-2.718366,-32.200012,,,,,,,
1504199780.436483,-0.147842,0.449218,-2.086988,-0.298001,-0.462498,-0.259780,-0.132690,-0.434261,-0.890961,-0.077500,-0.063602,-0.095505,-11.423857,-2.718366,-32.200012,,,,,,,
1504199780.446493,-0.150882,0.446377,-2.090062,-0.332024,-0.424959,-0.223613,-0.135582,-0.431700,-0.891769,-0.082939,-0.060686,-0.084259,-11.499083,-2.718411,-32.350220,,,,,,,
1504199780.456503,-0.153440,0.443120,-2.092832,-0.367927,-0.356502,-0.188572,-0.138077,-0.428761,-0.892804,-0.083786,-0.047695,-0.076419,-11.499083,-2.718411,-32.350220,,,,,,,
1504199780.466512,-0.156648,0.439493,-2.094746,-0.384573,-0.281810,-0.155642,-0.141182,-0.425481,-0.893887,-0.078132,-0.037318,-0.073047,-11.723860,-2.719724,-32.200745,,,,,,,
1504199780.476522,-0.158269,0.435927,-2.096886,-0.381239,-0.249895,-0.131142,-0.142869,-0.422251,-0.895150,-0.071822,-0.031027,-0.070961,-11.723860,-2.719724,-32.200745,,,,,,,
1504199780.486532,-0.160120,0.432529,-2.098952,-0.355893,-0.283137,-0.132107,-0.144754,-0.419168,-0.896295,-0.061697,-0.023138,-0.075293,-12.024122,-2.571225,-32.127625,,,,,,,
1504199780.496542,-0.162658,0.429747,-2.101024,-0.284986,-0.362563,-0.143586,-0.147216,-0.416641,-0.897072,-0.055436,0.001358,-0.082878,-12.024122,-2.571225,-32.127625,,,,,,,
1504199780.506552,-0.167730,0.425968,-2.102458,-0.165228,-0.472217,-0.160268,-0.152026,-0.413202,-0.897860,-0.054791,0.027506,-0.086454,-12.324034,-2.423169,-31.829498,,,,,,,
1504199780.516561,-0.172509,0.426081,-2.104320,0.037761,-0.578307,-0.170403,-0.156308,-0.413305,-0.897077,-0.057727,0.048361,-0.088550,-12.324034,-2.423169,-31.829498,,,,,,,
1504199780.526571,-0.178009,0.428580,-2.105785,0.286096,-0.615509,-0.177379,-0.161056,-0.415580,-0.895184,-0.059586,0.060386,-0.088916,-12.548582,-2.649030,-31.903351,,,,,,,
1504199780.536581,-0.183341,0.433527,-2.107012,0.524578,-0.565227,-0.208009,-0.165449,-0.420074,-0.892280,-0.060015,0.060943,-0.082649,-12.548582,-2.649030,-31.903351,,,,,,,
1504199780.546591,-0.187507,0.440364,-2.108157,0.718115,-0.404806,-0.249586,-0.168626,-0.426269,-0.888741,-0.063780,0.056197,-0.079674,-12.998274,-2.501950,-31.455597,,,,,,,
1504199780.556600,-0.189058,0.449005,-2.109403,0.859111,-0.138467,-0.282900,-0.169306,-0.434069,-0.884827,-0.067861,0.053133,-0.082382,-12.998274,-2.501950,-31.455597,,,,,,,
1504199780.566610,-0.187654,0.458664,-2.110901,0.936238,0.142257,-0.322756,-0.167273,-0.442751,-0.880904,-0.072687,0.021837,-0.076845,-12.846922,-2.951566,-31.301849,,,,,,,
1504199780.576620,-0.183583,0.468323,-2.112714,0.905154,0.381224,-0.339242,-0.162898,-0.451390,-0.877332,-0.091115,-0.009883,-0.088138,-12.846922,-2.951566,-31.301849,,,,,,,
1504199780.586630,-0.177702,0.477211,-2.114489,0.824093,0.541692,-0.301239,-0.157020,-0.459303,-0.874291,-0.111123,-0.029802,-0.118308,-12.695799,-3.400907,-31.298096,,,,,,,
1504199780.596639,-0.171219,0.485110,-2.115634,0.738794,0.605171,-0.210770,-0.150725,-0.466306,-0.871689,-0.137620,-0.074084,-0.144837,-12.695799,-3.400907,-31.298096,,,,,,,
1504199780.606649,-0.165354,0.492014,-2.115674,0.657897,0.572675,-0.087034,-0.145077,-0.472402,-0.869361,-0.158070,-0.118067,-0.170678,-12.543989,-4.075376,-31.217651,,,,,,,
1504199780.616628,-0.160956,0.497773,-2.114406,0.560360,0.469971,0.051741,-0.140813,-0.477470,-0.867291,-0.170390,-0.151864,-0.191989,-12.543989,-4.075376,-31.217651,,,,,,,
1504199780.626638,-0.158665,0.502306,-2.111712,0.460243,0.316132,0.198073,-0.138483,-0.481448,-0.865465,-0.179617,-0.168454,-0.206724,-11.868879,-4.296750,-31.514313,,,,,,,
1504199780.636648,-0.158732,0.505511,-2.107647,0.339790,0.147553,0.333721,-0.138297,-0.484254,-0.863928,-0.176965,-0.168196,-0.218683,-11.868879,-4.296750,-31.514313,,,,,,,
1504199780.646658,-0.160896,0.507211,-2.102426,0.205741,0.002547,0.452226,-0.140033,-0.485741,-0.862813,-0.165570,-0.172752,-0.221736,-11.943464,-4.372388,-31.363953,,,,,,,
1504199780.656667,-0.164486,0.507348,-2.096404,0.059538,-0.083713,0.534315,-0.143119,-0.485861,-0.862239,-0.144158,-0.175958,-0.217183,-11.943464,-4.372388,-31.363953,,,,,,,
1504199780.666677,-0.168568,0.505892,-2.090249,-0.090185,-0.114470,0.555458,-0.146757,-0.484588,-0.862344,-0.117419,-0.183259,-0.202689,-11.943205,-4.522229,-31.437805,,,,,,,
1504199780.676687,-0.172453,0.503232,-2.084603,-0.204151,-0.111365,0.521098,-0.150326,-0.482259,-0.863034,-0.087284,-0.173426,-0.190372,-11.943205,-4.522229,-31.437805,,,,,,,
1504199780.686697,-0.175736,0.499938,-2.079696,-0.258049,-0.082091,0.464381,-0.153435,-0.479371,-0.864095,-0.060981,-0.152953,-0.180292,-12.018309,-4.522428,-31.513000,,,,,,,
1504199780.696707,-0.178161,0.496570,-2.075613,-0.267991,-0.035049,0.393832,-0.155815,-0.476413,-0.865305,-0.038688,-0.138348,-0.165549,-12.018309,-4.522428,-31.513000,,,,,,,
1504199780.706716,-0.179618,0.493379,-2.072341,-0.259694,0.024629,0.323293,-0.157347,-0.473605,-0.866568,-0.024004,-0.135328,-0.146814,-12.092787,-4.598203,-31.287598,,,,,,,
1504199780.716726,-0.180027,0.490366,-2.069677,-0.250267,0.105589,0.274066,-0.157957,-0.470949,-0.867904,-0.016680,-0.135695,-0.129579,-12.092787,-4.598203,-31.287598,,,,,,,
1504199780.726736,-0.179330,0.487644,-2.067314,-0.221613,0.204479,0.249391,-0.157579,-0.468546,-0.869272,-0.015379,-0.143652,-0.109610,-12.168959,-4.223248,-31.440613,,,,,,,
1504199780.736746,-0.177665,0.485310,-2.065008,-0.183492,0.295817,0.239689,-0.156325,-0.466483,-0.870607,-0.015031,-0.154550,-0.093032,-12.168959,-4.223248,-31.440613,,,,,,,
1504199780.746755,-0.175253,0.483347,-2.062712,-0.149854,0.361615,0.232160,-0.154384,-0.464746,-0.871881,-0.012608,-0.152686,-0.082464,-11.868773,-4.296903,-31.439301,,,,,,,
1504199780.756765,-0.172374,0.481622,-2.060453,-0.131370,0.400896,0.225718,-0.152010,-0.463218,-0.873111,-0.006223,-0.140847,-0.076566,-11.868773,-4.296903,-31.439301,,,,,,,
1504199780.766775,-0.169253,0.480022,-2.058240,-0.121609,0.416807,0.219302,-0.149409,-0.461798,-0.874311,0.002543,-0.129739,-0.073580,-11.645170,-3.920285,-31.741577,,,,,,,
1504199780.776785,-0.165991,0.478577,-2.056038,-0.106549,0.429474,0.215037,-0.146667,-0.460516,-0.875451,0.013076,-0.123758,-0.067939,-11.645170,-3.920285,-31.741577,,,,,,,
1504199780.786794,-0.161442,0.479441,-2.054581,-0.113901,0.426359,0.189415,-0.142618,-0.461283,-0.875716,0.025598,-0.120946,-0.057710,-11.569868,-3.995099,-31.665833,,,,,,,
1504199780.796804,-0.158022,0.477904,-2.053153,-0.138383,0.398913,0.133916,-0.139734,-0.459919,-0.876897,0.041605,-0.098247,-0.051753,-11.569868,-3.995099,-31.665833,,,,,,,
1504199780.806814,-0.154648,0.476091,-2.052416,-0.180015,0.363081,0.080537,-0.136903,-0.458308,-0.878186,0.050172,-0.068334,-0.053012,-11.271376,-3.617993,-32.042908,,,,,,,
1504199780.816824,-0.151350,0.473805,-2.052200,-0.240899,0.333780,0.047394,-0.134163,-0.456276,-0.879666,0.053032,-0.045418,-0.051562,-11.271376,-3.617993,-32.042908,,,,,,,
1504199780.826823,-0.145034,0.471223,-2.053757,-0.324301,0.299330,0.031295,-0.128775,-0.453976,-0.881659,0.048987,-0.032779,-0.044900,-11.195951,-3.692960,-31.892151,,,,,,,
1504199780.836832,-0.142100,0.467179,-2.054161,-0.432282,0.265066,0.020494,-0.126446,-0.450370,-0.883843,0.045681,-0.023690,-0.038688,-11.195951,-3.692960,-31.892151,,,,,,,
1504199780.846842,-0.139501,0.462010,-2.054762,-0.546777,0.223385,0.020369,-0.124471,-0.445748,-0.886462,0.039998,-0.017173,-0.032834,-10.971479,-3.616498,-32.117157,,,,,,,
1504199780.856852,-0.137321,0.455705,-2.055537,-0.662400,0.172127,0.017057,-0.122920,-0.440096,-0.889498,0.035243,-0.018980,-0.020887,-10.971479,-3.616498,-32.117157,,,,,,,
1504199780.866862,-0.134593,0.448527,-2.056864,-0.776951,0.126181,0.022276,-0.120914,-0.433639,-0.892938,0.030262,-0.021760,-0.009177,-10.897764,-3.240720,-32.344788,,,,,,,
1504199780.876870,-0.133133,0.439905,-2.057901,-0.895640,0.093061,0.021061,-0.120102,-0.425854,-0.896785,0.027740,-0.011371,0.005413,-10.897764,-3.240720,-32.344788,,,,,,,
1504199780.886880,-0.131918,0.430100,-2.059139,-1.013248,0.060999,0.018779,-0.119556,-0.416962,-0.901027,0.025455,-0.000885,0.023326,-10.449095,-2.713696,-32.347626,,,,,,,
1504199780.896890,-0.131072,0.419319,-2.060342,-1.100047,0.026528,0.038970,-0.119374,-0.407138,-0.905532,0.021672,0.009845,0.038955,-10.449095,-2.713696,-32.347626,,,,,,,
1504199780.906900,-0.130723,0.408035,-2.061261,-1.133605,-0.012659,0.073138,-0.119650,-0.396806,-0.910071,0.016348,0.007906,0.060416,-10.751493,-1.889585,-32.579559,,,,,,,
1504199780.916879,-0.131054,0.396819,-2.061752,-1.106488,-0.067266,0.110640,-0.120525,-0.386486,-0.914386,0.006770,0.001919,0.084506,-10.751493,-1.889585,-32.579559,,,,,,,
1504199780.926889,-0.132164,0.386202,-2.061735,-1.028185,-0.123365,0.151436,-0.122074,-0.376673,-0.918268,-0.000759,0.007196,0.104532,-10.828413,-1.214627,-32.734833,,,,,,,
1504199780.936898,-0.133904,0.376689,-2.061172,-0.901694,-0.160674,0.186945,-0.124144,-0.367844,-0.921564,-0.001573,0.018539,0.120019,-10.828413,-1.214627,-32.734833,,,,,,,
1504199780.946908,-0.135943,0.368521,-2.060131,-0.759944,-0.165063,0.210682,-0.126425,-0.360236,-0.924255,0.001181,0.025489,0.137191,-10.454329,-0.763242,-32.587280,,,,,,,
1504199780.956918,-0.138015,0.361527,-2.058779,-0.651100,-0.156459,0.222604,-0.128684,-0.353703,-0.926464,0.004005,0.032383,0.153072,-10.454329,-0.763242,-32.587280,,,,,,,
1504199780.966928,-0.140023,0.355307,-2.057288,-0.579545,-0.146394,0.224845,-0.130849,-0.347879,-0.928364,0.007802,0.042428,0.158390,-10.754957,-0.688977,-32.888611,,,,,,,
1504199780.976938,-0.142038,0.349741,-2.055753,-0.514452,-0.149055,0.218559,-0.132991,-0.342654,-0.930001,0.010112,0.043475,0.155877,-10.754957,-0.688977,-32.888611,,,,,,,
1504199780.986948,-0.144156,0.344890,-2.054208,-0.438759,-0.162456,0.209107,-0.135198,-0.338093,-0.931351,0.012212,0.027440,0.154419,-11.056318,-0.015775,-32.669403,,,,,,,
1504199780.996958,-0.146371,0.341070,-2.052777,-0.329906,-0.177175,0.180501,-0.137448,-0.334496,-0.932320,0.019528,0.015999,0.151192,-11.056318,-0.015775,-32.669403,,,,,,,
1504199781.006968,-0.148597,0.338406,-2.051756,-0.223014,-0.192907,0.115603,-0.139654,-0.331984,-0.932890,0.028158,0.019896,0.142866,-11.056471,0.133929,-32.520538,,,,,,,
1504199781.016978,-0.150744,0.337007,-2.051510,-0.104253,-0.211899,0.018709,-0.141726,-0.330664,-0.933046,0.032626,0.044013,0.134462,-11.056471,0.133929,-32.520538,,,,,,,
1504199781.026987,-0.152615,0.336929,-2.052076,0.012592,-0.201044,-0.073972,-0.143475,-0.330590,-0.932805,0.029446,0.068398,0.123067,-11.132002,0.433291,-32.372955,,,,,,,
1504199781.036997,-0.153876,0.337930,-2.053215,0.102950,-0.146315,-0.133687,-0.144601,-0.331535,-0.932296,0.015405,0.069252,0.114730,-11.132002,0.433291,-32.372955,,,,,,,
1504199781.047007,-0.154343,0.339605,-2.054542,0.156978,-0.071085,-0.149737,-0.144951,-0.333114,-0.931678,-0.012413,0.047668,0.112403,-11.131437,0.208285,-32.371246,,,,,,,
1504199781.057017,-0.154061,0.341493,-2.055668,0.172439,0.009748,-0.125302,-0.144592,-0.334895,-0.931095,-0.044877,0.018076,0.109913,-11.131437,0.208285,-32.371246,,,,,,,
1504199781.067025,-0.153253,0.343244,-2.056166,0.160907,0.081161,-0.051797,-0.143749,-0.336544,-0.930631,-0.074162,-0.008931,0.103010,-11.281202,-0.016934,-32.594940,,,,,,,
1504199781.077035,-0.152325,0.344551,-2.055666,0.126491,0.113302,0.054827,-0.142819,-0.337774,-0.930329,-0.096042,-0.031946,0.093705,-11.281202,-0.016934,-32.594940,,,,,,,
1504199781.087045,-0.159833,0.349264,-2.051232,0.080674,0.074059,0.191465,-0.149545,-0.342206,-0.927648,-0.102424,-0.043673,0.077932,-11.280867,-0.017392,-32.369934,,,,,,,
1504199781.097055,-0.160838,0.349290,-2.048044,0.040857,-0.017396,0.327118,-0.150475,-0.342230,-0.927489,-0.100242,-0.048028,0.057021,-11.280867,-0.017392,-32.369934,,,,,,,
1504199781.107064,-0.163472,0.348844,-2.043795,0.014768,-0.152609,0.421242,-0.152942,-0.341812,-0.927240,-0.082516,-0.044846,0.039132,-10.981428,0.208957,-32.370880,,,,,,,
1504199781.117074,-0.167767,0.348095,-2.038998,-0.004783,-0.302743,0.464169,-0.156966,-0.341107,-0.926827,-0.054216,-0.027179,0.022575,-10.981428,0.208957,-32.370880,,,,,,,
1504199781.127084,-0.175095,0.347169,-2.033685,-0.010076,-0.440152,0.448394,-0.163808,-0.340237,-0.925962,-0.020335,0.001110,0.007246,-11.282179,0.507617,-32.373871,,,,,,,
1504199781.137094,-0.181618,0.346513,-2.029260,0.018316,-0.516003,0.410151,-0.169886,-0.339621,-0.925093,0.002359,0.025290,0.000288,-11.282179,0.507617,-32.373871,,,,,,,
1504199781.147104,-0.188238,0.346525,-2.025204,0.094260,-0.521907,0.362260,-0.176005,-0.339632,-0.923944,0.010387,0.040163,0.007883,-11.431623,0.506198,-31.999207,,,,,,,
1504199781.157114,-0.194590,0.347728,-2.021466,0.218450,-0.502627,0.308003,-0.181792,-0.340762,-0.922406,0.005660,0.047504,0.022702,-11.431623,0.506198,-31.999207,,,,,,,
1504199781.167124,-0.200984,0.350033,-2.017877,0.376758,-0.485759,0.253811,-0.187528,-0.342929,-0.920452,-0.004961,0.042209,0.034024,-11.656431,0.205920,-32.372559,,,,,,,
1504199781.177134,-0.206982,0.354743,-2.014263,0.585043,-0.469338,0.233862,-0.192712,-0.347350,-0.917720,-0.016608,0.033873,0.030788,-11.656431,0.205920,-32.372559,,,,,,,
1504199781.187144,-0.213064,0.361767,-2.010023,0.831566,-0.454332,0.246004,-0.197768,-0.353928,-0.914124,-0.023865,0.014160,0.024735,-11.880980,0.204318,-32.073090,,,,,,,
1504199781.197153,-0.219228,0.371164,-2.005015,1.077129,-0.426529,0.257055,-0.202668,-0.362701,-0.909601,-0.029846,-0.000916,0.013834,-11.880980,0.204318,-32.073090,,,,,,,
1504199781.207133,-0.225448,0.382608,-1.999222,1.268322,-0.388696,0.275465,-0.207380,-0.373342,-0.904218,-0.038180,-0.007564,-0.001971,-12.253752,-0.547818,-31.843384,,,,,,,
1504199781.217141,-0.231543,0.395004,-1.992846,1.355887,-0.363869,0.300124,-0.211809,-0.384812,-0.898364,-0.045576,-0.007553,-0.016492,-12.253752,-0.547818,-31.843384,,,,,,,
1504199781.227151,-0.237748,0.407606,-1.986164,1.370841,-0.359733,0.303344,-0.216219,-0.396413,-0.892248,-0.035337,0.020986,-0.048411,-12.777617,-1.000180,-31.841278,,,,,,,
1504199781.237161,-0.244141,0.420348,-1.979396,1.387885,-0.368389,0.294850,-0.220680,-0.408079,-0.885874,-0.023460,0.056012,-0.093924,-12.777617,-1.000180,-31.841278,,,,,,,
1504199781.247171,-0.250812,0.433306,-1.972640,1.419794,-0.397395,0.268271,-0.225254,-0.419874,-0.879185,-0.012081,0.076642,-0.139659,-12.925810,-1.676007,-31.761627,,,,,,,
1504199781.257180,-0.257944,0.446873,-1.966168,1.470865,-0.451036,0.210815,-0.230044,-0.432148,-0.871968,-0.003019,0.064594,-0.177867,-12.925810,-1.676007,-31.761627,,,,,,,
1504199781.267190,-0.265530,0.461081,-1.960141,1.524148,-0.506806,0.134152,-0.235016,-0.444916,-0.864186,-0.006317,0.034699,-0.210705,-13.223433,-2.577512,-31.680573,,,,,,,
1504199781.277200,-0.273489,0.476267,-1.954982,1.607427,-0.581947,0.002071,-0.240035,-0.458465,-0.855683,-0.010743,0.009078,-0.228057,-13.223433,-2.577512,-31.680573,,,,,,,
1504199781.287210,-0.281310,0.493015,-1.950620,1.761697,-0.578829,-0.119351,-0.244553,-0.473284,-0.846283,-0.011428,0.011523,-0.235351,-13.446547,-3.104276,-31.302185,,,,,,,
1504199781.297220,-0.288761,0.511948,-1.946493,1.972656,-0.534658,-0.203388,-0.248255,-0.489876,-0.835698,0.001811,-0.023811,-0.202358,-13.446547,-3.104276,-31.302185,,,,,,,
1504199781.307230,-0.295985,0.532801,-1.942035,2.134323,-0.480552,-0.228821,-0.251251,-0.507948,-0.823931,-0.002243,-0.052950,-0.165220,-13.592588,-4.455701,-30.917450,,,,,,,
1504199781.317240,-0.302739,0.553297,-1.936598,2.065334,-0.373526,-0.129861,-0.253653,-0.525495,-0.812105,-0.000498,-0.015917,-0.154448,-13.592588,-4.455701,-30.917450,,,,,,,
1504199781.327250,-0.309699,0.572056,-1.930234,1.903906,-0.353117,-0.033043,-0.256249,-0.541362,-0.800789,0.008889,-0.013982,-0.149040,-14.114119,-5.658658,-30.609711,,,,,,,
1504199781.337260,-0.316416,0.588775,-1.924163,1.691733,-0.337512,-0.037708,-0.258770,-0.555342,-0.790337,0.007381,0.040343,-0.220939,-14.114119,-5.658658,-30.609711,,,,,,,
1504199781.347269,-0.322782,0.603654,-1.919349,1.486888,-0.382634,-0.111634,-0.261145,-0.567655,-0.780751,0.000113,0.049115,-0.262813,-14.411222,-6.635602,-30.303101,,,,,,,
1504199781.357279,-0.329071,0.616878,-1.916370,1.278549,-0.486299,-0.220687,-0.263601,-0.578492,-0.771921,-0.000620,0.029816,-0.288687,-14.411222,-6.635602,-30.303101,,,,,,,
1504199781.367289,-0.335677,0.628609,-1.915204,1.096487,-0.629625,-0.313614,-0.266441,-0.588020,-0.763703,0.001670,0.042076,-0.319275,-14.483885,-7.610806,-30.370972,,,,,,,
1504199781.377299,-0.342999,0.639014,-1.915495,0.931243,-0.791226,-0.385131,-0.269953,-0.596404,-0.755928,-0.002889,0.055358,-0.330772,-14.483885,-7.610806,-30.370972,,,,,,,
1504199781.387307,-0.351590,0.648142,-1.917165,0.781422,-1.022224,-0.451162,-0.274551,-0.603706,-0.748439,-0.024094,0.049858,-0.314519,-14.931990,-8.138577,-29.993164,,,,,,,
1504199781.397317,-0.362374,0.656629,-1.919059,0.729380,-1.241339,-0.422046,-0.280780,-0.610450,-0.740617,-0.047391,0.007118,-0.277388,-14.931990,-8.138577,-29.993164,,,,,,,
1504199781.407327,-0.375469,0.664600,-1.920128,0.715820,-1.426713,-0.353429,-0.288660,-0.616744,-0.732327,-0.050284,0.002181,-0.254566,-15.229475,-8.741269,-29.314362,,,,,,,
1504199781.417337,-0.391549,0.672532,-1.920406,0.730737,-1.674092,-0.317743,-0.298521,-0.622969,-0.723046,-0.021761,0.000456,-0.223015,-15.229475,-8.741269,-29.314362,,,,,,,
1504199781.427346,-0.409594,0.680507,-1.920897,0.712065,-1.900866,-0.360071,-0.309531,-0.629188,-0.712961,-0.009271,-0.015054,-0.217627,-15.827696,-9.269559,-29.011932,,,,,,,
1504199781.437356,-0.430159,0.687905,-1.922294,0.599890,-2.220630,-0.415207,-0.322177,-0.634920,-0.702196,-0.010007,0.040956,-0.207289,-15.827696,-9.269559,-29.011932,,,,,,,
1504199781.447366,-0.453312,0.694676,-1.925023,0.497162,-2.579866,-0.502278,-0.336457,-0.640137,-0.690668,0.006363,0.088379,-0.224341,-16.800749,-9.725003,-28.485931,,,,,,,
1504199781.457376,-0.478820,0.701433,-1.929184,0.452561,-2.889473,-0.612819,-0.351962,-0.645313,-0.678007,0.018176,0.087833,-0.210649,-16.800749,-9.725003,-28.485931,,,,,,,
