timestamp(unix),attitude_roll(radians),attitude_pitch(radians),attitude_yaw(radians),rotation_rate_x(radians/s),rotation_rate_y(radians/s),rotation_rate_z(radians/s),gravity_x(G),gravity_y(G),gravity_z(G),user_acc_x(G),user_acc_y(G),user_acc_z(G),magnetic_field_x(microteslas),magnetic_field_y(microteslas),magnetic_field_z(microteslas),latitude(degree),longitude(degree),altitude(meter),speed(m/s),course(degree),timestamp(unix),User Mark
1504195894.373005,0.009751,0.318684,-0.169339,0.100239,-0.088315,-0.009618,0.009260,-0.313317,-0.949603,-0.005155,-0.004524,-0.020321,12.725252,-1.113843,-30.126678,,,,,,,
1504195894.383014,0.009576,0.319388,-0.169332,0.060388,0.006838,0.004022,0.009092,-0.313986,-0.949384,-0.012098,-0.004862,-0.019793,12.649492,-1.038434,-30.502441,,,,,,,
1504195894.393024,0.010222,0.319774,-0.169227,0.033251,0.086974,0.011305,0.009703,-0.314352,-0.949257,-0.015380,-0.005488,-0.011543,12.649492,-1.038434,-30.502441,,,,,,,
1504195894.403034,0.011487,0.319972,-0.169106,0.015590,0.142569,0.012229,0.010904,-0.314540,-0.949181,-0.014917,-0.003544,-0.008445,12.724001,-0.887952,-30.578400,,,,,,,
1504195894.413044,0.012711,0.320002,-0.168888,0.005020,0.155418,0.012197,0.012065,-0.314568,-0.949158,-0.010341,-0.001777,-0.009155,12.724001,-0.887952,-30.578400,,,,,,,
1504195894.423053,0.014110,0.320037,-0.168748,0.003803,0.137312,0.013294,0.013393,-0.314602,-0.949129,-0.004024,-0.003636,-0.008222,12.800432,-1.412763,-30.499237,,,,,,,
1504195894.433063,0.015122,0.320080,-0.168597,0.005585,0.094671,0.015508,0.014354,-0.314642,-0.949102,0.005361,-0.004632,-0.004557,12.800432,-1.412763,-30.499237,,,,,,,
1504195894.443073,0.015627,0.320210,-0.168446,0.015850,0.043439,0.014548,0.014832,-0.314766,-0.949054,0.012252,-0.006600,-0.000058,12.649981,-1.188581,-30.426300,,,,,,,
1504195894.453083,0.016269,0.320727,-0.168509,0.038979,-0.003582,0.011450,0.015439,-0.315257,-0.948881,0.018222,-0.004049,0.005262,12.649981,-1.188581,-30.426300,,,,,,,
1504195894.463062,0.015889,0.321196,-0.168435,0.049359,-0.043090,0.006201,0.015076,-0.315702,-0.948739,0.021637,-0.002124,0.014504,13.024904,-1.112058,-30.350952,,,,,,,
1504195894.473072,0.016055,0.321953,-0.168637,0.063172,-0.054858,0.001953,0.015229,-0.316420,-0.948497,0.021987,-0.000337,0.014018,13.024904,-1.112058,-30.350952,,,,,,,
1504195894.483082,0.016197,0.322735,-0.168880,0.083597,-0.041115,-0.006593,0.015360,-0.317162,-0.948247,0.018225,0.003884,0.010076,12.575396,-1.264218,-30.275940,,,,,,,
1504195894.493091,0.016316,0.323620,-0.169143,0.099804,-0.020963,-0.016219,0.015469,-0.318000,-0.947964,0.010349,0.007362,0.011914,12.575396,-1.264218,-30.275940,,,,,,,
1504195894.503101,0.016505,0.324662,-0.169462,0.103176,-0.004983,-0.024786,0.015642,-0.318989,-0.947629,0.005476,0.004642,0.011625,12.650286,-1.263730,-30.350739,,,,,,,
1504195894.513111,0.016782,0.325648,-0.169848,0.087339,0.009020,-0.034448,0.015899,-0.319923,-0.947310,0.003098,0.003211,0.014235,12.650286,-1.263730,-30.350739,,,,,,,
1504195894.523121,0.017156,0.326486,-0.170252,0.072503,0.020871,-0.034496,0.016249,-0.320716,-0.947036,0.002321,0.000907,0.008758,12.799761,-0.963361,-30.202637,,,,,,,
1504195894.533130,0.017574,0.327258,-0.170634,0.071506,0.029406,-0.033446,0.016640,-0.321448,-0.946781,0.000541,0.000632,0.007313,12.799761,-0.963361,-30.202637,,,,,,,
1504195894.543140,0.017923,0.327992,-0.171014,0.084308,0.028232,-0.036622,0.016967,-0.322143,-0.946539,-0.002883,0.006362,0.007559,12.950502,-1.262692,-30.200012,,,,,,,
1504195894.553150,0.018177,0.328904,-0.171339,0.118251,0.011955,-0.025861,0.017201,-0.323006,-0.946241,-0.001393,0.010979,0.008680,12.950502,-1.262692,-30.200012,,,,,,,
1504195894.563160,0.017976,0.330037,-0.171384,0.149727,-0.029902,0.008424,0.017005,-0.324078,-0.945877,-0.001365,0.016476,0.010224,12.800508,-1.263364,-30.200378,,,,,,,
1504195894.573169,0.017351,0.331496,-0.171146,0.168609,-0.056718,0.026649,0.016406,-0.325458,-0.945414,-0.000002,0.011172,0.005107,12.800508,-1.263364,-30.200378,,,,,,,
1504195894.583179,0.016645,0.332901,-0.170885,0.159980,-0.065173,0.027715,0.015730,-0.326786,-0.944967,0.000337,0.012821,0.004690,13.025393,-1.262204,-30.274811,,,,,,,
1504195894.593189,0.015866,0.333623,-0.170685,0.122378,-0.092551,0.024487,0.014991,-0.327468,-0.944743,0.007226,0.030975,0.012996,13.025393,-1.262204,-30.274811,,,,,,,
1504195894.603199,0.014909,0.334429,-0.170556,0.077511,-0.103883,0.015886,0.014082,-0.328230,-0.944493,0.005876,0.003950,-0.001491,13.100542,-1.411572,-30.423492,,,,,,,
1504195894.613208,0.014137,0.334826,-0.170477,0.039230,-0.087564,0.014716,0.013352,-0.328605,-0.944373,0.009048,0.003501,-0.001382,13.100542,-1.411572,-30.423492,,,,,,,
1504195894.623218,0.013556,0.335035,-0.170321,0.009636,-0.051085,0.017800,0.012801,-0.328802,-0.944312,0.004059,0.000738,0.007423,12.726458,-1.638700,-30.197754,,,,,,,
1504195894.633228,0.013178,0.335243,-0.170097,-0.002767,-0.004107,0.016634,0.012444,-0.328999,-0.944248,-0.005486,-0.005047,0.011250,12.726458,-1.638700,-30.197754,,,,,,,
1504195894.643238,0.013184,0.335407,-0.169778,-0.002432,0.041683,0.026168,0.012449,-0.329154,-0.944194,-0.008589,-0.003579,0.013652,12.576113,-1.414670,-30.049805,,,,,,,
1504195894.653248,0.013435,0.335622,-0.169308,-0.000052,0.076790,0.036795,0.012685,-0.329357,-0.944120,-0.012914,-0.002598,0.018232,12.576113,-1.414670,-30.049805,,,,,,,
1504195894.663257,0.013848,0.335800,-0.168742,-0.008468,0.093874,0.044233,0.013074,-0.329525,-0.944056,-0.013792,-0.002491,0.020655,12.950274,-1.262387,-30.350006,,,,,,,
1504195894.673237,0.014494,0.335875,-0.168211,-0.021141,0.104618,0.039932,0.013684,-0.329595,-0.944023,-0.010907,-0.006877,0.013283,12.950274,-1.262387,-30.350006,,,,,,,
1504195894.683246,0.015201,0.335749,-0.167812,-0.027483,0.102532,0.027124,0.014352,-0.329476,-0.944055,-0.010736,-0.004264,0.006631,12.576754,-1.714520,-30.122559,,,,,,,
1504195894.693256,0.015737,0.335609,-0.167525,-0.027773,0.062034,0.022930,0.014858,-0.329345,-0.944093,-0.006420,-0.004762,0.005494,12.576754,-1.714520,-30.122559,,,,,,,
1504195894.703266,0.015667,0.335589,-0.167226,-0.015559,-0.011602,0.026286,0.014793,-0.329326,-0.944100,-0.002998,-0.006322,0.005395,13.025927,-1.561902,-30.422546,,,,,,,
1504195894.713276,0.014850,0.335782,-0.167013,0.005166,-0.095947,0.017932,0.014021,-0.329508,-0.944049,0.000658,-0.007727,0.005526,13.025927,-1.561902,-30.422546,,,,,,,
1504195894.723285,0.013423,0.336196,-0.166917,0.022876,-0.157882,0.008464,0.012671,-0.329898,-0.943932,0.003686,-0.007703,0.007729,12.876451,-1.638028,-30.197388,,,,,,,
1504195894.733295,0.011799,0.336651,-0.166978,0.021827,-0.169572,-0.009664,0.011136,-0.330328,-0.943801,0.003650,-0.005961,0.012282,12.876451,-1.638028,-30.197388,,,,,,,
1504195894.743305,0.010474,0.336921,-0.167180,0.009568,-0.112986,-0.025792,0.009885,-0.330582,-0.943725,-0.003232,-0.003600,0.008453,13.100954,-1.486859,-30.272949,,,,,,,
1504195894.753315,0.009868,0.336927,-0.167457,0.000747,-0.022347,-0.037700,0.009313,-0.330589,-0.943729,-0.011220,0.001075,-0.000912,13.100954,-1.486859,-30.272949,,,,,,,
1504195894.763324,0.009888,0.336786,-0.167674,-0.008246,0.057600,-0.033570,0.009333,-0.330455,-0.943775,-0.022150,0.004512,0.000874,12.726076,-1.488706,-30.198883,,,,,,,
1504195894.773334,0.010314,0.336532,-0.167702,-0.022999,0.093888,-0.013363,0.009735,-0.330216,-0.943855,-0.023117,0.001755,-0.002861,12.726076,-1.488706,-30.198883,,,,,,,
1504195894.783344,0.010809,0.336229,-0.167514,-0.030566,0.094957,0.007985,0.010204,-0.329930,-0.943950,-0.020351,-0.003017,-0.009175,12.951189,-1.712094,-30.496643,,,,,,,
1504195894.793354,0.011300,0.335946,-0.167264,-0.021080,0.084191,0.013368,0.010668,-0.329662,-0.944039,-0.014956,-0.002980,-0.013252,12.951189,-1.712094,-30.496643,,,,,,,
1504195894.803364,0.011797,0.335769,-0.167097,-0.002010,0.065908,0.009169,0.011138,-0.329495,-0.944092,-0.008406,0.001111,-0.011872,12.951525,-1.712537,-30.271637,,,,,,,
1504195894.813373,0.012197,0.335739,-0.167093,0.014939,0.042334,-0.006767,0.011516,-0.329467,-0.944097,-0.004741,0.005462,-0.005992,12.951525,-1.712537,-30.271637,,,,,,,
1504195894.823383,0.012429,0.335882,-0.167311,0.029736,0.013457,-0.026969,0.011734,-0.329602,-0.944047,-0.002991,0.004483,-0.004729,12.801714,-1.788220,-30.271423,,,,,,,
1504195894.833393,0.012492,0.336161,-0.167658,0.030635,-0.011053,-0.033329,0.011793,-0.329865,-0.943954,0.000003,0.001771,-0.001755,12.801714,-1.788220,-30.271423,,,,,,,
1504195894.843403,0.012300,0.336456,-0.168008,0.020819,-0.036549,-0.030099,0.011610,-0.330143,-0.943859,0.000124,-0.002162,0.003140,13.025286,-1.262052,-30.349823,,,,,,,
1504195894.853412,0.012060,0.336622,-0.168287,0.004854,-0.030029,-0.025868,0.011382,-0.330301,-0.943807,-0.000030,-0.004965,-0.001246,13.025286,-1.262052,-30.349823,,,,,,,
1504195894.863422,0.012020,0.336677,-0.168505,-0.000199,0.007297,-0.021671,0.011344,-0.330352,-0.943789,-0.004051,-0.003586,-0.002988,12.501192,-1.714108,-30.497742,,,,,,,
1504195894.873432,0.012399,0.336649,-0.168614,0.004380,0.054126,-0.010001,0.011702,-0.330326,-0.943794,-0.004653,0.001347,-0.003365,12.501192,-1.714108,-30.497742,,,,,,,
1504195894.883411,0.012996,0.336606,-0.168527,0.010940,0.086007,0.007039,0.012267,-0.330285,-0.943801,-0.009016,0.007302,0.000961,12.875628,-1.487424,-30.498505,,,,,,,
1504195894.893421,0.013712,0.336634,-0.168350,0.019481,0.092310,0.013452,0.012942,-0.330312,-0.943783,-0.008365,0.008550,0.002743,12.875628,-1.487424,-30.498505,,,,,,,
1504195894.903431,0.014245,0.336794,-0.168290,0.037211,0.035700,0.001842,0.013444,-0.330463,-0.943723,-0.000657,0.009051,0.001585,13.026644,-1.712354,-30.196442,,,,,,,
1504195894.913440,0.014051,0.337303,-0.168630,0.059917,-0.081648,-0.033143,0.013258,-0.330943,-0.943558,0.011034,0.005549,0.008209,13.026644,-1.712354,-30.196442,,,,,,,
1504195894.923450,0.013048,0.338325,-0.169421,0.093303,-0.199065,-0.065983,0.012308,-0.331908,-0.943232,0.022863,-0.000795,0.026941,12.951555,-1.637845,-30.122192,,,,,,,
1504195894.933460,0.011362,0.339572,-0.170379,0.094146,-0.237388,-0.077668,0.010713,-0.333083,-0.942837,0.019926,-0.000810,0.034206,12.951555,-1.637845,-30.122192,,,,,,,
1504195894.943470,0.009985,0.340607,-0.171043,0.045660,-0.148560,-0.045893,0.009411,-0.334060,-0.942505,0.010394,-0.004518,0.055115,13.025805,-1.561749,-30.497559,,,,,,,
1504195894.953479,0.009359,0.340644,-0.171063,-0.016253,0.007454,-0.003567,0.008821,-0.334094,-0.942498,-0.016649,0.004138,0.013925,13.025805,-1.561749,-30.497559,,,,,,,
1504195894.963489,0.009828,0.340021,-0.170759,-0.094267,0.134839,0.014237,0.009265,-0.333507,-0.942702,-0.027179,-0.005360,0.005553,12.802309,-1.938519,-30.120300,,,,,,,
1504195894.973499,0.011124,0.338771,-0.170436,-0.134300,0.196933,0.011940,0.010492,-0.332328,-0.943106,-0.026407,-0.006615,-0.009745,12.802309,-1.938519,-30.120300,,,,,,,
1504195894.983509,0.012785,0.337421,-0.170297,-0.127790,0.200065,-0.005121,0.012064,-0.331055,-0.943534,-0.019525,-0.005600,-0.014824,12.876970,-1.713468,-29.971832,,,,,,,
1504195894.993519,0.014258,0.336547,-0.170408,-0.084396,0.145363,-0.020955,0.013458,-0.330230,-0.943805,-0.010146,-0.007279,-0.004880,12.876970,-1.713468,-29.971832,,,,,,,
1504195895.003528,0.015045,0.336175,-0.170620,-0.027503,0.054315,-0.021761,0.014203,-0.329879,-0.943916,-0.003552,-0.002473,-0.001564,13.025957,-1.487195,-30.273132,,,,,,,
1504195895.013538,0.014873,0.336397,-0.170782,0.027036,-0.056963,-0.009731,0.014038,-0.330088,-0.943846,0.003479,-0.003698,0.001265,13.025957,-1.487195,-30.273132,,,,,,,
1504195895.023548,0.013741,0.337126,-0.170911,0.061496,-0.152075,-0.008442,0.012967,-0.330777,-0.943620,0.008135,-0.007679,0.005906,12.951189,-1.487836,-30.123322,,,,,,,
1504195895.033558,0.012088,0.338060,-0.171190,0.074036,-0.197967,-0.025424,0.011404,-0.331657,-0.943331,0.010722,-0.008950,0.006152,12.951189,-1.487836,-30.123322,,,,,,,
1504195895.043567,0.010472,0.339009,-0.171711,0.072125,-0.187257,-0.048935,0.009876,-0.332553,-0.943033,0.009762,-0.008954,0.007227,12.951342,-1.637540,-30.272186,,,,,,,
1504195895.053577,0.009327,0.339792,-0.172405,0.055670,-0.124228,-0.068290,0.008794,-0.333291,-0.942783,0.003124,-0.006644,0.008350,12.951342,-1.637540,-30.272186,,,,,,,
1504195895.063587,0.008835,0.340252,-0.173125,0.023308,-0.038722,-0.071694,0.008328,-0.333725,-0.942634,-0.006955,-0.005646,0.007209,12.726076,-1.488706,-30.198883,,,,,,,
1504195895.073597,0.008962,0.340368,-0.173687,-0.010355,0.030782,-0.053722,0.008447,-0.333834,-0.942594,-0.011591,-0.008436,-0.000094,12.726076,-1.488706,-30.198883,,,,,,,
1504195895.083606,0.009310,0.340184,-0.173931,-0.038030,0.055467,-0.024984,0.008777,-0.333661,-0.942652,-0.014239,-0.008747,-0.002477,12.800814,-1.562772,-30.498138,,,,,,,
1504195895.093586,0.009696,0.339855,-0.174025,-0.049840,0.051273,-0.014316,0.009141,-0.333351,-0.942759,-0.010911,-0.010674,-0.005880,12.800814,-1.562772,-30.498138,,,,,,,
1504195895.103595,0.009947,0.339487,-0.174174,-0.042633,0.014981,-0.018506,0.009379,-0.333004,-0.942879,-0.004252,-0.007771,-0.006874,12.801104,-1.637921,-30.422546,,,,,,,
1504195895.113605,0.009839,0.339171,-0.174406,-0.030222,-0.036263,-0.021598,0.009278,-0.332706,-0.942985,0.001998,-0.002454,-0.002846,12.801104,-1.637921,-30.422546,,,,,,,
1504195895.123600,0.009254,0.338944,-0.174720,-0.012518,-0.093935,-0.027874,0.008727,-0.332491,-0.943066,0.006990,0.001086,-0.003818,12.800463,-1.338056,-30.349823,,,,,,,
1504195895.133610,0.008251,0.338924,-0.175151,0.020300,-0.132544,-0.040562,0.007782,-0.332472,-0.943081,0.007080,0.005781,-0.007328,12.800463,-1.338056,-30.349823,,,,,,,
1504195895.143620,0.007071,0.339159,-0.175678,0.057509,-0.149884,-0.045808,0.006669,-0.332694,-0.943011,0.007583,0.012473,-0.004468,12.650927,-1.339337,-30.050171,,,,,,,
1504195895.153630,0.005756,0.339637,-0.176150,0.089464,-0.150147,-0.041483,0.005428,-0.333145,-0.942860,0.003590,0.018524,-0.004085,12.650927,-1.339337,-30.050171,,,,,,,
1504195895.163640,0.004479,0.340243,-0.176545,0.098130,-0.127849,-0.038303,0.004223,-0.333716,-0.942664,-0.002208,0.019751,-0.005090,12.651033,-1.563733,-30.348511,,,,,,,
1504195895.173650,0.003480,0.340830,-0.176879,0.093075,-0.086265,-0.034110,0.003279,-0.334269,-0.942472,-0.006545,0.019557,-0.006655,12.651033,-1.563733,-30.348511,,,,,,,
1504195895.183660,0.002923,0.341258,-0.177068,0.068930,-0.025357,-0.021442,0.002755,-0.334672,-0.942330,-0.011010,0.016099,-0.008979,12.501451,-1.639707,-30.198303,,,,,,,
1504195895.193669,0.002813,0.341413,-0.177080,0.028782,0.034605,-0.008797,0.002651,-0.334819,-0.942279,-0.018550,0.010829,-0.008206,12.501451,-1.639707,-30.198303,,,,,,,
1504195895.203679,0.003005,0.341234,-0.176934,-0.006245,0.066816,0.002840,0.002832,-0.334650,-0.942338,-0.021600,0.008265,-0.007537,12.426378,-1.789456,-30.497375,,,,,,,
1504195895.213689,0.003448,0.340926,-0.176733,-0.017876,0.084995,0.008135,0.003250,-0.334360,-0.942440,-0.017120,0.005701,-0.008641,12.426378,-1.789456,-30.497375,,,,,,,
1504195895.223699,0.003914,0.340698,-0.176577,-0.013714,0.070025,0.003908,0.003689,-0.334145,-0.942515,-0.014477,0.004311,0.000330,12.725969,-1.488553,-30.273865,,,,,,,
1504195895.233708,0.004273,0.340578,-0.176603,-0.007505,0.036945,-0.010963,0.004028,-0.334032,-0.942553,-0.007293,0.005388,0.010821,12.725969,-1.488553,-30.273865,,,,,,,
1504195895.243718,0.004450,0.340546,-0.176868,0.000843,0.001731,-0.030099,0.004195,-0.334001,-0.942563,-0.000731,0.003984,0.007444,12.576525,-1.714231,-30.272552,,,,,,,
1504195895.253728,0.004414,0.340598,-0.177314,0.003909,-0.023854,-0.043925,0.004161,-0.334051,-0.942546,0.000326,0.002706,0.009028,12.576525,-1.714231,-30.272552,,,,,,,
1504195895.263738,0.004315,0.340739,-0.177882,0.008204,-0.029204,-0.056717,0.004067,-0.334183,-0.942499,-0.000084,0.000031,0.011393,12.501040,-1.564420,-30.348877,,,,,,,
1504195895.273746,0.004253,0.340983,-0.178502,0.024309,-0.019746,-0.060974,0.004009,-0.334414,-0.942418,-0.002574,0.000811,0.009129,12.501040,-1.564420,-30.348877,,,,,,,
1504195895.283756,0.004321,0.341412,-0.179088,0.044687,-0.002877,-0.054563,0.004072,-0.334818,-0.942274,-0.003751,0.002039,0.011503,12.576189,-1.489530,-30.124237,,,,,,,
1504195895.293766,0.004502,0.341973,-0.179505,0.052228,0.016217,-0.037502,0.004242,-0.335347,-0.942085,-0.004745,0.003407,0.016182,12.576189,-1.489530,-30.124237,,,,,,,
1504195895.303777,0.004874,0.342460,-0.179738,0.038451,0.038685,-0.019419,0.004590,-0.335806,-0.941920,-0.002759,0.004125,0.018290,12.726748,-1.713849,-30.122192,,,,,,,
1504195895.313756,0.005468,0.342675,-0.179917,-0.000874,0.057123,-0.018453,0.005150,-0.336008,-0.941845,-0.000633,0.000437,0.018887,12.726748,-1.713849,-30.122192,,,,,,,
1504195895.323766,0.006300,0.342496,-0.180228,-0.045580,0.061774,-0.029217,0.005935,-0.335839,-0.941901,0.005601,-0.004722,0.015341,12.576754,-1.714520,-30.122559,,,,,,,
1504195895.333776,0.007244,0.342000,-0.180716,-0.079645,0.058890,-0.045289,0.006824,-0.335372,-0.942061,0.008892,-0.008668,0.014693,12.576754,-1.714520,-30.122559,,,,,,,
1504195895.343785,0.008274,0.341261,-0.181408,-0.109480,0.050649,-0.061347,0.007797,-0.334676,-0.942301,0.013337,-0.009929,0.021250,12.651079,-1.489041,-30.199066,,,,,,,
1504195895.353795,0.009283,0.340273,-0.182289,-0.130768,0.043406,-0.078460,0.008751,-0.333744,-0.942623,0.014229,-0.009594,0.021725,12.651079,-1.489041,-30.199066,,,,,,,
1504195895.363805,0.010298,0.339058,-0.183212,-0.143546,0.045665,-0.076362,0.009712,-0.332599,-0.943018,0.015160,-0.007840,0.014368,12.801027,-1.338803,-29.974823,,,,,,,
1504195895.373815,0.011323,0.337848,-0.184002,-0.140303,0.055237,-0.065709,0.010683,-0.331457,-0.943410,0.012480,-0.010324,0.010762,12.801027,-1.338803,-29.974823,,,,,,,
1504195895.383824,0.012226,0.336694,-0.184628,-0.131829,0.054100,-0.051821,0.011539,-0.330369,-0.943781,0.007336,-0.006393,0.016673,12.801302,-1.488660,-30.048676,,,,,,,
1504195895.393834,0.013024,0.335624,-0.185156,-0.121421,0.027384,-0.038957,0.012297,-0.329358,-0.944125,0.014436,-0.005710,0.018222,12.801302,-1.488660,-30.048676,,,,,,,
1504195895.403844,0.013388,0.334792,-0.185573,-0.101504,-0.015353,-0.028197,0.012644,-0.328573,-0.944394,0.015157,-0.010599,0.014676,12.800402,-1.263211,-30.275360,,,,,,,
1504195895.413854,0.013327,0.334219,-0.185893,-0.076238,-0.056037,-0.020621,0.012589,-0.328031,-0.944583,0.017104,-0.011721,0.013339,12.800402,-1.263211,-30.275360,,,,,,,
1504195895.423863,0.012885,0.333865,-0.186171,-0.044448,-0.083986,-0.018391,0.012173,-0.327697,-0.944705,0.014728,-0.006532,0.014437,13.025805,-1.337506,-30.124268,,,,,,,
1504195895.433872,0.012263,0.333775,-0.186400,-0.014607,-0.087417,-0.015138,0.011586,-0.327612,-0.944741,0.010844,-0.002726,0.014215,13.025805,-1.337506,-30.124268,,,,,,,
1504195895.443882,0.011679,0.333847,-0.186550,-0.000563,-0.064088,-0.010887,0.011034,-0.327680,-0.944724,0.004271,-0.001314,0.013221,12.575090,-1.189069,-30.351501,,,,,,,
1504195895.453892,0.011341,0.333813,-0.186666,-0.008703,-0.018201,-0.016316,0.010714,-0.327648,-0.944739,-0.004275,0.001873,0.009467,12.575090,-1.189069,-30.351501,,,,,,,
1504195895.463902,0.011454,0.333575,-0.186853,-0.035981,0.033169,-0.026055,0.010823,-0.327423,-0.944816,-0.009419,-0.000961,0.005683,12.650393,-1.263883,-30.275726,,,,,,,
1504195895.473912,0.012013,0.333077,-0.187100,-0.064497,0.067496,-0.028294,0.011352,-0.326952,-0.944973,-0.007843,-0.004118,0.003505,12.650393,-1.263883,-30.275726,,,,,,,
1504195895.483922,0.012679,0.332365,-0.187341,-0.083725,0.065511,-0.025118,0.011984,-0.326279,-0.945197,-0.006644,-0.005447,0.003913,12.800402,-1.263211,-30.275360,,,,,,,
1504195895.493932,0.013209,0.331691,-0.187531,-0.082886,0.039921,-0.017599,0.012489,-0.325642,-0.945411,-0.000877,-0.009761,0.003760,12.800402,-1.263211,-30.275360,,,,,,,
1504195895.503942,0.013509,0.331126,-0.187769,-0.069174,0.013180,-0.026068,0.012775,-0.325108,-0.945590,0.001568,-0.008937,0.003009,12.650591,-1.338880,-30.275177,,,,,,,
1504195895.513951,0.013752,0.330671,-0.188195,-0.048918,0.000248,-0.042024,0.013007,-0.324677,-0.945735,0.003549,-0.005599,0.003047,12.650591,-1.338880,-30.275177,,,,,,,
1504195895.523931,0.013958,0.330319,-0.188720,-0.035104,-0.010507,-0.047322,0.013203,-0.324344,-0.945847,0.006481,-0.001095,0.004486,12.574373,-1.038617,-30.577637,,,,,,,
1504195895.533940,0.014062,0.330061,-0.189189,-0.024469,-0.011661,-0.041967,0.013303,-0.324101,-0.945929,0.003634,-0.000133,0.003973,12.574373,-1.038617,-30.577637,,,,,,,
1504195895.543950,0.014161,0.329835,-0.189625,-0.024396,-0.002070,-0.040918,0.013397,-0.323887,-0.946001,0.001069,-0.000668,0.002886,12.650393,-1.263883,-30.275726,,,,,,,
1504195895.553960,0.014567,0.329513,-0.190066,-0.030506,0.035278,-0.039928,0.013782,-0.323582,-0.946100,0.001583,0.001637,0.000375,12.650393,-1.263883,-30.275726,,,,,,,
1504195895.563970,0.015544,0.329055,-0.190475,-0.034266,0.101375,-0.037917,0.014709,-0.323149,-0.946234,-0.000503,0.005400,-0.003534,12.799868,-1.187757,-30.500946,,,,,,,
1504195895.573979,0.017109,0.328515,-0.190791,-0.039109,0.169599,-0.029504,0.016193,-0.322638,-0.946384,-0.005237,0.007498,-0.002270,12.799868,-1.187757,-30.500946,,,,,,,
1504195895.583989,0.019111,0.327888,-0.190911,-0.052806,0.205917,-0.008243,0.018091,-0.322045,-0.946552,-0.004191,0.007149,-0.001462,12.800280,-1.263059,-30.350372,,,,,,,
1504195895.593999,0.021078,0.327117,-0.190870,-0.078590,0.192262,0.004546,0.019959,-0.321314,-0.946762,-0.002869,0.002314,-0.000656,12.800280,-1.263059,-30.350372,,,,,,,
1504195895.604009,0.022684,0.326203,-0.190808,-0.101497,0.131718,0.008878,0.021486,-0.320449,-0.947022,0.006835,-0.006059,-0.005828,13.099794,-1.111569,-30.425751,,,,,,,
1504195895.614017,0.023643,0.325267,-0.190787,-0.093588,0.051755,0.006889,0.022401,-0.319562,-0.947301,0.014098,-0.008411,-0.015483,13.099794,-1.111569,-30.425751,,,,,,,
1504195895.624027,0.023907,0.324620,-0.190878,-0.050369,-0.021027,-0.004659,0.022656,-0.318949,-0.947501,0.016757,-0.004537,-0.014810,13.250048,-1.036481,-30.125946,,,,,,,
1504195895.634037,0.023661,0.324579,-0.191198,0.014334,-0.081186,-0.024734,0.022424,-0.318910,-0.947520,0.020118,-0.003310,-0.010107,13.250048,-1.036481,-30.125946,,,,,,,
1504195895.644047,0.022963,0.325090,-0.191718,0.078122,-0.120033,-0.042710,0.021758,-0.319394,-0.947372,0.015550,0.004498,-0.006058,13.024828,-1.037198,-30.276520,,,,,,,
1504195895.654058,0.021952,0.325977,-0.192377,0.121741,-0.142743,-0.057545,0.020795,-0.320234,-0.947110,0.009937,0.012968,-0.004718,13.024828,-1.037198,-30.276520,,,,,,,
1504195895.664067,0.020806,0.327079,-0.193054,0.132376,-0.144954,-0.057527,0.019702,-0.321278,-0.946780,0.006787,0.011723,-0.004941,12.574709,-0.814816,-29.979309,,,,,,,
1504195895.674077,0.019733,0.328130,-0.193659,0.116498,-0.123514,-0.051190,0.018679,-0.322273,-0.946462,0.003813,0.007713,-0.009424,12.574709,-0.814816,-29.979309,,,,,,,
1504195895.684087,0.019014,0.328951,-0.194183,0.078480,-0.072057,-0.048144,0.017993,-0.323051,-0.946211,-0.000491,0.001228,-0.009646,12.724825,-1.038541,-30.277252,,,,,,,
1504195895.694097,0.018993,0.329337,-0.194681,0.024671,0.004040,-0.047303,0.017971,-0.323415,-0.946086,-0.001217,-0.004389,-0.010365,12.724825,-1.038541,-30.277252,,,,,,,
1504195895.704106,0.019728,0.329205,-0.195199,-0.027000,0.077992,-0.050724,0.018667,-0.323291,-0.946116,-0.003012,-0.005170,-0.011923,12.874758,-0.963025,-30.202454,,,,,,,
1504195895.714116,0.021113,0.328673,-0.195704,-0.057454,0.138980,-0.050883,0.019982,-0.322787,-0.946261,-0.002816,-0.004941,-0.013655,12.874758,-0.963025,-30.202454,,,,,,,
1504195895.724126,0.022866,0.327997,-0.196239,-0.064717,0.163550,-0.053074,0.021645,-0.322147,-0.946442,-0.002282,-0.003125,-0.011123,12.799837,-1.038205,-30.277069,,,,,,,
1504195895.734105,0.024676,0.327408,-0.196839,-0.052010,0.149602,-0.056232,0.023363,-0.321589,-0.946591,0.002730,-0.002065,-0.006473,12.799837,-1.038205,-30.277069,,,,,,,
1504195895.744115,0.026301,0.327042,-0.197502,-0.025641,0.111040,-0.057192,0.024904,-0.321243,-0.946669,0.009916,-0.000717,-0.003404,12.950319,-1.187680,-30.200592,,,,,,,
1504195895.754125,0.027521,0.326984,-0.198207,0.010264,0.063881,-0.059190,0.026059,-0.321188,-0.946657,0.014148,0.001807,-0.003920,12.950319,-1.187680,-30.200592,,,,,,,
1504195895.764134,0.028402,0.327275,-0.198944,0.047347,0.031630,-0.060146,0.026891,-0.321464,-0.946540,0.015223,0.004142,-0.004678,13.100130,-1.112012,-30.200775,,,,,,,
1504195895.774144,0.029136,0.327762,-0.199703,0.062174,0.018744,-0.060107,0.027581,-0.321925,-0.946363,0.016243,0.005214,-0.002733,13.100130,-1.112012,-30.200775,,,,,,,
1504195895.784153,0.029770,0.328293,-0.200361,0.064227,0.017670,-0.047302,0.028176,-0.322428,-0.946175,0.015067,0.005198,-0.004875,12.949938,-1.037686,-30.201721,,,,,,,
1504195895.794163,0.030348,0.328772,-0.200749,0.055628,0.027321,-0.020657,0.028718,-0.322881,-0.946004,0.012756,0.004461,-0.006999,12.949938,-1.037686,-30.201721,,,,,,,
1504195895.804173,0.030944,0.329176,-0.200836,0.042768,0.038071,0.007047,0.029278,-0.323264,-0.945856,0.011860,0.002677,-0.003912,13.025240,-1.336759,-30.499268,,,,,,,
1504195895.814183,0.031565,0.329451,-0.200639,0.028847,0.048831,0.033682,0.029862,-0.323523,-0.945749,0.011901,0.002875,-0.000830,13.025240,-1.336759,-30.499268,,,,,,,
1504195895.824193,0.032092,0.329680,-0.200189,0.025466,0.041395,0.057164,0.030359,-0.323740,-0.945659,0.013343,0.004191,0.002666,13.025774,-1.412198,-30.273682,,,,,,,
1504195895.834203,0.032362,0.329868,-0.199530,0.019866,0.020129,0.075330,0.030611,-0.323918,-0.945590,0.013563,0.005300,0.005648,13.025774,-1.412198,-30.273682,,,,,,,
1504195895.844213,0.032401,0.330022,-0.198780,0.018665,0.005235,0.077482,0.030647,-0.324064,-0.945539,0.012047,0.005414,0.004483,13.250658,-1.411038,-30.348145,,,,,,,
1504195895.854222,0.032452,0.330136,-0.198076,0.015560,0.013806,0.071051,0.030694,-0.324172,-0.945500,0.009650,0.004424,0.001515,13.250658,-1.411038,-30.348145,,,,,,,
1504195895.864232,0.032486,0.330245,-0.197355,0.015608,0.021269,0.072102,0.030725,-0.324275,-0.945464,0.004187,0.004680,0.001189,13.251665,-1.636640,-30.046448,,,,,,,
1504195895.874242,0.032365,0.330359,-0.196512,0.018737,0.019099,0.081718,0.030609,-0.324382,-0.945431,-0.002274,0.006084,0.001659,13.251665,-1.636640,-30.046448,,,,,,,
1504195895.884252,0.032154,0.330563,-0.195570,0.023982,0.013713,0.090278,0.030408,-0.324576,-0.945371,-0.003706,0.004416,0.002729,13.100725,-1.486569,-30.422943,,,,,,,
1504195895.894261,0.031855,0.330872,-0.194503,0.032421,0.009364,0.102043,0.030122,-0.324868,-0.945279,-0.003450,0.005410,0.009305,13.100725,-1.486569,-30.422943,,,,,,,
1504195895.904271,0.031416,0.331151,-0.193361,0.025879,-0.004445,0.107394,0.029704,-0.325132,-0.945202,-0.003597,0.007886,0.013043,13.026003,-1.412503,-30.123688,,,,,,,
1504195895.914281,0.030834,0.331242,-0.192261,0.003417,-0.017045,0.097773,0.029154,-0.325218,-0.945190,-0.005548,0.006874,0.012786,13.026003,-1.412503,-30.123688,,,,,,,
1504195895.924291,0.030221,0.331071,-0.191299,-0.021059,-0.017902,0.082791,0.028576,-0.325056,-0.945263,-0.005505,0.003798,0.003567,13.026415,-1.712049,-30.346436,,,,,,,
1504195895.934299,0.029728,0.330744,-0.190408,-0.034766,-0.000747,0.077404,0.028113,-0.324747,-0.945383,-0.008810,0.000940,0.000238,13.026415,-1.712049,-30.346436,,,,,,,
1504195895.944280,0.029330,0.330401,-0.189437,-0.032480,0.022650,0.083779,0.027739,-0.324422,-0.945506,-0.014830,0.001866,0.001399,13.325731,-1.485547,-30.422394,,,,,,,
1504195895.954288,0.029015,0.330187,-0.188413,-0.018504,0.037422,0.085922,0.027443,-0.324220,-0.945583,-0.020699,0.002367,0.003353,13.325731,-1.485547,-30.422394,,,,,,,
1504195895.964298,0.028716,0.330051,-0.187383,-0.005760,0.031961,0.088097,0.027163,-0.324091,-0.945636,-0.018557,0.005182,0.004214,13.176439,-1.636670,-30.196655,,,,,,,
1504195895.974308,0.028236,0.330049,-0.186328,0.019598,0.005085,0.092465,0.026709,-0.324089,-0.945650,-0.015829,0.009956,0.001314,13.176439,-1.636670,-30.196655,,,,,,,
1504195895.984318,0.027344,0.330304,-0.185176,0.049024,-0.041011,0.105412,0.025863,-0.324330,-0.945590,-0.013122,0.012593,0.001270,13.099749,-0.962018,-30.201904,,,,,,,
1504195895.994328,0.025926,0.330818,-0.183980,0.066721,-0.093391,0.107675,0.024518,-0.324817,-0.945459,-0.011212,0.010944,0.003626,13.099749,-0.962018,-30.201904,,,,,,,
1504195896.004338,0.024126,0.331466,-0.182880,0.073923,-0.132882,0.096020,0.022811,-0.325430,-0.945291,-0.009902,0.006933,-0.001700,12.876146,-1.562879,-30.272949,,,,,,,
1504195896.014348,0.022256,0.332109,-0.181935,0.072927,-0.132873,0.080013,0.021038,-0.326038,-0.945123,-0.009945,0.005222,-0.007636,12.876146,-1.562879,-30.272949,,,,,,,
1504195896.024358,0.020602,0.332715,-0.181086,0.064675,-0.101916,0.071412,0.019471,-0.326610,-0.944959,-0.014481,0.003978,-0.007251,13.100771,-1.411862,-30.273499,,,,,,,
1504195896.034368,0.019157,0.333216,-0.180234,0.051108,-0.066668,0.066000,0.018103,-0.327084,-0.944822,-0.023001,0.002667,-0.004763,13.100771,-1.411862,-30.273499,,,,,,,
1504195896.044377,0.018109,0.333545,-0.179442,0.031272,-0.018581,0.055220,0.017110,-0.327395,-0.944733,-0.027867,0.000582,-0.006287,13.101412,-1.711713,-30.346252,,,,,,,
1504195896.054387,0.017539,0.333746,-0.178776,0.020002,0.031564,0.041250,0.016570,-0.327585,-0.944676,-0.032577,0.000284,-0.008876,13.101412,-1.711713,-30.346252,,,,,,,
1504195896.064397,0.017389,0.333878,-0.178222,0.011786,0.065694,0.031584,0.016428,-0.327709,-0.944636,-0.033915,0.000500,-0.004629,13.176409,-1.711377,-30.346069,,,,,,,
1504195896.074407,0.017528,0.333952,-0.177758,0.000253,0.085998,0.024071,0.016559,-0.327780,-0.944609,-0.032794,-0.003107,-0.000688,13.176409,-1.711377,-30.346069,,,,,,,
1504195896.084416,0.017735,0.333955,-0.177327,-0.006181,0.080684,0.023015,0.016755,-0.327782,-0.944605,-0.030030,-0.004249,-0.004034,13.251329,-1.636197,-30.271454,,,,,,,
1504195896.094426,0.017754,0.333990,-0.176964,-0.007525,0.042304,0.018821,0.016772,-0.327815,-0.944593,-0.024158,-0.006765,-0.001543,13.251329,-1.636197,-30.271454,,,,,,,
1504195896.104436,0.017564,0.334093,-0.176764,0.000742,-0.000393,0.006108,0.016592,-0.327913,-0.944562,-0.013692,-0.007582,-0.000399,13.327013,-1.861005,-30.194580,,,,,,,
1504195896.114446,0.017207,0.334282,-0.176839,0.016587,-0.035674,-0.017283,0.016253,-0.328091,-0.944506,-0.006671,-0.004688,-0.000547,13.327013,-1.861005,-30.194580,,,,,,,
1504195896.124424,0.016647,0.334641,-0.177153,0.035633,-0.066721,-0.034272,0.015723,-0.328430,-0.944397,-0.003104,-0.001297,0.004700,13.551516,-1.709836,-30.270142,,,,,,,
1504195896.134434,0.015892,0.335179,-0.177527,0.049396,-0.082821,-0.037420,0.015007,-0.328939,-0.944232,-0.004326,-0.001170,0.007312,13.551516,-1.709836,-30.270142,,,,,,,
1504195896.144444,0.015058,0.335787,-0.177859,0.058997,-0.080783,-0.033135,0.014216,-0.329513,-0.944044,-0.005870,-0.000230,0.005110,13.175356,-1.336225,-30.423889,,,,,,,
1504195896.154454,0.014339,0.336472,-0.178141,0.069804,-0.061704,-0.029944,0.013534,-0.330159,-0.943828,-0.006912,0.000447,0.001201,13.175356,-1.336225,-30.423889,,,,,,,
1504195896.164433,0.013792,0.337164,-0.178507,0.071057,-0.046796,-0.043839,0.013015,-0.330812,-0.943607,-0.009994,0.003892,0.004734,13.176821,-1.786679,-30.195526,,,,,,,
1504195896.174443,0.013358,0.337662,-0.179037,0.047706,-0.041274,-0.059895,0.012603,-0.331282,-0.943448,-0.010528,0.004332,0.004605,13.176821,-1.786679,-30.195526,,,,,,,
1504195896.184453,0.013037,0.337909,-0.179689,0.024260,-0.042148,-0.067402,0.012299,-0.331515,-0.943370,-0.006959,0.001345,-0.004949,12.651522,-1.713895,-30.272369,,,,,,,
1504195896.194463,0.012697,0.338017,-0.180400,0.011488,-0.042049,-0.073824,0.011979,-0.331617,-0.943338,-0.009018,-0.000720,-0.005865,12.651522,-1.713895,-30.272369,,,,,,,
1504195896.204473,0.012434,0.338021,-0.181130,0.001952,-0.033457,-0.073851,0.011730,-0.331621,-0.943340,-0.008510,0.001497,-0.001469,13.101000,-1.636411,-30.496826,,,,,,,
1504195896.214483,0.012286,0.337946,-0.181886,-0.005409,-0.021684,-0.077083,0.011591,-0.331550,-0.943366,-0.008921,0.003684,0.004997,13.101000,-1.636411,-30.496826,,,,,,,
1504195896.224493,0.012226,0.337775,-0.182689,-0.009660,-0.021654,-0.081356,0.011535,-0.331388,-0.943424,-0.007628,0.006452,0.007618,12.876192,-1.712430,-30.496826,,,,,,,
1504195896.234501,0.012158,0.337619,-0.183604,-0.008630,-0.032314,-0.092006,0.011471,-0.331241,-0.943476,-0.005124,0.005817,0.006877,12.876192,-1.712430,-30.496826,,,,,,,
1504195896.244511,0.012118,0.337553,-0.184603,-0.001221,-0.040896,-0.094113,0.011434,-0.331179,-0.943499,0.000956,0.004900,0.009600,13.026155,-1.562207,-30.272552,,,,,,,
1504195896.254521,0.012058,0.337643,-0.185565,0.013669,-0.042088,-0.086615,0.011377,-0.331264,-0.943469,0.003088,0.004329,0.012409,13.026155,-1.562207,-30.272552,,,,,,,
1504195896.264531,0.012163,0.337935,-0.186418,0.029813,-0.017719,-0.074891,0.011474,-0.331540,-0.943371,0.004105,0.003003,0.014767,13.101595,-1.786710,-30.345703,,,,,,,
1504195896.274540,0.012490,0.338307,-0.187133,0.035335,0.012063,-0.064261,0.011782,-0.331891,-0.943244,0.000532,0.004315,0.016563,13.101595,-1.786710,-30.345703,,,,,,,
1504195896.284550,0.012997,0.338685,-0.187759,0.032223,0.028067,-0.055756,0.012259,-0.332247,-0.943113,0.001368,0.003833,0.017820,12.951403,-1.712384,-30.346649,,,,,,,
1504195896.294560,0.013577,0.338906,-0.188392,0.014087,0.027158,-0.056856,0.012805,-0.332456,-0.943032,0.004544,0.002012,0.013665,12.951403,-1.712384,-30.346649,,,,,,,
1504195896.304570,0.014204,0.339024,-0.189094,0.004408,0.015536,-0.058994,0.013395,-0.332567,-0.942985,0.012331,-0.000716,0.009925,12.726107,-1.638257,-30.422729,,,,,,,
1504195896.314580,0.014825,0.339163,-0.189860,0.007574,0.007013,-0.064319,0.013980,-0.332698,-0.942930,0.016186,-0.001760,0.009916,12.726107,-1.638257,-30.422729,,,,,,,
1504195896.324589,0.015385,0.339362,-0.190730,0.013928,-0.005793,-0.073901,0.014507,-0.332885,-0.942856,0.016392,-0.000199,0.014694,13.026522,-1.712201,-30.271423,,,,,,,
1504195896.334599,0.015889,0.339603,-0.191687,0.018165,-0.014322,-0.080293,0.014981,-0.333113,-0.942768,0.017444,0.001234,0.015308,13.026522,-1.712201,-30.271423,,,,,,,
1504195896.344609,0.016249,0.339830,-0.192640,0.016991,-0.027079,-0.078146,0.015319,-0.333327,-0.942687,0.015992,0.001433,0.014510,13.026186,-1.711759,-30.496429,,,,,,,
1504195896.354620,0.016528,0.340046,-0.193541,0.013789,-0.025971,-0.074959,0.015581,-0.333530,-0.942611,0.014250,0.000034,0.012404,13.026186,-1.711759,-30.496429,,,,,,,
1504195896.364629,0.016804,0.340194,-0.194395,0.003174,-0.019475,-0.073927,0.015841,-0.333670,-0.942557,0.011396,-0.001505,0.012869,13.100954,-1.486859,-30.272949,,,,,,,
1504195896.374609,0.017138,0.340215,-0.195277,-0.010600,-0.011884,-0.079307,0.016155,-0.333690,-0.942545,0.009663,-0.001805,0.013513,13.100954,-1.486859,-30.272949,,,,,,,
1504195896.384618,0.017459,0.340144,-0.196184,-0.019113,-0.010735,-0.080396,0.016458,-0.333623,-0.942563,0.008582,-0.001232,0.015164,13.250841,-1.486035,-30.347595,,,,,,,
1504195896.394628,0.017924,0.340063,-0.197088,-0.015778,0.006298,-0.078290,0.016897,-0.333546,-0.942582,0.008921,-0.001979,0.013108,13.250841,-1.486035,-30.347595,,,,,,,
1504195896.404637,0.018656,0.340016,-0.197937,-0.001593,0.044585,-0.076210,0.017587,-0.333502,-0.942585,0.005622,0.002905,0.013081,13.101152,-1.561872,-30.272369,,,,,,,
1504195896.414647,0.019634,0.340026,-0.198716,0.007140,0.074345,-0.068777,0.018508,-0.333512,-0.942564,0.001099,0.007187,0.014082,13.101152,-1.561872,-30.272369,,,,,,,
1504195896.424656,0.020626,0.340037,-0.199305,0.007035,0.074328,-0.048498,0.019443,-0.333522,-0.942542,0.001278,0.007671,0.013343,13.026155,-1.562207,-30.272552,,,,,,,
1504195896.434666,0.021432,0.340027,-0.199685,-0.002877,0.048822,-0.027126,0.020203,-0.333512,-0.942529,0.005813,0.002793,0.007638,13.026155,-1.562207,-30.272552,,,,,,,
1504195896.444676,0.021964,0.339995,-0.199950,-0.012834,0.011613,-0.014275,0.020705,-0.333482,-0.942529,0.013459,-0.003401,0.006006,12.951342,-1.637540,-30.272186,,,,,,,
1504195896.454686,0.022167,0.339937,-0.200181,-0.015323,-0.030970,-0.009945,0.020896,-0.333427,-0.942544,0.019646,-0.003792,0.006509,12.951342,-1.637540,-30.272186,,,,,,,
1504195896.464695,0.022067,0.339906,-0.200425,-0.006971,-0.056583,-0.013098,0.020803,-0.333399,-0.942556,0.021113,-0.002234,0.005987,13.026934,-1.787503,-30.120880,,,,,,,
1504195896.474705,0.021895,0.339969,-0.200774,0.008014,-0.058802,-0.025886,0.020640,-0.333458,-0.942539,0.018193,0.001106,0.006748,13.026934,-1.787503,-30.120880,,,,,,,
1504195896.484715,0.021875,0.340106,-0.201248,0.016830,-0.031140,-0.037668,0.020620,-0.333587,-0.942494,0.013010,0.003249,0.009755,13.026339,-1.637204,-30.272003,,,,,,,
1504195896.494725,0.022130,0.340180,-0.201656,0.005397,0.011579,-0.030295,0.020861,-0.333657,-0.942464,0.005934,0.003716,0.008855,13.026339,-1.637204,-30.272003,,,,,,,
1504195896.504735,0.022553,0.340108,-0.201781,-0.023266,0.044823,-0.004785,0.021259,-0.333589,-0.942479,0.000180,-0.001952,0.008153,13.026857,-1.712644,-30.046417,,,,,,,
1504195896.514745,0.023040,0.339740,-0.201646,-0.054104,0.067430,0.012203,0.021721,-0.333242,-0.942591,-0.005913,-0.006495,0.000224,13.026857,-1.712644,-30.046417,,,,,,,
1504195896.524755,0.023727,0.339219,-0.201439,-0.063600,0.082419,0.016432,0.022373,-0.332751,-0.942749,-0.003452,-0.007719,-0.002716,13.025805,-1.337506,-30.124268,,,,,,,
1504195896.534765,0.024565,0.338744,-0.201258,-0.052936,0.082333,0.018584,0.023167,-0.332303,-0.942888,0.002407,-0.006442,-0.000578,13.025805,-1.337506,-30.124268,,,,,,,
1504195896.544775,0.025184,0.338488,-0.201041,-0.025522,0.044814,0.025098,0.023753,-0.332061,-0.942959,0.006902,-0.002747,0.004680,13.250582,-1.336194,-30.273712,,,,,,,
1504195896.554783,0.025316,0.338485,-0.200838,-0.000396,-0.015053,0.026309,0.023877,-0.332059,-0.942957,0.011264,-0.001117,0.006082,13.250582,-1.336194,-30.273712,,,,,,,
1504195896.564793,0.024955,0.338682,-0.200700,0.025859,-0.070655,0.021107,0.023535,-0.332244,-0.942900,0.016276,0.001129,0.002272,13.101412,-1.711713,-30.346252,,,,,,,
1504195896.574803,0.024278,0.339096,-0.200682,0.048068,-0.101708,0.010517,0.022893,-0.332635,-0.942778,0.018488,0.002419,0.002226,13.101412,-1.711713,-30.346252,,,,,,,
1504195896.584782,0.023561,0.339590,-0.200750,0.044968,-0.095259,0.000885,0.022213,-0.333101,-0.942630,0.015751,0.001298,0.006457,13.100588,-1.336865,-30.274078,,,,,,,
1504195896.594792,0.023053,0.339927,-0.200862,0.025036,-0.057781,-0.006691,0.021732,-0.333418,-0.942529,0.008602,0.000075,0.004494,13.100588,-1.336865,-30.274078,,,,,,,
1504195896.604802,0.022890,0.339969,-0.200898,-0.005502,-0.004254,-0.001501,0.021578,-0.333458,-0.942518,0.000578,-0.001061,0.000090,12.950884,-1.412686,-30.198883,,,,,,,
1504195896.614811,0.023113,0.339759,-0.200775,-0.031853,0.044960,0.013312,0.021790,-0.333260,-0.942583,-0.004410,-0.003319,-0.000395,12.950884,-1.412686,-30.198883,,,,,,,
1504195896.624821,0.023550,0.339414,-0.200430,-0.045591,0.072750,0.032457,0.022205,-0.332934,-0.942689,-0.007892,-0.004880,-0.000350,12.875429,-1.188169,-30.125763,,,,,,,
1504195896.634831,0.024074,0.339032,-0.199957,-0.045552,0.082322,0.040984,0.022701,-0.332574,-0.942804,-0.007641,-0.004172,0.001306,12.875429,-1.188169,-30.125763,,,,,,,
1504195896.644841,0.024670,0.338697,-0.199476,-0.031758,0.074744,0.044224,0.023266,-0.332258,-0.942901,-0.002041,-0.001116,0.000305,13.026567,-1.637494,-30.122009,,,,,,,
1504195896.654851,0.025097,0.338476,-0.199063,-0.019128,0.048010,0.035754,0.023670,-0.332050,-0.942965,0.000439,0.001850,0.000857,13.026567,-1.637494,-30.122009,,,,,,,
1504195896.664860,0.025226,0.338257,-0.198842,-0.011886,0.008545,0.016621,0.023794,-0.331844,-0.943034,0.001505,0.005550,0.000041,12.801180,-1.488507,-30.123688,,,,,,,
1504195896.674870,0.025148,0.338078,-0.198811,-0.003490,-0.017079,0.001734,0.023722,-0.331674,-0.943096,0.003988,0.004800,-0.007527,12.801180,-1.488507,-30.123688,,,,,,,
1504195896.684880,0.024964,0.338073,-0.198819,0.011428,-0.019330,0.000695,0.023548,-0.331670,-0.943101,0.001644,0.003179,-0.006010,13.025576,-1.337201,-30.274261,,,,,,,
1504195896.694890,0.024757,0.338251,-0.198740,0.025359,-0.006671,0.008171,0.023352,-0.331838,-0.943047,-0.004156,0.002950,-0.000114,13.025576,-1.337201,-30.274261,,,,,,,
1504195896.704900,0.024623,0.338528,-0.198532,0.027552,0.008210,0.019893,0.023223,-0.332099,-0.942959,-0.006286,0.002509,0.003887,13.025805,-1.337506,-30.124268,,,,,,,
1504195896.714910,0.024651,0.338816,-0.198234,0.026633,0.030580,0.026260,0.023247,-0.332371,-0.942862,-0.007088,-0.000026,0.001670,13.025805,-1.337506,-30.124268,,,,,,,
1504195896.724920,0.024947,0.339020,-0.197889,0.020439,0.059388,0.030472,0.023525,-0.332563,-0.942788,-0.007549,0.000775,-0.001853,12.800768,-1.413205,-30.274231,,,,,,,
1504195896.734930,0.025404,0.339109,-0.197486,0.003400,0.068040,0.037902,0.023955,-0.332647,-0.942747,-0.005584,0.000372,0.001371,12.800768,-1.413205,-30.274231,,,,,,,
1504195896.744938,0.025829,0.339083,-0.197044,-0.013744,0.059650,0.040023,0.024356,-0.332622,-0.942746,-0.003573,-0.003727,-0.000568,13.025774,-1.412198,-30.273682,,,,,,,
1504195896.754948,0.026081,0.338901,-0.196668,-0.027788,0.032068,0.031509,0.024594,-0.332451,-0.942800,-0.001294,-0.005394,-0.003245,13.025774,-1.412198,-30.273682,,,,,,,
1504195896.764958,0.026126,0.338666,-0.196430,-0.024792,0.000088,0.021963,0.024639,-0.332229,-0.942877,0.002369,-0.003708,-0.004023,13.025545,-1.411908,-30.423676,,,,,,,
1504195896.774968,0.025921,0.338502,-0.196236,-0.014339,-0.027697,0.020961,0.024448,-0.332074,-0.942936,0.004712,-0.001315,-0.001278,13.025545,-1.411908,-30.423676,,,,,,,
1504195896.784977,0.025456,0.338401,-0.196045,-0.010200,-0.045841,0.017797,0.024010,-0.331980,-0.942981,0.002205,0.000711,0.003635,13.101030,-1.561719,-30.347382,,,,,,,
1504195896.794957,0.025000,0.338291,-0.195898,-0.000501,-0.036325,0.012460,0.023581,-0.331875,-0.943029,0.000086,0.004254,-0.002772,13.101030,-1.561719,-30.347382,,,,,,,
1504195896.804966,0.024765,0.338302,-0.195744,0.017866,-0.004515,0.015638,0.023359,-0.331886,-0.943030,-0.001966,0.006477,-0.004739,13.175844,-1.486371,-30.347778,,,,,,,
1504195896.814976,0.024774,0.338459,-0.195449,0.026579,0.027360,0.029475,0.023366,-0.332034,-0.942978,-0.005681,0.006686,0.000244,13.175844,-1.486371,-30.347778,,,,,,,
1504195896.824986,0.024896,0.338695,-0.194974,0.029870,0.048618,0.044392,0.023480,-0.332256,-0.942897,-0.009441,0.005154,0.000163,13.250765,-1.411191,-30.273132,,,,,,,
1504195896.834996,0.025002,0.338954,-0.194359,0.031911,0.044315,0.055081,0.023577,-0.332501,-0.942808,-0.010164,0.003339,-0.003344,13.250765,-1.411191,-30.273132,,,,,,,
1504195896.845006,0.024954,0.339273,-0.193737,0.034904,0.018708,0.055135,0.023529,-0.332801,-0.942703,-0.006576,0.002662,-0.000564,12.801332,-1.638211,-30.272552,,,,,,,
1504195896.855016,0.024666,0.339592,-0.193228,0.029325,-0.018533,0.044518,0.023255,-0.333103,-0.942604,-0.001572,0.002079,0.003639,12.801332,-1.638211,-30.272552,,,,,,,
1504195896.865026,0.024190,0.339867,-0.192911,0.021646,-0.053614,0.030688,0.022804,-0.333362,-0.942523,0.005257,0.001101,0.006274,13.176332,-1.636533,-30.271637,,,,,,,
1504195896.875036,0.023616,0.340065,-0.192743,0.006664,-0.067321,0.018941,0.022262,-0.333548,-0.942470,0.008927,-0.003000,0.006420,13.176332,-1.636533,-30.271637,,,,,,,
1504195896.885046,0.023038,0.340100,-0.192637,-0.008124,-0.055463,0.009286,0.021716,-0.333582,-0.942471,0.004102,-0.003790,0.004452,12.801378,-1.563519,-30.123138,,,,,,,
1504195896.895054,0.022606,0.339951,-0.192550,-0.026021,-0.028674,0.004940,0.021311,-0.333441,-0.942530,-0.002497,-0.003199,0.004832,12.801378,-1.563519,-30.123138,,,,,,,
1504195896.905064,0.022450,0.339747,-0.192392,-0.024650,0.012857,0.011278,0.021165,-0.333249,-0.942601,-0.007890,-0.002628,0.001104,13.101519,-1.711865,-30.271240,,,,,,,
1504195896.915074,0.022469,0.339550,-0.192105,-0.015906,0.043661,0.018718,0.021184,-0.333063,-0.942667,-0.015523,0.000681,0.000543,13.101519,-1.711865,-30.271240,,,,,,,
1504195896.925084,0.022584,0.339438,-0.191805,-0.007328,0.047834,0.016599,0.021294,-0.332958,-0.942701,-0.017235,0.002452,0.003248,13.176180,-1.486829,-30.122772,,,,,,,
1504195896.935093,0.022686,0.339335,-0.191637,-0.002090,0.029671,0.005972,0.021391,-0.332860,-0.942733,-0.012480,0.003789,-0.000153,13.176180,-1.486829,-30.122772,,,,,,,
1504195896.945103,0.022626,0.339291,-0.191607,0.005129,-0.005552,-0.001422,0.021334,-0.332819,-0.942750,-0.005465,0.003549,-0.002944,13.026522,-1.712201,-30.271423,,,,,,,
1504195896.955113,0.022299,0.339368,-0.191607,0.013417,-0.035461,-0.000287,0.021026,-0.332891,-0.942731,-0.002441,0.000723,-0.003635,13.026522,-1.712201,-30.271423,,,,,,,
1504195896.965123,0.021662,0.339671,-0.191545,0.028126,-0.061166,0.005123,0.020423,-0.333177,-0.942643,-0.002631,-0.002593,0.000688,13.026186,-1.487500,-30.123138,,,,,,,
1504195896.975132,0.020840,0.340116,-0.191453,0.036580,-0.072963,0.004094,0.019645,-0.333596,-0.942511,-0.004707,-0.004340,0.004355,13.026186,-1.487500,-30.123138,,,,,,,
1504195896.985142,0.020014,0.340620,-0.191405,0.044139,-0.065570,-0.001239,0.018863,-0.334071,-0.942359,-0.007083,-0.003041,0.003272,12.801149,-1.563214,-30.273132,,,,,,,
1504195896.995152,0.019366,0.341099,-0.191433,0.041150,-0.044236,-0.008749,0.018249,-0.334523,-0.942211,-0.008636,-0.000804,0.005321,12.801149,-1.563214,-30.273132,,,,,,,
1504195897.005131,0.018994,0.341442,-0.191528,0.026497,-0.014283,-0.017361,0.017897,-0.334846,-0.942103,-0.010710,-0.000115,0.003169,13.026720,-1.787198,-30.270874,,,,,,,
1504195897.015141,0.018910,0.341541,-0.191693,0.000104,0.015762,-0.024925,0.017817,-0.334939,-0.942071,-0.013514,-0.001838,0.001031,13.026720,-1.787198,-30.270874,,,,,,,
1504195897.025151,0.019156,0.341332,-0.191949,-0.026373,0.036223,-0.031407,0.018050,-0.334743,-0.942137,-0.009307,-0.002049,-0.002947,12.876558,-1.638181,-30.122375,,,,,,,
1504195897.035161,0.019683,0.340967,-0.192256,-0.037926,0.057624,-0.033596,0.018548,-0.334399,-0.942249,-0.007180,-0.003492,-0.006115,12.876558,-1.638181,-30.122375,,,,,,,
1504195897.045171,0.020321,0.340613,-0.192555,-0.031529,0.059694,-0.029317,0.019153,-0.334065,-0.942355,-0.004153,-0.001338,-0.002850,13.026445,-1.637357,-30.197021,,,,,,,
1504195897.055181,0.020843,0.340422,-0.192787,-0.008253,0.041376,-0.019637,0.019645,-0.333885,-0.942409,-0.001655,0.001625,-0.000050,13.026445,-1.637357,-30.197021,,,,,,,
1504195897.065191,0.021164,0.340512,-0.192963,0.025636,0.014453,-0.013128,0.019947,-0.333970,-0.942373,0.002285,0.004441,-0.000346,12.426332,-1.639905,-30.273468,,,,,,,
1504195897.075201,0.021222,0.340912,-0.193114,0.056306,-0.016698,-0.009820,0.019999,-0.334346,-0.942238,0.005590,0.007244,0.004296,12.426332,-1.639905,-30.273468,,,,,,,
1504195897.085209,0.021041,0.341549,-0.193266,0.075236,-0.047748,-0.005468,0.019824,-0.334947,-0.942028,0.010770,0.007020,0.005749,12.951189,-1.487836,-30.123322,,,,,,,
1504195897.095219,0.020646,0.342305,-0.193379,0.079313,-0.068019,-0.000095,0.019447,-0.335660,-0.941783,0.012764,0.004864,0.005335,12.951189,-1.487836,-30.123322,,,,,,,
1504195897.105229,0.020165,0.343069,-0.193408,0.071777,-0.071147,0.008431,0.018988,-0.336379,-0.941535,0.013009,0.003554,0.010078,13.251558,-1.636487,-30.121460,,,,,,,
1504195897.115239,0.019597,0.343719,-0.193353,0.051450,-0.074170,0.015867,0.018449,-0.336991,-0.941327,0.011992,0.000046,0.012723,13.251558,-1.636487,-30.121460,,,,,,,
1504195897.125242,0.019162,0.344182,-0.193296,0.030287,-0.055861,0.011523,0.018037,-0.337427,-0.941179,0.012175,-0.001914,0.012148,13.026262,-1.562345,-30.197571,,,,,,,
1504195897.135252,0.019018,0.344449,-0.193324,0.015640,-0.026944,0.000767,0.017900,-0.337678,-0.941091,0.011412,0.000154,0.014089,13.026262,-1.562345,-30.197571,,,,,,,
1504195897.145262,0.019116,0.344583,-0.193430,0.013743,-0.001337,-0.005690,0.017992,-0.337804,-0.941044,0.008116,0.005254,0.014042,12.801302,-1.712918,-30.421997,,,,,,,
1504195897.155272,0.019385,0.344701,-0.193498,0.014983,0.023163,-0.001464,0.018243,-0.337916,-0.941000,0.003851,0.006250,0.012838,12.801302,-1.712918,-30.421997,,,,,,,
1504195897.165282,0.019704,0.344789,-0.193437,0.009721,0.039178,0.009173,0.018543,-0.337999,-0.940964,-0.001438,0.006761,0.013260,12.876909,-1.862882,-30.270691,,,,,,,
1504195897.175291,0.019956,0.344872,-0.193238,0.009618,0.033836,0.020925,0.018780,-0.338077,-0.940931,-0.002575,0.005649,0.010740,12.876909,-1.862882,-30.270691,,,,,,,
1504195897.185301,0.020101,0.344955,-0.192995,0.007402,0.024260,0.022006,0.018916,-0.338154,-0.940901,-0.002909,0.003285,0.009504,13.026567,-1.861753,-30.495331,,,,,,,
1504195897.195311,0.020177,0.345047,-0.192770,0.011602,0.014636,0.019896,0.018986,-0.338241,-0.940868,-0.000859,0.003616,0.006771,13.026567,-1.861753,-30.495331,,,,,,,
1504195897.205321,0.020246,0.345207,-0.192629,0.019086,0.011386,0.011376,0.019050,-0.338391,-0.940813,-0.000343,0.003507,0.006303,12.801638,-1.713361,-30.197021,,,,,,,
1504195897.215300,0.020310,0.345350,-0.192606,0.019138,0.010331,-0.001430,0.019110,-0.338526,-0.940763,-0.002417,0.005656,0.006192,12.801638,-1.713361,-30.197021,,,,,,,
1504195897.225310,0.020417,0.345456,-0.192711,0.013864,0.010386,-0.014248,0.019209,-0.338626,-0.940725,-0.001891,0.005236,0.006277,12.951220,-1.637387,-30.347198,,,,,,,
1504195897.235318,0.020608,0.345541,-0.193006,0.011836,0.012551,-0.032400,0.019388,-0.338705,-0.940693,-0.001398,0.003348,0.004337,12.951220,-1.637387,-30.347198,,,,,,,
1504195897.245328,0.020950,0.345611,-0.193448,0.008769,0.022178,-0.044164,0.019710,-0.338771,-0.940662,-0.001537,0.003032,0.004887,13.026751,-1.712506,-30.121429,,,,,,,
1504195897.255338,0.021242,0.345654,-0.193924,-0.004084,0.014823,-0.045239,0.019984,-0.338812,-0.940642,-0.002223,0.000769,0.011473,13.026751,-1.712506,-30.121429,,,,,,,
1504195897.265348,0.021428,0.345627,-0.194356,-0.013760,0.007436,-0.040972,0.020159,-0.338787,-0.940647,-0.003146,-0.003117,0.008045,13.101854,-1.712308,-30.046234,,,,,,,
1504195897.275357,0.021571,0.345531,-0.194758,-0.021243,0.005362,-0.039912,0.020295,-0.338696,-0.940677,-0.003128,-0.003879,0.006992,13.101854,-1.712308,-30.046234,,,,,,,
1504195897.285367,0.021717,0.345356,-0.195157,-0.025535,0.002198,-0.038846,0.020433,-0.338532,-0.940733,-0.001650,-0.001983,0.009153,12.952013,-1.862683,-30.195526,,,,,,,
1504195897.295377,0.021902,0.345100,-0.195556,-0.034031,0.006531,-0.038868,0.020609,-0.338291,-0.940816,-0.000635,-0.002026,0.008107,12.952013,-1.862683,-30.195526,,,,,,,
1504195897.305387,0.022164,0.344776,-0.195947,-0.030764,0.016091,-0.036744,0.020858,-0.337985,-0.940920,-0.000915,0.001010,0.004183,13.251741,-1.711484,-30.120880,,,,,,,
1504195897.315397,0.022420,0.344488,-0.196254,-0.023330,0.018151,-0.027128,0.021101,-0.337715,-0.941012,-0.000822,0.002861,0.002551,13.251741,-1.711484,-30.120880,,,,,,,
1504195897.325407,0.022531,0.344278,-0.196433,-0.014967,0.004215,-0.015347,0.021207,-0.337517,-0.941080,-0.001600,0.002984,0.002024,13.026522,-1.712201,-30.271423,,,,,,,
1504195897.335417,0.022579,0.344147,-0.196533,-0.004356,0.001989,-0.007853,0.021254,-0.337394,-0.941124,0.000261,0.002891,-0.000695,13.026522,-1.712201,-30.271423,,,,,,,
1504195897.345427,0.022586,0.344072,-0.196551,0.001931,-0.005530,0.001777,0.021261,-0.337323,-0.941149,0.002131,0.005185,0.000307,12.951189,-1.487836,-30.123322,,,,,,,
1504195897.355437,0.022492,0.344017,-0.196488,-0.003489,-0.011883,0.008182,0.021172,-0.337272,-0.941169,0.002113,0.004569,0.004829,12.951189,-1.487836,-30.123322,,,,,,,
1504195897.365446,0.022294,0.343890,-0.196418,-0.015331,-0.025633,0.007117,0.020987,-0.337152,-0.941216,0.003213,0.002054,0.003960,12.951296,-1.712247,-30.421631,,,,,,,
1504195897.375455,0.022093,0.343630,-0.196424,-0.022773,-0.026625,-0.000368,0.020799,-0.336907,-0.941308,0.004057,0.002251,-0.000266,12.951296,-1.712247,-30.421631,,,,,,,
1504195897.385465,0.021944,0.343296,-0.196451,-0.024884,-0.022340,0.000685,0.020662,-0.336593,-0.941424,0.005888,0.003615,-0.002424,13.026033,-1.562055,-30.347565,,,,,,,
1504195897.395475,0.021784,0.342996,-0.196415,-0.023814,-0.018088,0.006015,0.020514,-0.336310,-0.941528,0.002832,0.003684,-0.000443,13.026033,-1.562055,-30.347565,,,,,,,
1504195897.405484,0.021604,0.342694,-0.196287,-0.026982,-0.011648,0.012395,0.020346,-0.336026,-0.941633,-0.000113,0.001553,0.000349,13.026491,-1.786908,-30.420868,,,,,,,
1504195897.415494,0.021484,0.342418,-0.196075,-0.019436,0.003197,0.019855,0.020235,-0.335765,-0.941728,-0.002794,0.000926,-0.005995,13.026491,-1.786908,-30.420868,,,,,,,
1504195897.425473,0.021468,0.342268,-0.195776,-0.005489,0.017988,0.027326,0.020221,-0.335625,-0.941779,-0.003772,0.001976,-0.005777,13.026445,-1.637357,-30.197021,,,,,,,
1504195897.435483,0.021424,0.342229,-0.195414,-0.000235,0.011542,0.032685,0.020181,-0.335587,-0.941793,-0.003228,0.001695,-0.001933,13.026445,-1.637357,-30.197021,,,,,,,
1504195897.445493,0.021282,0.342153,-0.195038,0.000684,-0.005517,0.033784,0.020047,-0.335516,-0.941821,-0.000608,0.002905,-0.006451,12.876558,-1.638181,-30.122375,,,,,,,
1504195897.455503,0.021072,0.342153,-0.194753,0.007042,-0.015150,0.026340,0.019849,-0.335516,-0.941825,0.002017,0.000494,-0.008950,12.876558,-1.638181,-30.122375,,,,,,,
1504195897.465513,0.020892,0.342284,-0.194576,0.022039,-0.013130,0.016754,0.019679,-0.335640,-0.941785,0.002660,0.000908,-0.008426,12.875963,-1.487882,-30.273499,,,,,,,
1504195897.475523,0.020787,0.342577,-0.194460,0.037041,-0.007918,0.011433,0.019577,-0.335916,-0.941688,0.001586,0.002221,-0.002876,12.875963,-1.487882,-30.273499,,,,,,,
1504195897.485533,0.020730,0.342979,-0.194393,0.037126,-0.001520,0.005018,0.019522,-0.336294,-0.941555,-0.000830,0.000219,0.003475,13.176668,-1.636975,-30.046631,,,,,,,
1504195897.495543,0.020739,0.343355,-0.194400,0.024386,0.001788,-0.001414,0.019527,-0.336648,-0.941428,-0.000454,-0.003195,0.004355,13.176668,-1.636975,-30.046631,,,,,,,
1504195897.505553,0.020761,0.343590,-0.194441,0.003017,-0.003361,-0.001442,0.019546,-0.336869,-0.941348,0.001831,-0.007720,0.003803,12.876223,-1.637723,-30.347382,,,,,,,
1504195897.515562,0.020757,0.343682,-0.194465,-0.017256,-0.005323,-0.001474,0.019542,-0.336957,-0.941317,0.001851,-0.012332,0.002703,12.876223,-1.637723,-30.347382,,,,,,,
1504195897.525572,0.020737,0.343610,-0.194471,-0.027892,-0.002039,-0.000431,0.019524,-0.336888,-0.941342,0.000206,-0.010967,0.002347,12.876635,-1.713025,-30.196838,,,,,,,
1504195897.535582,0.020677,0.343454,-0.194429,-0.027962,-0.008438,0.004918,0.019468,-0.336741,-0.941396,-0.000197,-0.007238,0.001393,12.876635,-1.713025,-30.196838,,,,,,,
1504195897.545592,0.020494,0.343351,-0.194313,-0.014193,-0.017084,0.012429,0.019296,-0.336644,-0.941434,-0.000269,-0.003459,0.003232,13.100847,-1.486722,-30.347961,,,,,,,
1504195897.555600,0.020261,0.343403,-0.194188,0.003871,-0.026820,0.012476,0.019077,-0.336694,-0.941421,0.003262,-0.002204,0.003921,13.100847,-1.486722,-30.347961,,,,,,,
1504195897.565610,0.019963,0.343592,-0.194132,0.018764,-0.036522,0.006113,0.018795,-0.336871,-0.941363,0.003757,0.000888,0.007296,12.800966,-1.488217,-30.273682,,,,,,,
1504195897.575620,0.019616,0.343872,-0.194188,0.025140,-0.047213,-0.005601,0.018466,-0.337135,-0.941275,0.005047,0.001518,0.007514,12.800966,-1.488217,-30.273682,,,,,,,
1504195897.585630,0.019276,0.344047,-0.194376,0.010300,-0.043876,-0.019510,0.018145,-0.337300,-0.941222,0.003019,0.001194,0.006606,12.650728,-1.488584,-30.424042,,,,,,,
1504195897.595639,0.019048,0.343944,-0.194609,-0.016233,-0.027670,-0.021720,0.017932,-0.337203,-0.941261,0.001752,0.000594,0.000191,12.650728,-1.488584,-30.424042,,,,,,,
1504195897.605649,0.019113,0.343565,-0.194784,-0.036202,0.014046,-0.016490,0.017995,-0.336846,-0.941388,-0.001653,0.001046,-0.005557,12.650957,-1.488889,-30.274048,,,,,,,
1504195897.615659,0.019509,0.343058,-0.194823,-0.045500,0.059924,-0.004843,0.018371,-0.336368,-0.941551,-0.006423,0.001789,-0.004921,12.650957,-1.488889,-30.274048,,,,,,,
1504195897.625669,0.020163,0.342487,-0.194675,-0.049645,0.086573,0.012184,0.018991,-0.335831,-0.941731,-0.007318,0.003937,-0.001293,12.801714,-1.788220,-30.271423,,,,,,,
1504195897.635648,0.020807,0.341986,-0.194377,-0.043365,0.081172,0.027151,0.019601,-0.335359,-0.941887,-0.006127,0.002870,0.000602,12.801714,-1.788220,-30.271423,,,,,,,
1504195897.645658,0.021285,0.341611,-0.194055,-0.031858,0.053369,0.028288,0.020054,-0.335006,-0.942003,-0.001896,0.002685,0.002427,13.175951,-1.486524,-30.272766,,,,,,,
1504195897.655668,0.021474,0.341397,-0.193826,-0.016130,0.013823,0.019844,0.020233,-0.334803,-0.942071,0.001968,0.003062,0.003762,13.175951,-1.486524,-30.272766,,,,,,,
1504195897.665678,0.021283,0.341407,-0.193692,0.008047,-0.035381,0.013566,0.020053,-0.334813,-0.942071,0.005215,0.003270,0.006540,13.250765,-1.411191,-30.273132,,,,,,,
1504195897.675688,0.020705,0.341594,-0.193620,0.023781,-0.071731,0.009385,0.019507,-0.334989,-0.942020,0.005120,0.003050,0.008152,13.250765,-1.411191,-30.273132,,,,,,,
1504195897.685698,0.019938,0.341953,-0.193594,0.038653,-0.082501,0.005159,0.018782,-0.335328,-0.941914,0.004045,0.001984,0.005131,13.100542,-1.411572,-30.423492,,,,,,,
1504195897.695708,0.019175,0.342290,-0.193600,0.033449,-0.070731,-0.002342,0.018062,-0.335645,-0.941815,-0.000941,0.004011,0.008008,13.100542,-1.411572,-30.423492,,,,,,,
1504195897.705717,0.018614,0.342437,-0.193600,0.012317,-0.043921,-0.001357,0.017532,-0.335783,-0.941776,-0.002410,0.003798,0.004215,12.950808,-1.562085,-30.497742,,,,,,,
1504195897.715727,0.018432,0.342312,-0.193557,-0.014007,0.002108,0.001720,0.017361,-0.335666,-0.941821,-0.004483,0.002566,-0.000806,12.950808,-1.562085,-30.497742,,,,,,,
1504195897.725736,0.018657,0.341926,-0.193497,-0.042450,0.047091,0.000527,0.017575,-0.335302,-0.941947,-0.006894,0.001165,0.001029,13.101076,-1.487012,-30.197968,,,,,,,
1504195897.735746,0.019273,0.341328,-0.193435,-0.057091,0.084500,0.000439,0.018160,-0.334739,-0.942136,-0.008120,0.001822,-0.000567,13.101076,-1.487012,-30.197968,,,,,,,
1504195897.745755,0.020128,0.340629,-0.193342,-0.073001,0.099536,0.005725,0.018970,-0.334080,-0.942354,-0.007282,0.000172,0.002321,13.025957,-1.487195,-30.273132,,,,,,,
1504195897.755765,0.020788,0.339912,-0.193181,-0.073292,0.067559,0.013255,0.019597,-0.333404,-0.942580,-0.004247,-0.001374,0.004028,13.025957,-1.487195,-30.273132,,,,,,,
1504195897.765775,0.021034,0.339317,-0.192993,-0.055616,0.013065,0.018718,0.019833,-0.332843,-0.942774,0.001773,-0.001004,0.001642,13.250505,-1.261334,-30.199280,,,,,,,
1504195897.775785,0.020777,0.339082,-0.192824,-0.023029,-0.047935,0.019945,0.019592,-0.332621,-0.942857,0.008209,-0.001943,0.008424,13.250505,-1.261334,-30.199280,,,,,,,
1504195897.785794,0.020097,0.339103,-0.192745,0.006535,-0.092912,0.010464,0.018951,-0.332641,-0.942863,0.010941,0.002640,0.013237,13.251070,-1.486341,-30.197601,,,,,,,
1504195897.795805,0.019237,0.339332,-0.192851,0.032162,-0.102683,-0.009759,0.018139,-0.332857,-0.942803,0.009251,0.006227,0.011467,13.251070,-1.486341,-30.197601,,,,,,,
1504195897.805815,0.018501,0.339672,-0.193097,0.038754,-0.084605,-0.019389,0.017443,-0.333178,-0.942703,0.006742,0.007144,0.011932,13.026110,-1.412656,-30.048676,,,,,,,
1504195897.815825,0.017946,0.339927,-0.193309,0.021908,-0.055695,-0.018402,0.016918,-0.333418,-0.942627,0.001393,0.004225,0.008835,13.026110,-1.412656,-30.048676,,,,,,,
1504195897.825834,0.017603,0.339943,-0.193399,-0.007714,-0.018170,-0.008911,0.016595,-0.333433,-0.942628,-0.005135,-0.000154,0.001237,12.875505,-1.263028,-30.200195,,,,,,,
1504195897.835844,0.017530,0.339720,-0.193383,-0.034203,0.009738,-0.000464,0.016527,-0.333223,-0.942703,-0.006090,-0.004820,-0.003265,12.875505,-1.263028,-30.200195,,,,,,,
1504195897.845824,0.017626,0.339312,-0.193297,-0.054405,0.021615,0.005887,0.016620,-0.332838,-0.942837,-0.004352,-0.006746,-0.001727,12.725054,-1.038846,-30.127258,,,,,,,
1504195897.855833,0.017728,0.338816,-0.193196,-0.058754,0.012057,0.008032,0.016719,-0.332371,-0.943001,-0.000835,-0.006054,-0.000832,12.725054,-1.038846,-30.127258,,,,,,,
1504195897.865843,0.017753,0.338325,-0.193125,-0.051401,-0.003983,0.005937,0.016746,-0.331907,-0.943163,0.002114,-0.002489,0.001879,13.100725,-1.262311,-30.049622,,,,,,,
