timestamp(unix),attitude_roll(radians),attitude_pitch(radians),attitude_yaw(radians),rotation_rate_x(radians/s),rotation_rate_y(radians/s),rotation_rate_z(radians/s),gravity_x(G),gravity_y(G),gravity_z(G),user_acc_x(G),user_acc_y(G),user_acc_z(G),magnetic_field_x(microteslas),magnetic_field_y(microteslas),magnetic_field_z(microteslas),latitude(degree),longitude(degree),altitude(meter),speed(m/s),course(degree),timestamp(unix),User Mark
1504196529.400881,-0.024065,0.387188,1.582146,-0.035662,0.043903,-0.018200,-0.022281,-0.377587,-0.925706,0.018864,0.012306,-0.002028,13.780062,-3.432797,-30.781677,,,,,,,
1504196529.410860,-0.023981,0.387125,1.581634,0.032756,-0.083443,-0.036002,-0.022204,-0.377528,-0.925732,0.023654,0.014735,-0.000248,13.780062,-3.432797,-30.781677,,,,,,,
1504196529.420870,-0.024894,0.387698,1.580935,0.091738,-0.187272,-0.049593,-0.023044,-0.378058,-0.925495,0.028201,0.015311,-0.001278,13.554796,-3.283948,-30.708374,,,,,,,
1504196529.430879,-0.026399,0.388657,1.580164,0.123345,-0.240800,-0.055847,-0.024428,-0.378946,-0.925096,0.031035,0.014749,-0.005110,13.554796,-3.283948,-30.708374,,,,,,,
1504196529.440889,-0.028175,0.389659,1.579420,0.118007,-0.240751,-0.055857,-0.026059,-0.379873,-0.924671,0.024457,0.014624,-0.004223,13.404879,-3.359479,-30.783142,,,,,,,
1504196529.450899,-0.029760,0.390394,1.578748,0.090652,-0.191506,-0.054925,-0.027516,-0.380553,-0.924350,0.015630,0.014983,-0.006818,13.404879,-3.359479,-30.783142,,,,,,,
1504196529.460909,-0.030769,0.390652,1.578176,0.043277,-0.108003,-0.049820,-0.028446,-0.380791,-0.924223,0.000187,0.001336,-0.009187,13.254869,-3.360150,-30.783508,,,,,,,
1504196529.470919,-0.030907,0.390731,1.577683,-0.006094,-0.008500,-0.045811,-0.028573,-0.380864,-0.924189,0.000314,0.001409,-0.009221,13.254869,-3.360150,-30.783508,,,,,,,
1504196529.480928,-0.030221,0.390292,1.577275,-0.047006,0.083470,-0.038573,-0.027944,-0.380459,-0.924376,-0.005625,0.000103,-0.007555,13.254580,-3.285001,-30.859100,,,,,,,
1504196529.490938,-0.028886,0.389632,1.576878,-0.063633,0.139017,-0.038701,-0.026717,-0.379848,-0.924663,-0.007417,-0.000553,-0.008717,13.254580,-3.285001,-30.859100,,,,,,,
1504196529.500948,-0.027215,0.388956,1.576450,-0.062425,0.156057,-0.039797,-0.025179,-0.379223,-0.924963,-0.004408,-0.000904,-0.007319,13.329683,-3.284818,-30.783905,,,,,,,
1504196529.510958,-0.025332,0.388130,1.575883,-0.050906,0.129326,-0.039731,-0.023445,-0.378458,-0.925322,0.012611,0.008127,-0.008074,13.329683,-3.284818,-30.783905,,,,,,,
1504196529.520967,-0.024223,0.387730,1.575386,-0.037406,0.079138,-0.046023,-0.022423,-0.378088,-0.925498,0.011589,0.007757,-0.007897,13.479647,-3.134580,-30.559662,,,,,,,
1504196529.530977,-0.023299,0.387285,1.574716,-0.020795,0.019336,-0.050159,-0.021572,-0.377676,-0.925687,0.018688,0.009374,-0.008792,13.479647,-3.134580,-30.559662,,,,,,,
1504196529.540987,-0.022763,0.387041,1.573959,0.006594,-0.026701,-0.054300,-0.021078,-0.377450,-0.925790,0.023992,0.011468,-0.009406,13.254168,-3.209699,-31.009644,,,,,,,
1504196529.550997,-0.022537,0.387075,1.573196,0.046911,-0.053669,-0.053116,-0.020868,-0.377482,-0.925782,0.025216,0.016169,-0.012298,13.254168,-3.209699,-31.009644,,,,,,,
1504196529.561006,-0.022447,0.387376,1.572498,0.076722,-0.058176,-0.048789,-0.020782,-0.377761,-0.925670,0.025040,0.020919,-0.011708,13.329165,-3.209363,-31.009460,,,,,,,
1504196529.571016,-0.022449,0.387869,1.571890,0.094874,-0.052998,-0.044499,-0.020780,-0.378216,-0.925484,0.020047,0.023007,-0.010139,13.329165,-3.209363,-31.009460,,,,,,,
1504196529.581026,-0.022410,0.388356,1.571377,0.092825,-0.037001,-0.037061,-0.020739,-0.378667,-0.925301,0.016803,0.023961,-0.013756,13.554491,-3.433057,-31.157227,,,,,,,
1504196529.591036,-0.022227,0.388674,1.570983,0.064073,-0.020791,-0.023265,-0.020567,-0.378961,-0.925184,0.017561,0.021997,-0.011416,13.554491,-3.433057,-31.157227,,,,,,,
1504196529.601045,-0.021991,0.388647,1.570769,0.024624,-0.005563,-0.005217,-0.020349,-0.378936,-0.925199,0.014917,0.017822,-0.012942,13.479830,-3.433835,-30.932434,,,,,,,
1504196529.611055,-0.021711,0.388286,1.570762,-0.013798,0.005393,0.013909,-0.020093,-0.378602,-0.925341,0.015210,0.013505,-0.014005,13.479830,-3.433835,-30.932434,,,,,,,
1504196529.621065,-0.021402,0.387662,1.570926,-0.041527,0.017329,0.029850,-0.019812,-0.378025,-0.925583,0.014197,0.011539,-0.010543,13.479982,-3.359296,-30.707977,,,,,,,
1504196529.631075,-0.021012,0.386876,1.571237,-0.059552,0.037716,0.039389,-0.019458,-0.377297,-0.925888,0.011615,0.010751,-0.006943,13.479982,-3.359296,-30.707977,,,,,,,
1504196529.641085,-0.020342,0.385996,1.571571,-0.066759,0.070812,0.039317,-0.018844,-0.376482,-0.926232,0.010116,0.011660,-0.001884,13.329119,-3.284070,-31.158905,,,,,,,
1504196529.651094,-0.019385,0.385073,1.571907,-0.063273,0.104887,0.036059,-0.017964,-0.375627,-0.926597,0.005834,0.015657,0.002753,13.329119,-3.284070,-31.158905,,,,,,,
1504196529.661104,-0.018183,0.384309,1.572218,-0.051348,0.126106,0.031772,-0.016856,-0.374919,-0.926904,0.004664,0.013301,0.003778,13.555407,-3.658505,-30.930542,,,,,,,
1504196529.671114,-0.016997,0.383702,1.572477,-0.037492,0.120672,0.025400,-0.015760,-0.374356,-0.927151,0.002668,0.013958,0.008481,13.555407,-3.658505,-30.930542,,,,,,,
1504196529.681124,-0.015938,0.383241,1.572649,-0.022761,0.091786,0.020138,-0.014781,-0.373928,-0.927340,0.006633,0.015362,0.009966,13.328936,-3.209073,-31.159454,,,,,,,
1504196529.691133,-0.015224,0.382992,1.572760,-0.005002,0.041516,0.018156,-0.014121,-0.373698,-0.927443,0.012030,0.012797,0.008116,13.328936,-3.209073,-31.159454,,,,,,,
1504196529.701143,-0.014889,0.382912,1.572758,0.012819,-0.004437,0.007594,-0.013810,-0.373623,-0.927478,0.015702,0.013012,0.006900,13.479647,-3.358838,-30.932983,,,,,,,
1504196529.711153,-0.014865,0.382988,1.572634,0.022177,-0.040731,-0.001933,-0.013787,-0.373694,-0.927450,0.018899,0.012427,0.010046,13.479647,-3.358838,-30.932983,,,,,,,
1504196529.721163,-0.015071,0.383099,1.572452,0.023064,-0.064175,-0.004025,-0.013978,-0.373797,-0.927405,0.019349,0.011767,0.009635,13.778444,-2.832639,-30.861176,,,,,,,
1504196529.731172,-0.015471,0.383251,1.572401,0.022956,-0.069512,0.008794,-0.014348,-0.373937,-0.927343,0.017278,0.008596,0.007543,13.778444,-2.832639,-30.861176,,,,,,,
1504196529.741152,-0.015878,0.383391,1.572509,0.017706,-0.051363,0.020494,-0.014725,-0.374067,-0.927285,0.013596,0.005217,0.004540,13.403902,-3.059171,-30.935425,,,,,,,
1504196529.751161,-0.016086,0.383501,1.572734,0.010501,-0.015078,0.025755,-0.014916,-0.374170,-0.927240,0.007180,0.003320,0.004694,13.403902,-3.059171,-30.935425,,,,,,,
1504196529.761171,-0.015951,0.383489,1.572963,-0.006305,0.018096,0.025668,-0.014792,-0.374158,-0.927247,0.006568,0.002973,0.008668,13.329119,-3.059812,-30.785583,,,,,,,
1504196529.771181,-0.015604,0.383319,1.573139,-0.020040,0.031004,0.019217,-0.014471,-0.374000,-0.927316,0.007040,0.003257,0.008050,13.329119,-3.059812,-30.785583,,,,,,,
1504196529.781191,-0.015142,0.383003,1.573202,-0.031729,0.031113,0.009590,-0.014044,-0.373708,-0.927440,0.010321,0.003300,0.002987,13.554049,-3.208203,-31.083923,,,,,,,
1504196529.791201,-0.014711,0.382547,1.573159,-0.040291,0.022670,0.001051,-0.013647,-0.373285,-0.927616,0.010626,0.004739,-0.000026,13.554049,-3.208203,-31.083923,,,,,,,
1504196529.801210,-0.014408,0.381951,1.573008,-0.051067,0.003590,-0.008541,-0.013369,-0.372732,-0.927843,0.010485,0.005254,-0.002684,13.554155,-3.208356,-31.008911,,,,,,,
1504196529.811220,-0.014305,0.381287,1.572832,-0.053328,-0.013437,-0.010651,-0.013277,-0.372115,-0.928092,0.008349,0.006011,-0.005166,13.554155,-3.208356,-31.008911,,,,,,,
1504196529.821230,-0.014407,0.380692,1.572730,-0.038503,-0.023155,-0.004204,-0.013375,-0.371563,-0.928311,0.004922,0.006588,-0.007419,13.329607,-3.209958,-30.709473,,,,,,,
1504196529.831240,-0.014653,0.380311,1.572718,-0.020468,-0.031835,0.002246,-0.013605,-0.371210,-0.928449,0.003214,0.005182,-0.004412,13.329607,-3.209958,-30.709473,,,,,,,
1504196529.841249,-0.014940,0.380130,1.572773,0.001911,-0.030959,0.008687,-0.013873,-0.371041,-0.928513,0.003345,0.006798,-0.003738,13.554842,-3.209256,-30.558899,,,,,,,
1504196529.851259,-0.015126,0.380150,1.572866,0.020124,-0.019390,0.011900,-0.014046,-0.371060,-0.928503,0.004921,0.007428,-0.002940,13.554842,-3.209256,-30.558899,,,,,,,
1504196529.861269,-0.015143,0.380165,1.572979,0.021362,0.002977,0.012929,-0.014062,-0.371074,-0.928497,0.003854,0.011226,-0.002640,13.704500,-3.208127,-30.783539,,,,,,,
1504196529.871279,-0.014873,0.380069,1.573117,0.008763,0.030784,0.016059,-0.013811,-0.370985,-0.928536,0.004442,0.011076,-0.005378,13.704500,-3.208127,-30.783539,,,,,,,
1504196529.881288,-0.014435,0.379760,1.573305,-0.018868,0.048057,0.021317,-0.013406,-0.370698,-0.928657,0.003762,0.007890,-0.008828,13.478975,-3.133695,-31.009674,,,,,,,
1504196529.891298,-0.013948,0.379176,1.573592,-0.048674,0.062146,0.029779,-0.012957,-0.370155,-0.928880,-0.000502,0.005043,-0.011321,13.478975,-3.133695,-31.009674,,,,,,,
1504196529.901308,-0.013429,0.378346,1.574042,-0.077573,0.063429,0.050007,-0.012479,-0.369384,-0.929193,0.001691,0.001464,-0.011954,13.703325,-3.057080,-31.309692,,,,,,,
1504196529.911318,-0.013554,0.377732,1.574733,-0.046308,-0.016769,0.070483,-0.012598,-0.368813,-0.929418,0.005259,-0.002387,-0.007090,13.703325,-3.057080,-31.309692,,,,,,,
1504196529.921327,-0.014571,0.377087,1.575354,-0.075770,-0.106023,0.058848,-0.013546,-0.368214,-0.929642,0.005352,-0.002300,0.006943,13.628862,-3.132871,-31.084320,,,,,,,
1504196529.931337,-0.015750,0.376773,1.575756,-0.066210,-0.123130,0.040751,-0.014645,-0.367922,-0.929742,0.013714,-0.005141,0.048073,13.628862,-3.132871,-31.084320,,,,,,,
1504196529.941347,-0.016586,0.376113,1.575892,-0.063558,-0.076234,0.011853,-0.015426,-0.367308,-0.929971,0.007491,0.006834,0.014780,13.554277,-3.208508,-30.933929,,,,,,,
1504196529.951357,-0.016602,0.375589,1.575792,-0.078833,0.002768,-0.007525,-0.015444,-0.366821,-0.930164,0.002108,0.007125,0.024402,13.554277,-3.208508,-30.933929,,,,,,,
1504196529.961367,-0.015827,0.374776,1.575632,-0.080213,0.092297,-0.015157,-0.014728,-0.366064,-0.930473,0.001392,0.006369,0.024711,13.329119,-3.284070,-31.158905,,,,,,,
1504196529.971376,-0.014580,0.373935,1.575534,-0.077541,0.158342,-0.017404,-0.013572,-0.365281,-0.930798,-0.016122,0.001374,-0.004718,13.329119,-3.284070,-31.158905,,,,,,,
1504196529.981386,-0.013183,0.373018,1.575501,-0.082732,0.177559,-0.015312,-0.012276,-0.364427,-0.931151,-0.024329,0.003267,-0.003114,13.254274,-3.209851,-30.934662,,,,,,,
1504196529.991396,-0.011800,0.372104,1.575416,-0.079673,0.157288,-0.019541,-0.010992,-0.363576,-0.931500,-0.019968,0.001088,-0.010303,13.254274,-3.209851,-30.934662,,,,,,,
1504196530.001406,-0.010668,0.371289,1.575190,-0.067100,0.119900,-0.033330,-0.009941,-0.362817,-0.931807,-0.015465,-0.000464,-0.017671,13.328966,-3.134366,-31.010040,,,,,,,
1504196530.011415,-0.009862,0.370632,1.574795,-0.040812,0.065347,-0.043863,-0.009192,-0.362204,-0.932053,-0.009607,0.005362,-0.013931,13.328966,-3.134366,-31.010040,,,,,,,
1504196530.021425,-0.009557,0.370329,1.574319,-0.005036,0.001119,-0.046891,-0.008909,-0.361922,-0.932166,-0.003039,0.005935,-0.008172,13.778597,-2.982343,-31.010040,,,,,,,
1504196530.031435,-0.009848,0.370571,1.573842,0.044624,-0.058965,-0.045632,-0.009179,-0.362148,-0.932076,-0.001228,0.001613,-0.006233,13.778597,-2.982343,-31.010040,,,,,,,
1504196530.041445,-0.010503,0.371365,1.573356,0.093500,-0.084941,-0.046569,-0.009787,-0.362888,-0.931781,-0.001016,0.001316,-0.004330,13.928179,-2.682111,-30.786926,,,,,,,
1504196530.051454,-0.011205,0.372511,1.572847,0.122346,-0.081979,-0.049726,-0.010437,-0.363955,-0.931358,-0.001084,0.005297,0.003959,13.928179,-2.682111,-30.786926,,,,,,,
1504196530.061457,-0.011670,0.373622,1.572320,0.109784,-0.053103,-0.051934,-0.010865,-0.364990,-0.930948,-0.001937,0.006195,0.006464,13.703890,-3.057828,-30.934692,,,,,,,
1504196530.071436,-0.011768,0.374453,1.571757,0.074937,-0.011253,-0.057405,-0.010952,-0.365764,-0.930643,-0.004413,0.003932,0.003779,13.703890,-3.057828,-30.934692,,,,,,,
1504196530.081446,-0.011497,0.374778,1.571149,0.025146,0.028591,-0.065034,-0.010699,-0.366066,-0.930527,-0.007993,0.003914,-0.001190,13.554461,-3.283505,-30.933380,,,,,,,
1504196530.091456,-0.010822,0.374727,1.570338,-0.015085,0.055581,-0.084364,-0.010071,-0.366019,-0.930553,-0.008118,-0.000864,-0.002430,13.554461,-3.283505,-30.933380,,,,,,,
1504196530.101466,-0.009946,0.374480,1.569376,-0.034192,0.061076,-0.095081,-0.009256,-0.365789,-0.930652,-0.006964,-0.003519,0.000537,13.554613,-3.208951,-30.708923,,,,,,,
1504196530.111476,-0.009127,0.374180,1.568378,-0.035360,0.048297,-0.095060,-0.008495,-0.365509,-0.930769,-0.006596,-0.001877,0.005735,13.554613,-3.208951,-30.708923,,,,,,,
1504196530.121485,-0.008548,0.373948,1.567446,-0.027072,0.022645,-0.086461,-0.007957,-0.365294,-0.930858,-0.004799,-0.001024,0.009014,13.704943,-3.432981,-30.856873,,,,,,,
1504196530.131495,-0.008254,0.373897,1.566616,-0.011348,-0.005202,-0.074643,-0.007684,-0.365246,-0.930879,-0.000586,-0.002124,0.009584,13.704943,-3.432981,-30.856873,,,,,,,
1504196530.141505,-0.008137,0.373908,1.565859,-0.000811,-0.019146,-0.070330,-0.007575,-0.365256,-0.930876,-0.000069,0.000754,0.009032,13.779268,-3.207486,-30.933380,,,,,,,
1504196530.151515,-0.008112,0.373917,1.565146,-0.001961,-0.025537,-0.063916,-0.007551,-0.365265,-0.930873,0.001341,0.003448,0.010738,13.779268,-3.207486,-30.933380,,,,,,,
1504196530.161524,-0.008138,0.373853,1.564510,-0.009474,-0.026548,-0.056456,-0.007576,-0.365205,-0.930896,0.000923,0.003526,0.009906,13.704271,-3.207822,-30.933563,,,,,,,
1504196530.171534,-0.008238,0.373731,1.563982,-0.013815,-0.029719,-0.046851,-0.007669,-0.365091,-0.930940,0.000116,0.001612,0.005418,13.704271,-3.207822,-30.933563,,,,,,,
1504196530.181544,-0.008411,0.373583,1.563523,-0.018160,-0.036082,-0.041510,-0.007831,-0.364954,-0.930993,0.001147,0.002054,0.006203,13.554384,-3.208646,-30.858917,,,,,,,
1504196530.191554,-0.008575,0.373382,1.563073,-0.016072,-0.040363,-0.039365,-0.007984,-0.364766,-0.931065,0.003956,0.003759,0.003865,13.554384,-3.208646,-30.858917,,,,,,,
1504196530.201563,-0.008764,0.373129,1.562586,-0.020367,-0.045651,-0.042565,-0.008161,-0.364531,-0.931156,0.005231,0.005339,0.002231,13.553148,-2.758496,-30.937317,,,,,,,
1504196530.211573,-0.008954,0.372830,1.562066,-0.028935,-0.050905,-0.044706,-0.008338,-0.364253,-0.931263,0.007469,0.003276,0.001789,13.553148,-2.758496,-30.937317,,,,,,,
1504196530.221583,-0.009156,0.372445,1.561501,-0.039619,-0.054010,-0.046854,-0.008528,-0.363894,-0.931401,0.008940,0.001132,0.002309,13.704454,-3.058576,-30.559662,,,,,,,
1504196530.231593,-0.009287,0.372035,1.560938,-0.038489,-0.045493,-0.045800,-0.008651,-0.363512,-0.931549,0.009353,0.000825,0.000824,13.704454,-3.058576,-30.559662,,,,,,,
1504196530.241602,-0.009471,0.371700,1.560487,-0.030008,-0.045573,-0.035111,-0.008824,-0.363199,-0.931670,0.006627,0.000193,0.000197,13.553743,-2.908795,-30.786163,,,,,,,
1504196530.251612,-0.009735,0.371540,1.560188,-0.016222,-0.046766,-0.020142,-0.009071,-0.363051,-0.931725,0.006294,-0.001650,0.002160,13.553743,-2.908795,-30.786163,,,,,,,
1504196530.261622,-0.010121,0.371506,1.560069,0.000779,-0.046920,-0.006236,-0.009430,-0.363019,-0.931734,0.002930,-0.000079,-0.001005,13.704119,-3.058133,-30.784668,,,,,,,
1504196530.271632,-0.010459,0.371576,1.560021,0.018872,-0.047077,0.002335,-0.009745,-0.363084,-0.931705,0.005137,0.001222,-0.003475,13.704119,-3.058133,-30.784668,,,,,,,
1504196530.281642,-0.010840,0.371824,1.560020,0.025410,-0.033272,-0.003015,-0.010099,-0.363316,-0.931611,0.005491,0.001453,-0.003569,13.627535,-2.607862,-31.088257,,,,,,,
1504196530.291651,-0.010921,0.372028,1.559845,0.027762,-0.015160,-0.017987,-0.010174,-0.363505,-0.931537,0.003826,0.003581,-0.005399,13.627535,-2.607862,-31.088257,,,,,,,
1504196530.301661,-0.010672,0.372147,1.559400,0.023748,0.000885,-0.043641,-0.009941,-0.363616,-0.931496,0.007073,0.006179,-0.007927,13.402880,-2.609326,-30.863800,,,,,,,
1504196530.311671,-0.010283,0.372276,1.558742,0.025965,0.000887,-0.060716,-0.009579,-0.363737,-0.931453,0.007824,0.005293,-0.008168,13.402880,-2.609326,-30.863800,,,,,,,
1504196530.321681,-0.009914,0.372431,1.557985,0.025919,-0.008695,-0.067104,-0.009234,-0.363881,-0.931400,0.008074,0.003575,-0.009671,13.327196,-2.384503,-30.940674,,,,,,,
1504196530.331690,-0.009783,0.372696,1.557254,0.029975,-0.031111,-0.060653,-0.009111,-0.364128,-0.931304,0.006960,0.000725,-0.004868,13.327196,-2.384503,-30.940674,,,,,,,
1504196530.341700,-0.009985,0.373028,1.556662,0.035043,-0.057803,-0.049924,-0.009299,-0.364437,-0.931182,0.006567,-0.000309,-0.004151,13.403704,-2.759915,-30.562653,,,,,,,
1504196530.351710,-0.010421,0.373365,1.556167,0.039156,-0.071697,-0.041353,-0.009703,-0.364751,-0.931055,0.005110,0.002309,-0.001273,13.403704,-2.759915,-30.562653,,,,,,,
1504196530.361720,-0.010755,0.373657,1.555682,0.033979,-0.052472,-0.042464,-0.010013,-0.365023,-0.930945,0.005283,0.004778,-0.000452,13.328112,-2.834210,-31.087311,,,,,,,
1504196530.371729,-0.010833,0.373868,1.555224,0.031053,-0.017283,-0.041464,-0.010085,-0.365219,-0.930867,0.001616,0.007508,0.000172,13.328112,-2.834210,-31.087311,,,,,,,
1504196530.381739,-0.010494,0.374001,1.554796,0.025023,0.030716,-0.039424,-0.009768,-0.365343,-0.930822,-0.000043,0.008654,0.001424,13.403856,-3.133878,-31.084869,,,,,,,
1504196530.391749,-0.009823,0.374111,1.554452,0.014589,0.064893,-0.032031,-0.009143,-0.365445,-0.930788,-0.002728,0.007016,0.006197,13.403856,-3.133878,-31.084869,,,,,,,
1504196530.401759,-0.009058,0.374124,1.554190,-0.004662,0.065042,-0.022458,-0.008432,-0.365457,-0.930790,-0.000113,0.004389,0.012638,13.553179,-2.908048,-31.161163,,,,,,,
1504196530.411738,-0.008354,0.374095,1.553944,-0.017669,0.042768,-0.017104,-0.007776,-0.365430,-0.930806,0.006769,-0.001055,0.016164,13.553179,-2.908048,-31.161163,,,,,,,
1504196530.421748,-0.007850,0.374164,1.553662,-0.002937,0.014946,-0.020232,-0.007307,-0.365494,-0.930785,0.010710,-0.004440,0.012191,13.478899,-3.058835,-30.935242,,,,,,,
1504196530.431757,-0.007559,0.374476,1.553330,0.039563,-0.009906,-0.024384,-0.007035,-0.365785,-0.930673,0.012299,0.001100,0.005975,13.478899,-3.058835,-30.935242,,,,,,,
1504196530.441767,-0.007593,0.375289,1.552946,0.096955,-0.042337,-0.031700,-0.007064,-0.366542,-0.930375,0.010009,0.007533,0.012559,13.329195,-3.134656,-30.860046,,,,,,,
1504196530.451777,-0.007968,0.376561,1.552500,0.137136,-0.089548,-0.034750,-0.007410,-0.367724,-0.929905,0.013407,0.008593,0.015858,13.329195,-3.134656,-30.860046,,,,,,,
1504196530.461787,-0.009064,0.378064,1.551969,0.154639,-0.174927,-0.044176,-0.008424,-0.369122,-0.929343,0.015550,0.009610,0.015585,13.479128,-3.059140,-30.785217,,,,,,,
1504196530.471797,-0.011016,0.379581,1.551314,0.154966,-0.271888,-0.051477,-0.010232,-0.370531,-0.928764,0.020715,0.009142,0.012046,13.479128,-3.059140,-30.785217,,,,,,,
1504196530.481806,-0.013647,0.381077,1.550610,0.153367,-0.339001,-0.052430,-0.012668,-0.371921,-0.928178,0.025210,0.006549,0.004594,13.479265,-3.208844,-30.934113,,,,,,,
1504196530.491816,-0.016672,0.382532,1.549991,0.148894,-0.359215,-0.043864,-0.015466,-0.373271,-0.927594,0.023889,0.005366,0.001339,13.479265,-3.208844,-30.934113,,,,,,,
1504196530.501826,-0.019641,0.383915,1.549557,0.137418,-0.318639,-0.031148,-0.018210,-0.374553,-0.927027,0.015403,0.004909,0.001688,13.329378,-3.209668,-30.859467,,,,,,,
1504196530.511836,-0.022053,0.385022,1.549356,0.110328,-0.227855,-0.016411,-0.020437,-0.375580,-0.926565,0.004766,0.006516,-0.000193,13.329378,-3.209668,-30.859467,,,,,,,
1504196530.521845,-0.023670,0.385766,1.549381,0.060994,-0.117707,-0.002814,-0.021928,-0.376269,-0.926251,-0.007033,0.003131,0.004498,12.804171,-3.211728,-31.010773,,,,,,,
1504196530.531855,-0.024240,0.385984,1.549495,-0.004212,0.002170,0.000064,-0.022454,-0.376471,-0.926156,-0.015220,-0.003320,0.006112,12.804171,-3.211728,-31.010773,,,,,,,
1504196530.541865,-0.023770,0.385608,1.549528,-0.073829,0.096522,-0.008761,-0.022023,-0.376123,-0.926308,-0.018535,-0.010566,0.006493,12.729158,-3.212064,-31.010956,,,,,,,
1504196530.551875,-0.022677,0.384753,1.549412,-0.132190,0.130043,-0.018526,-0.021017,-0.375330,-0.926653,-0.014871,-0.018835,0.009127,12.729158,-3.212064,-31.010956,,,,,,,
1504196530.561884,-0.021564,0.383600,1.549158,-0.150467,0.106758,-0.027055,-0.019995,-0.374261,-0.927108,-0.009302,-0.019797,0.005797,12.653719,-2.987546,-30.937836,,,,,,,
1504196530.571894,-0.020794,0.382439,1.548801,-0.135885,0.056562,-0.035480,-0.019290,-0.373184,-0.927557,-0.005139,-0.016663,0.000051,12.653719,-2.987546,-30.937836,,,,,,,
1504196530.581904,-0.020533,0.381571,1.548311,-0.090475,-0.008802,-0.045959,-0.019055,-0.372379,-0.927885,-0.000233,-0.009930,-0.000154,13.028933,-3.210416,-31.160217,,,,,,,
1504196530.591914,-0.020807,0.381013,1.547682,-0.044991,-0.066704,-0.059655,-0.019314,-0.371861,-0.928088,0.002208,-0.000362,0.001788,13.028933,-3.210416,-31.160217,,,,,,,
1504196530.601924,-0.021456,0.380848,1.546976,0.003815,-0.103332,-0.063776,-0.019917,-0.371708,-0.928136,0.003987,0.006214,0.000875,12.954165,-3.211057,-31.010406,,,,,,,
1504196530.611933,-0.022277,0.381160,1.546347,0.060288,-0.107002,-0.055132,-0.020676,-0.371997,-0.928003,0.002427,0.011219,0.000895,12.954165,-3.211057,-31.010406,,,,,,,
1504196530.621943,-0.023015,0.381939,1.545852,0.103097,-0.084986,-0.046558,-0.021354,-0.372720,-0.927698,0.000526,0.012307,0.001245,12.879091,-3.136533,-30.936157,,,,,,,
1504196530.631953,-0.023436,0.382864,1.545426,0.110884,-0.043494,-0.044483,-0.021737,-0.373579,-0.927344,-0.001685,0.013929,0.000021,12.879091,-3.136533,-30.936157,,,,,,,
1504196530.641963,-0.023355,0.383570,1.544917,0.080368,0.004718,-0.053161,-0.021656,-0.374234,-0.927082,-0.001827,0.014721,-0.000241,12.878374,-2.986081,-31.162262,,,,,,,
1504196530.651972,-0.022618,0.383791,1.544226,0.022192,0.059557,-0.067235,-0.020971,-0.374439,-0.927014,0.000646,0.009326,-0.005221,12.878374,-2.986081,-31.162262,,,,,,,
1504196530.661982,-0.021279,0.383412,1.543406,-0.040336,0.109097,-0.072768,-0.019733,-0.374086,-0.927184,0.002978,0.003573,-0.012773,12.877657,-2.611386,-31.015076,,,,,,,
1504196530.671992,-0.019599,0.382489,1.542592,-0.099888,0.135160,-0.070782,-0.018182,-0.373231,-0.927560,0.002877,-0.001418,-0.011572,12.877657,-2.611386,-31.015076,,,,,,,
1504196530.682002,-0.017919,0.381308,1.541867,-0.121270,0.136391,-0.060148,-0.016631,-0.372134,-0.928030,0.000136,-0.004910,-0.010233,13.329302,-3.134809,-30.785034,,,,,,,
1504196530.692011,-0.016508,0.380215,1.541286,-0.104502,0.106404,-0.047257,-0.015328,-0.371120,-0.928458,0.001794,-0.004933,-0.009057,13.329302,-3.134809,-30.785034,,,,,,,
1504196530.702021,-0.015588,0.379500,1.540821,-0.060141,0.054834,-0.036382,-0.014478,-0.370456,-0.928737,0.002912,-0.001569,-0.001759,13.103106,-2.835233,-31.087860,,,,,,,
1504196530.712031,-0.015300,0.379213,1.540457,-0.015851,-0.006276,-0.029794,-0.014212,-0.370190,-0.928847,0.004660,0.003063,0.003219,13.103106,-2.835233,-31.087860,,,,,,,
1504196530.722041,-0.015421,0.379199,1.540121,0.011558,-0.044866,-0.025409,-0.014325,-0.370177,-0.928851,0.008725,0.007842,0.006732,13.103365,-2.985074,-31.161713,,,,,,,
1504196530.732050,-0.015619,0.379333,1.539809,0.024344,-0.044972,-0.022185,-0.014508,-0.370301,-0.928798,0.009961,0.007447,0.005214,13.103365,-2.985074,-31.161713,,,,,,,
1504196530.742060,-0.015650,0.379522,1.539521,0.027734,-0.020491,-0.021156,-0.014536,-0.370477,-0.928728,0.008814,0.005929,-0.000471,12.953325,-2.836194,-30.938232,,,,,,,
1504196530.752039,-0.015459,0.379635,1.539308,0.019395,0.008344,-0.014817,-0.014358,-0.370581,-0.928689,0.005736,0.006095,-0.002860,12.953325,-2.836194,-30.938232,,,,,,,
1504196530.762049,-0.015144,0.379572,1.539216,0.001335,0.025531,-0.003138,-0.014065,-0.370523,-0.928717,0.003369,0.005594,-0.004297,12.877916,-2.761243,-31.088959,,,,,,,
1504196530.772059,-0.014615,0.379354,1.539228,-0.018878,0.041669,0.010674,-0.013575,-0.370321,-0.928805,0.004374,-0.002131,-0.006086,12.877916,-2.761243,-31.088959,,,,,,,
1504196530.782069,-0.014116,0.379047,1.539384,-0.032621,0.060957,0.015954,-0.013114,-0.370035,-0.928925,0.003913,-0.002417,-0.005965,12.878298,-2.911237,-31.087830,,,,,,,
1504196530.792079,-0.013338,0.378662,1.539509,-0.043099,0.083424,0.013761,-0.012393,-0.369678,-0.929077,0.002673,-0.003598,-0.001861,12.878298,-2.911237,-31.087830,,,,,,,
1504196530.802088,-0.012414,0.378279,1.539617,-0.044061,0.095157,0.011604,-0.011536,-0.369322,-0.929230,0.001542,-0.004381,-0.000458,12.879091,-3.136533,-30.936157,,,,,,,
1504196530.812098,-0.011476,0.377954,1.539714,-0.031278,0.091856,0.010564,-0.010666,-0.369020,-0.929360,0.001862,-0.003172,-0.001975,12.879091,-3.136533,-30.936157,,,,,,,
1504196530.822108,-0.010725,0.377798,1.539865,-0.012268,0.071447,0.017037,-0.009968,-0.368874,-0.929426,0.001073,-0.002418,-0.001513,13.028368,-2.985410,-31.161896,,,,,,,
1504196530.832118,-0.010299,0.377798,1.540071,0.005574,0.037197,0.021398,-0.009573,-0.368875,-0.929430,0.002386,-0.000083,-0.002928,13.028368,-2.985410,-31.161896,,,,,,,
1504196530.842127,-0.010235,0.377884,1.540265,0.017038,0.001941,0.019345,-0.009512,-0.368955,-0.929399,0.002234,0.002591,-0.002776,13.103716,-2.985532,-30.936737,,,,,,,
1504196530.852137,-0.010439,0.378017,1.540430,0.022174,-0.024738,0.016199,-0.009702,-0.369078,-0.929348,0.003705,0.003081,-0.003224,13.103716,-2.985532,-30.936737,,,,,,,
1504196530.862147,-0.010710,0.378112,1.540507,0.022200,-0.027923,0.005530,-0.009953,-0.369166,-0.929310,0.002247,0.006099,-0.006145,13.178484,-2.984891,-31.086548,,,,,,,
1504196530.872157,-0.010943,0.378137,1.540509,0.015952,-0.015074,-0.005177,-0.010170,-0.369190,-0.929298,-0.002953,0.009006,-0.003151,13.178484,-2.984891,-31.086548,,,,,,,
1504196530.882166,-0.011045,0.378093,1.540415,0.007600,0.002053,-0.014829,-0.010265,-0.369149,-0.929314,-0.006916,0.007821,-0.002052,13.103594,-2.985379,-31.011719,,,,,,,
1504196530.892176,-0.011034,0.377999,1.540322,0.006676,0.020173,-0.014862,-0.010255,-0.369061,-0.929348,-0.011642,0.008984,-0.002124,13.103594,-2.985379,-31.011719,,,,,,,
1504196530.902186,-0.010816,0.377957,1.540226,0.013301,0.045695,-0.019164,-0.010052,-0.369023,-0.929366,-0.014011,0.008686,-0.002656,13.178743,-3.134732,-31.160400,,,,,,,
1504196530.912196,-0.010447,0.378017,1.540139,0.017715,0.064835,-0.018122,-0.009709,-0.369078,-0.929348,-0.017787,0.007399,0.002147,13.178743,-3.134732,-31.160400,,,,,,,
1504196530.922205,-0.009941,0.378133,1.540089,0.015622,0.073368,-0.012802,-0.009239,-0.369186,-0.929310,-0.015740,0.006546,0.006366,13.253893,-3.059857,-30.935791,,,,,,,
1504196530.932215,-0.009430,0.378186,1.540058,0.003847,0.069199,-0.011747,-0.008764,-0.369235,-0.929295,-0.013560,0.005725,0.009754,13.253893,-3.059857,-30.935791,,,,,,,
1504196530.942225,-0.008999,0.378096,1.539975,-0.014360,0.056566,-0.018160,-0.008363,-0.369152,-0.929331,-0.012770,0.003567,0.011744,12.879091,-3.136533,-30.936157,,,,,,,
1504196530.952235,-0.008613,0.377877,1.539761,-0.029375,0.040713,-0.027764,-0.008005,-0.368948,-0.929416,-0.008993,0.000662,0.009570,12.879091,-3.136533,-30.936157,,,,,,,
1504196530.962245,-0.008357,0.377620,1.539460,-0.028479,0.017265,-0.030923,-0.007768,-0.368709,-0.929512,-0.005263,0.001781,0.012581,13.104845,-3.435529,-30.933350,,,,,,,
1504196530.972254,-0.008263,0.377367,1.539178,-0.023240,0.006562,-0.028760,-0.007681,-0.368474,-0.929606,-0.003076,0.005696,0.012752,13.104845,-3.435529,-30.933350,,,,,,,
1504196530.982264,-0.008031,0.377152,1.538900,-0.022113,0.016140,-0.025573,-0.007467,-0.368274,-0.929687,-0.003291,0.005497,0.012832,13.178484,-2.984891,-31.086548,,,,,,,
1504196530.992274,-0.007776,0.376863,1.538662,-0.028457,0.024714,-0.023464,-0.007230,-0.368006,-0.929796,-0.004153,0.006174,0.012040,13.178484,-2.984891,-31.086548,,,,,,,
1504196531.002284,-0.007428,0.376461,1.538411,-0.044331,0.037637,-0.028851,-0.006908,-0.367631,-0.929946,-0.006108,0.005540,0.012084,13.178896,-3.060193,-30.935974,,,,,,,
1504196531.012293,-0.006960,0.375927,1.538111,-0.060202,0.051623,-0.033172,-0.006474,-0.367135,-0.930145,-0.007610,0.003594,0.014389,13.178896,-3.060193,-30.935974,,,,,,,
1504196531.022303,-0.006440,0.375401,1.537859,-0.069681,0.068745,-0.030016,-0.005991,-0.366646,-0.930341,-0.006277,-0.000999,0.012617,13.253710,-2.984845,-30.936371,,,,,,,
1504196531.032313,-0.005574,0.374738,1.537578,-0.065363,0.078294,-0.024688,-0.005187,-0.366029,-0.930589,-0.007081,-0.001617,0.012865,13.253710,-2.984845,-30.936371,,,,,,,
1504196531.042323,-0.004883,0.374227,1.537396,-0.058016,0.067569,-0.017184,-0.004545,-0.365553,-0.930780,-0.005770,-0.000307,0.014733,13.252916,-2.759549,-31.088043,,,,,,,
1504196531.052332,-0.004365,0.373822,1.537297,-0.048719,0.036578,-0.005372,-0.004064,-0.365176,-0.930930,0.001104,-0.001569,0.013434,13.252916,-2.759549,-31.088043,,,,,,,
1504196531.062329,-0.004202,0.373535,1.537238,-0.043775,-0.009288,0.000054,-0.003912,-0.364909,-0.931035,0.006613,-0.006536,0.010594,13.328402,-2.909360,-31.011719,,,,,,,
1504196531.072339,-0.004271,0.373396,1.537067,-0.037688,-0.053017,-0.006264,-0.003977,-0.364780,-0.931085,0.009912,-0.005414,0.000833,13.328402,-2.909360,-31.011719,,,,,,,
1504196531.082318,-0.004897,0.373126,1.536901,-0.021783,-0.073381,-0.019009,-0.004560,-0.364528,-0.931181,0.010495,-0.005666,0.000929,13.179049,-2.985639,-30.711548,,,,,,,
1504196531.092328,-0.005401,0.373162,1.536600,0.004902,-0.074660,-0.023231,-0.005029,-0.364561,-0.931166,0.009790,-0.003069,0.000898,13.179049,-2.985639,-30.711548,,,,,,,
1504196531.102338,-0.005842,0.373424,1.536300,0.027445,-0.058858,-0.025355,-0.005439,-0.364805,-0.931068,0.006492,-0.000444,0.002723,13.328447,-2.834668,-30.862305,,,,,,,
1504196531.112348,-0.006157,0.373754,1.536062,0.032918,-0.037597,-0.018979,-0.005732,-0.365113,-0.930946,0.003062,0.002305,0.005897,13.328447,-2.834668,-30.862305,,,,,,,
1504196531.122357,-0.006227,0.373966,1.535935,0.014989,-0.005491,-0.009460,-0.005796,-0.365310,-0.930868,0.001631,0.002716,0.005117,13.478258,-2.758985,-30.862488,,,,,,,
1504196531.132367,-0.006091,0.373923,1.535925,-0.020054,0.022491,0.002171,-0.005670,-0.365270,-0.930884,-0.001197,-0.002268,0.002479,13.478258,-2.758985,-30.862488,,,,,,,
1504196531.142377,-0.005758,0.373507,1.535973,-0.062598,0.040953,0.005267,-0.005361,-0.364883,-0.931038,-0.000315,-0.006837,0.000466,13.402651,-2.609021,-31.013794,,,,,,,
1504196531.152387,-0.005272,0.372721,1.536057,-0.098783,0.054035,0.008384,-0.004910,-0.364151,-0.931327,-0.001270,-0.009094,-0.001153,13.402651,-2.609021,-31.013794,,,,,,,
1504196531.162395,-0.004710,0.371714,1.536139,-0.111511,0.062666,0.007279,-0.004389,-0.363213,-0.931696,-0.001089,-0.007362,-0.000998,13.478334,-2.833844,-30.936920,,,,,,,
1504196531.172405,-0.004145,0.370744,1.536243,-0.095523,0.062530,0.010509,-0.003863,-0.362309,-0.932050,-0.001645,-0.003948,-0.000216,13.478334,-2.833844,-30.936920,,,,,,,
1504196531.182415,-0.003686,0.370090,1.536388,-0.052998,0.046192,0.014882,-0.003436,-0.361699,-0.932288,-0.000394,-0.000102,0.000602,13.553591,-2.983350,-31.010590,,,,,,,
1504196531.192425,-0.003523,0.369793,1.536597,-0.014857,0.016035,0.020338,-0.003284,-0.361423,-0.932396,-0.000637,0.005343,0.003609,13.553591,-2.983350,-31.010590,,,,,,,
1504196531.202435,-0.003689,0.369745,1.536737,0.001927,-0.025651,0.010834,-0.003440,-0.361378,-0.932413,0.002631,0.004444,0.004114,13.477083,-2.159436,-30.641968,,,,,,,
1504196531.212445,-0.004055,0.369641,1.536700,-0.008822,-0.046855,-0.007294,-0.003781,-0.361281,-0.932449,0.003659,0.003905,0.001740,13.477083,-2.159436,-30.641968,,,,,,,
1504196531.222455,-0.004339,0.369429,1.536426,-0.016122,-0.038248,-0.027602,-0.004046,-0.361083,-0.932525,0.003665,0.002532,-0.005601,13.401903,-2.309018,-31.016052,,,,,,,
1504196531.232465,-0.004279,0.369155,1.536028,-0.025364,0.000201,-0.038360,-0.003991,-0.360828,-0.932624,0.001244,-0.000149,-0.008203,13.401903,-2.309018,-31.016052,,,,,,,
1504196531.242474,-0.003948,0.368803,1.535706,-0.038986,0.036534,-0.029908,-0.003682,-0.360499,-0.932752,-0.004786,-0.001637,-0.003268,12.953218,-2.836057,-31.013214,,,,,,,
1504196531.252484,-0.003424,0.368333,1.535566,-0.053768,0.066473,-0.012908,-0.003194,-0.360060,-0.932923,-0.009287,-0.004228,-0.002120,12.953218,-2.836057,-31.013214,,,,,,,
1504196531.262494,-0.002870,0.367780,1.535621,-0.067657,0.074028,0.003067,-0.002678,-0.359545,-0.933124,-0.010490,-0.007399,-0.004178,13.402422,-2.384473,-30.790466,,,,,,,
1504196531.272504,-0.002462,0.367335,1.535734,-0.075203,0.062368,0.000940,-0.002298,-0.359129,-0.933285,-0.005088,-0.011614,-0.003559,13.402422,-2.384473,-30.790466,,,,,,,
1504196531.282514,-0.001899,0.366684,1.535606,-0.060301,0.047344,-0.016086,-0.001773,-0.358521,-0.933520,-0.005613,-0.012221,-0.003324,13.177507,-2.460340,-30.865479,,,,,,,
1504196531.292523,-0.001550,0.366374,1.535317,-0.031603,0.023681,-0.032005,-0.001447,-0.358232,-0.933631,-0.003573,-0.007613,-0.005761,13.177507,-2.460340,-30.865479,,,,,,,
1504196531.302533,-0.001465,0.366303,1.534938,-0.005207,-0.013828,-0.036163,-0.001367,-0.358166,-0.933657,-0.000601,-0.003391,-0.000456,13.477541,-2.608533,-31.088623,,,,,,,
1504196531.312542,-0.001739,0.366387,1.534555,0.007309,-0.049097,-0.035011,-0.001623,-0.358244,-0.933626,0.000571,-0.002367,-0.000547,13.477541,-2.608533,-31.088623,,,,,,,
1504196531.322552,-0.002278,0.366649,1.534225,0.007168,-0.065084,-0.031781,-0.002126,-0.358489,-0.933531,-0.001322,-0.009079,-0.005754,13.102571,-2.535520,-30.940125,,,,,,,
1504196531.332561,-0.002827,0.366690,1.533867,0.002908,-0.066111,-0.034989,-0.002639,-0.358527,-0.933516,-0.000809,-0.009042,-0.005770,13.102571,-2.535520,-30.940125,,,,,,,
1504196531.342571,-0.003121,0.366698,1.533419,-0.013852,-0.033994,-0.045749,-0.002914,-0.358535,-0.933512,-0.000916,-0.008622,-0.005407,13.102999,-2.610822,-30.789520,,,,,,,
1504196531.352582,-0.003030,0.366515,1.532895,-0.036920,0.010959,-0.054407,-0.002828,-0.358364,-0.933577,-0.004938,-0.008915,-0.001054,13.102999,-2.610822,-30.789520,,,,,,,
1504196531.362592,-0.002381,0.366154,1.532342,-0.055664,0.067591,-0.055606,-0.002223,-0.358027,-0.933709,-0.006444,-0.010534,-0.001533,13.252092,-2.384702,-31.015839,,,,,,,
1504196531.372601,-0.001254,0.365624,1.531829,-0.065935,0.119883,-0.051446,-0.001171,-0.357532,-0.933900,-0.009785,-0.008694,-0.003371,13.252092,-2.384702,-31.015839,,,,,,,
1504196531.382611,0.000125,0.365088,1.531442,-0.065858,0.137982,-0.037601,0.000117,-0.357032,-0.934092,-0.009120,-0.010125,-0.002889,13.327089,-2.384366,-31.015656,,,,,,,
1504196531.392621,0.001412,0.364595,1.531148,-0.060709,0.119814,-0.029020,0.001319,-0.356571,-0.934267,-0.006369,-0.009686,-0.000913,13.327089,-2.384366,-31.015656,,,,,,,
1504196531.402631,0.002367,0.364176,1.530913,-0.048275,0.078145,-0.021453,0.002212,-0.356180,-0.934415,-0.002654,-0.007682,-0.001391,13.252535,-2.385297,-30.715851,,,,,,,
1504196531.412610,0.002956,0.363975,1.530601,-0.028388,0.025775,-0.027731,0.002763,-0.355991,-0.934485,0.004562,-0.009106,-0.001794,13.252535,-2.385297,-30.715851,,,,,,,
1504196531.422620,0.003161,0.363914,1.530143,-0.014867,-0.025471,-0.039360,0.002954,-0.355935,-0.934506,0.010718,-0.007346,0.001675,13.552797,-2.533795,-30.788971,,,,,,,
1504196531.432629,0.003048,0.363946,1.529587,-0.006625,-0.064958,-0.043547,0.002849,-0.355965,-0.934495,0.015721,-0.005745,0.003800,13.552797,-2.533795,-30.788971,,,,,,,
1504196531.442639,0.002743,0.364033,1.528996,0.002878,-0.078884,-0.045642,0.002563,-0.356046,-0.934465,0.016098,-0.003711,0.002458,13.327730,-2.459958,-30.715118,,,,,,,
1504196531.452649,0.002441,0.364219,1.528471,0.010457,-0.061899,-0.040323,0.002281,-0.356219,-0.934400,0.011818,-0.003812,0.004788,13.327730,-2.459958,-30.715118,,,,,,,
1504196531.462659,0.002281,0.364390,1.528132,0.012762,-0.029967,-0.023297,0.002131,-0.356380,-0.934339,0.006002,-0.001515,0.005567,13.552309,-2.383649,-30.865112,,,,,,,
1504196531.472669,0.002338,0.364495,1.528050,0.009779,0.010529,-0.002026,0.002184,-0.356477,-0.934301,0.000410,0.001482,0.002142,13.552309,-2.383649,-30.865112,,,,,,,
1504196531.482677,0.002521,0.364490,1.528216,-0.002924,0.035121,0.017122,0.002355,-0.356473,-0.934303,-0.003682,0.000836,0.000068,13.477541,-2.384290,-30.715302,,,,,,,
1504196531.492687,0.002774,0.364377,1.528455,-0.013574,0.039467,0.020299,0.002592,-0.356367,-0.934342,-0.003447,-0.001329,-0.002135,13.477541,-2.384290,-30.715302,,,,,,,
1504196531.502697,0.003037,0.364206,1.528625,-0.018939,0.030995,0.012833,0.002838,-0.356208,-0.934403,-0.000732,-0.002938,-0.005081,13.627199,-2.383161,-30.939941,,,,,,,
1504196531.512707,0.003275,0.364143,1.528633,-0.005119,0.015977,-0.000993,0.003060,-0.356148,-0.934424,0.002174,-0.003379,-0.003686,13.627199,-2.383161,-30.939941,,,,,,,
1504196531.522717,0.003367,0.364300,1.528544,0.018222,-0.004454,-0.007322,0.003146,-0.356296,-0.934368,0.003156,-0.001752,0.000591,13.552355,-2.533200,-31.088989,,,,,,,
1504196531.532727,0.003220,0.364722,1.528470,0.044677,-0.029184,-0.002963,0.003008,-0.356690,-0.934218,0.003873,0.000519,0.004775,13.552355,-2.533200,-31.088989,,,,,,,
1504196531.542737,0.002827,0.365300,1.528484,0.060464,-0.049571,0.007774,0.002641,-0.357230,-0.934013,0.004470,0.003409,0.006263,13.327196,-2.384503,-30.940674,,,,,,,
1504196531.552747,0.002226,0.365922,1.528593,0.059265,-0.063418,0.012066,0.002078,-0.357811,-0.933792,0.003400,0.002616,0.006225,13.327196,-2.384503,-30.940674,,,,,,,
1504196531.562756,0.001653,0.366436,1.528665,0.045505,-0.053707,0.005620,0.001543,-0.358290,-0.933609,0.001265,0.000548,0.004364,13.701891,-2.307675,-31.015289,,,,,,,
1504196531.572766,0.001286,0.366831,1.528672,0.030812,-0.028004,-0.001922,0.001201,-0.358659,-0.933468,-0.000529,-0.001769,0.002483,13.701891,-2.307675,-31.015289,,,,,,,
1504196531.582776,0.001172,0.367133,1.528630,0.011822,-0.003336,-0.005201,0.001094,-0.358941,-0.933359,-0.001903,-0.006934,0.003580,13.552950,-2.459241,-30.564545,,,,,,,
1504196531.592786,0.001192,0.367310,1.528620,0.002312,0.010590,-0.000972,0.001113,-0.359106,-0.933296,-0.003646,-0.007440,0.001991,13.552950,-2.459241,-30.564545,,,,,,,
1504196531.602796,0.001285,0.367421,1.528668,-0.001929,0.017013,0.004347,0.001199,-0.359210,-0.933256,-0.002908,-0.007795,0.000837,13.552202,-2.383496,-30.940125,,,,,,,
1504196531.612805,0.001357,0.367499,1.528785,0.004432,0.015887,0.010765,0.001266,-0.359282,-0.933228,-0.002960,-0.003495,0.000596,13.552202,-2.383496,-30.940125,,,,,,,
1504196531.622815,0.001487,0.367588,1.528896,0.017256,0.017914,0.009716,0.001388,-0.359366,-0.933196,-0.000381,0.004004,0.000853,13.326632,-2.159513,-30.942383,,,,,,,
1504196531.632825,0.001722,0.367752,1.528926,0.020553,0.025354,0.002237,0.001607,-0.359519,-0.933136,0.000621,0.003913,0.002869,13.326632,-2.159513,-30.942383,,,,,,,
1504196531.642835,0.002088,0.367792,1.528844,0.009934,0.026517,-0.006323,0.001948,-0.359556,-0.933121,0.003469,0.007719,0.005875,13.402422,-2.384473,-30.790466,,,,,,,
1504196531.652843,0.002532,0.367704,1.528682,-0.005967,0.034117,-0.014904,0.002363,-0.359474,-0.933152,0.003451,0.004905,0.002244,13.402422,-2.384473,-30.790466,,,,,,,
1504196531.662853,0.003034,0.367568,1.528476,-0.013368,0.040575,-0.018131,0.002831,-0.359347,-0.933200,0.002280,-0.000516,-0.002942,13.402117,-2.309323,-30.866058,,,,,,,
1504196531.672863,0.003567,0.367434,1.528226,-0.008036,0.038404,-0.021320,0.003329,-0.359222,-0.933246,0.002882,0.001724,-0.000256,13.402117,-2.309323,-30.866058,,,,,,,
1504196531.682873,0.004101,0.367436,1.527956,0.002627,0.036188,-0.023433,0.003827,-0.359223,-0.933244,0.003207,0.000901,0.003617,13.478029,-2.534436,-30.639160,,,,,,,
1504196531.692883,0.004533,0.367577,1.527655,0.010026,0.023299,-0.026567,0.004230,-0.359356,-0.933191,0.001904,-0.001530,0.005197,13.478029,-2.534436,-30.639160,,,,,,,
1504196531.702893,0.004735,0.367768,1.527345,0.013004,-0.003367,-0.024380,0.004419,-0.359533,-0.933122,0.003623,-0.001581,0.007112,13.702196,-2.382825,-30.939758,,,,,,,
1504196531.712903,0.004706,0.367951,1.527116,0.011742,-0.022545,-0.015810,0.004391,-0.359704,-0.933056,0.004551,-0.001822,0.003872,13.702196,-2.382825,-30.939758,,,,,,,
1504196531.722913,0.004431,0.368159,1.526979,0.011575,-0.039599,-0.009376,0.004134,-0.359899,-0.932982,0.003129,-0.005107,0.002410,13.627382,-2.458158,-30.939392,,,,,,,
1504196531.732922,0.004007,0.368409,1.526918,0.018980,-0.044992,-0.005084,0.003738,-0.360131,-0.932894,0.001343,-0.004401,0.002108,13.627382,-2.458158,-30.939392,,,,,,,
1504196531.742902,0.003577,0.368724,1.526915,0.027504,-0.041874,0.002397,0.003336,-0.360426,-0.932782,0.000250,-0.001788,0.003705,13.477205,-2.383832,-30.940308,,,,,,,
1504196531.752911,0.003216,0.369094,1.526992,0.032896,-0.030204,0.009858,0.002999,-0.360770,-0.932650,0.001060,-0.000344,0.005572,13.477205,-2.383832,-30.940308,,,,,,,
1504196531.762921,0.003047,0.369465,1.527162,0.032014,-0.002499,0.017279,0.002841,-0.361117,-0.932516,-0.000339,0.000064,0.004950,13.327501,-2.459668,-30.865112,,,,,,,
1504196531.772931,0.003179,0.369751,1.527390,0.023770,0.035927,0.020400,0.002964,-0.361383,-0.932413,-0.003284,0.001215,0.004907,13.327501,-2.459668,-30.865112,,,,,,,
1504196531.782941,0.003623,0.369917,1.527645,0.006982,0.071229,0.020309,0.003378,-0.361538,-0.932351,-0.006185,-0.000095,0.005456,13.702654,-2.607678,-31.013062,,,,,,,
1504196531.792951,0.004281,0.369915,1.527904,-0.011048,0.085228,0.021321,0.003991,-0.361536,-0.932350,-0.006021,-0.002813,0.003318,13.702654,-2.607678,-31.013062,,,,,,,
1504196531.802959,0.004931,0.369778,1.528167,-0.021773,0.078921,0.022381,0.004598,-0.361409,-0.932396,-0.004812,-0.003963,0.000649,13.327608,-2.459805,-30.790100,,,,,,,
1504196531.812969,0.005464,0.369564,1.528425,-0.023037,0.055486,0.024555,0.005095,-0.361209,-0.932471,-0.000425,-0.002347,-0.002130,13.327608,-2.459805,-30.790100,,,,,,,
1504196531.822979,0.005918,0.369439,1.528622,-0.012603,0.026630,0.025691,0.005518,-0.361093,-0.932514,0.007879,-0.000861,0.001315,13.327684,-2.534665,-30.864532,,,,,,,
1504196531.832989,0.005798,0.369371,1.528922,-0.005433,-0.008597,0.028967,0.005407,-0.361029,-0.932539,0.007990,-0.000925,0.001341,13.327684,-2.534665,-30.864532,,,,,,,
1504196531.842999,0.005622,0.369444,1.529160,0.005061,-0.029995,0.030090,0.005243,-0.361097,-0.932514,0.010367,-0.001177,0.004367,13.552355,-2.308942,-30.715668,,,,,,,
1504196531.853009,0.005200,0.369626,1.529458,0.015525,-0.052462,0.035484,0.004849,-0.361266,-0.932450,0.010944,-0.000123,0.007508,13.552355,-2.308942,-30.715668,,,,,,,
1504196531.863019,0.004613,0.369940,1.529876,0.031441,-0.056865,0.046192,0.004301,-0.361560,-0.932339,0.007800,0.000949,0.008145,13.327272,-2.459363,-31.015106,,,,,,,
1504196531.873029,0.004022,0.370400,1.530410,0.050699,-0.044245,0.055810,0.003749,-0.361988,-0.932175,0.000950,0.004185,0.007676,13.327272,-2.459363,-31.015106,,,,,,,
1504196531.883038,0.003458,0.370990,1.531081,0.059331,-0.026211,0.065399,0.003223,-0.362538,-0.931963,0.001477,0.004735,0.007464,13.402086,-2.384030,-31.015472,,,,,,,
1504196531.893048,0.003031,0.371455,1.531809,0.043445,-0.010098,0.067478,0.002824,-0.362972,-0.931796,-0.001146,0.005595,0.009066,13.402086,-2.384030,-31.015472,,,,,,,
1504196531.903058,0.002739,0.371677,1.532516,0.016927,0.006109,0.062067,0.002552,-0.363178,-0.931716,-0.003376,0.004276,0.006576,13.553438,-2.833646,-30.861725,,,,,,,
1504196531.913068,0.002553,0.371646,1.533141,-0.002206,0.010536,0.054555,0.002379,-0.363149,-0.931728,-0.003889,0.004446,0.002895,13.553438,-2.833646,-30.861725,,,,,,,
1504196531.923077,0.002371,0.371467,1.533731,-0.022466,0.010704,0.052385,0.002209,-0.362983,-0.931793,-0.003857,0.002235,0.004898,13.552767,-2.608502,-30.938446,,,,,,,
1504196531.933087,0.002162,0.371253,1.534299,-0.031057,0.002252,0.050250,0.002015,-0.362783,-0.931871,-0.003083,-0.000803,0.012056,13.552767,-2.608502,-30.938446,,,,,,,
1504196531.943097,0.001927,0.371073,1.534841,-0.034248,0.001215,0.047045,0.001795,-0.362615,-0.931937,-0.002665,-0.005457,0.013251,13.478106,-2.609281,-30.713623,,,,,,,
1504196531.953107,0.001722,0.370928,1.535344,-0.031011,0.003322,0.043845,0.001605,-0.362480,-0.931990,-0.002933,-0.006233,0.012526,13.478106,-2.609281,-30.713623,,,,,,,
1504196531.963117,0.001485,0.370784,1.535812,-0.032089,-0.000928,0.039581,0.001384,-0.362346,-0.932043,-0.004436,-0.003758,0.017263,13.553331,-2.609250,-30.563416,,,,,,,
1504196531.973125,0.001258,0.370577,1.536219,-0.030993,-0.000932,0.034246,0.001172,-0.362153,-0.932118,-0.003904,-0.001464,0.015004,13.553331,-2.609250,-30.563416,,,,,,,
1504196531.983135,0.001133,0.370324,1.536574,-0.028735,0.011840,0.029959,0.001056,-0.361917,-0.932210,-0.004779,-0.001013,0.007085,13.553148,-2.758496,-30.937317,,,,,,,
1504196531.993145,0.001160,0.370074,1.536934,-0.023248,0.030974,0.029935,0.001081,-0.361684,-0.932300,-0.006666,0.001043,0.004062,13.553148,-2.758496,-30.937317,,,,,,,
1504196532.003155,0.001260,0.369797,1.537326,-0.026377,0.040587,0.030981,0.001175,-0.361426,-0.932400,-0.009094,0.002051,0.003018,13.552645,-2.608350,-31.013428,,,,,,,
1504196532.013165,0.001418,0.369472,1.537674,-0.033782,0.043851,0.023492,0.001323,-0.361123,-0.932517,-0.010280,0.000802,0.002524,13.552645,-2.608350,-31.013428,,,,,,,
1504196532.023175,0.001563,0.369091,1.537919,-0.041276,0.035395,0.014955,0.001458,-0.360768,-0.932655,-0.009484,-0.000926,0.001212,13.327761,-2.385251,-30.565643,,,,,,,
1504196532.033185,0.001640,0.368720,1.538072,-0.041390,0.018349,0.010716,0.001529,-0.360422,-0.932788,-0.005741,-0.002447,0.001682,13.327761,-2.385251,-30.565643,,,,,,,
1504196532.043195,0.001556,0.368345,1.538176,-0.037267,-0.002992,0.005424,0.001452,-0.360072,-0.932923,-0.004290,-0.000111,0.002992,13.628176,-2.683469,-30.787659,,,,,,,
1504196532.053204,0.001312,0.368009,1.538220,-0.033055,-0.014742,-0.002019,0.001224,-0.359758,-0.933045,-0.006274,0.000918,0.005005,13.628176,-2.683469,-30.787659,,,,,,,
1504196532.063189,0.001104,0.367739,1.538228,-0.023414,-0.010559,-0.003077,0.001030,-0.359506,-0.933142,-0.005074,0.000833,0.001456,13.702761,-2.607831,-30.938080,,,,,,,
1504196532.073168,0.000975,0.367563,1.538241,-0.008355,0.004235,-0.004143,0.000910,-0.359342,-0.933205,-0.007807,0.002729,-0.002311,13.702761,-2.607831,-30.938080,,,,,,,
1504196532.083178,0.000912,0.367505,1.538320,0.003481,0.020113,0.001188,0.000852,-0.359288,-0.933226,-0.012845,0.004109,-0.000932,13.552645,-2.608350,-31.013428,,,,,,,
1504196532.093188,0.000942,0.367486,1.538442,0.004590,0.027557,0.004380,0.000880,-0.359271,-0.933233,-0.012537,0.003085,-0.004313,13.552645,-2.608350,-31.013428,,,,,,,
1504196532.103198,0.000926,0.367435,1.538566,0.002415,0.021181,0.002254,0.000864,-0.359223,-0.933251,-0.012750,0.002869,-0.004813,13.552126,-2.308652,-30.865662,,,,,,,
1504196532.113208,0.000924,0.367373,1.538657,0.001338,0.020122,0.002255,0.000862,-0.359165,-0.933274,-0.010185,0.003254,-0.003830,13.552126,-2.308652,-30.865662,,,,,,,
1504196532.123217,0.000787,0.367420,1.538756,0.007749,0.017940,-0.003066,0.000734,-0.359209,-0.933257,-0.009768,-0.001493,0.001403,13.477388,-2.458844,-30.939758,,,,,,,
1504196532.133227,0.000976,0.367487,1.538672,0.005613,0.013702,-0.009466,0.000910,-0.359272,-0.933233,-0.009944,-0.001431,0.001378,13.477388,-2.458844,-30.939758,,,,,,,
1504196532.143237,0.000874,0.367551,1.538608,-0.000835,0.005232,-0.013731,0.000815,-0.359331,-0.933210,-0.011710,-0.001280,0.004728,13.552538,-2.383954,-30.715118,,,,,,,
1504196532.153247,0.000700,0.367582,1.538543,-0.007294,-0.002177,-0.013728,0.000653,-0.359360,-0.933199,-0.011548,-0.003433,0.002794,13.552538,-2.383954,-30.715118,,,,,,,
1504196532.163256,0.000522,0.367618,1.538433,-0.011550,-0.004270,-0.019068,0.000487,-0.359393,-0.933186,-0.011550,-0.007153,0.003468,13.627581,-2.533170,-30.938812,,,,,,,
1504196532.173266,0.000366,0.367607,1.538282,-0.013641,-0.001055,-0.022278,0.000341,-0.359384,-0.933190,-0.012457,-0.005744,0.004860,13.627581,-2.533170,-30.938812,,,,,,,
1504196532.183276,0.000298,0.367574,1.538087,-0.012483,0.007462,-0.026560,0.000278,-0.359352,-0.933202,-0.011966,-0.003898,0.004918,13.327883,-2.609662,-30.863983,,,,,,,
1504196532.193286,0.000295,0.367630,1.537922,-0.002833,0.015900,-0.022287,0.000275,-0.359405,-0.933182,-0.012986,-0.004929,0.005249,13.327883,-2.609662,-30.863983,,,,,,,
1504196532.203295,0.000286,0.367750,1.537781,0.004592,0.011572,-0.020131,0.000267,-0.359517,-0.933139,-0.012383,-0.003261,0.005007,13.552950,-2.683499,-30.937866,,,,,,,
1504196532.213305,0.000249,0.367838,1.537604,0.001385,0.007339,-0.025465,0.000232,-0.359599,-0.933107,-0.012012,-0.002340,0.004030,13.552950,-2.683499,-30.937866,,,,,,,
1504196532.223315,0.000314,0.367822,1.537280,-0.002765,0.012714,-0.040424,0.000293,-0.359584,-0.933113,-0.010700,-0.000981,-0.001290,13.553255,-2.758649,-30.862305,,,,,,,
1504196532.233325,0.000565,0.367733,1.536816,-0.007945,0.025553,-0.051129,0.000527,-0.359501,-0.933144,-0.008767,0.000096,-0.004493,13.553255,-2.758649,-30.862305,,,,,,,
1504196532.243334,0.000915,0.367648,1.536303,-0.006813,0.033002,-0.052207,0.000854,-0.359422,-0.933175,-0.009429,-0.000426,-0.002738,13.553209,-2.609097,-30.638428,,,,,,,
1504196532.253344,0.001269,0.367560,1.535814,-0.007877,0.034073,-0.051142,0.001184,-0.359339,-0.933206,-0.010324,-0.000203,-0.002570,13.553209,-2.609097,-30.638428,,,,,,,
1504196532.263354,0.001591,0.367534,1.535352,-0.003702,0.024444,-0.047915,0.001485,-0.359315,-0.933215,-0.008321,-0.001952,-0.001416,13.552797,-2.533795,-30.788971,,,,,,,
1504196532.273364,0.001841,0.367583,1.534903,0.008997,0.014742,-0.042538,0.001718,-0.359361,-0.933197,-0.005670,-0.000487,-0.001877,13.552797,-2.533795,-30.788971,,,,,,,
1504196532.283374,0.002000,0.367827,1.534523,0.028092,0.004987,-0.036083,0.001866,-0.359589,-0.933109,-0.003972,-0.000458,-0.001766,13.702730,-2.458280,-30.714172,,,,,,,
1504196532.293383,0.002073,0.368239,1.534152,0.039762,-0.004698,-0.038180,0.001934,-0.359973,-0.932961,-0.002651,0.000140,0.004189,13.702730,-2.458280,-30.714172,,,,,,,
1504196532.303393,0.002117,0.368718,1.533655,0.036544,-0.014250,-0.049910,0.001975,-0.360420,-0.932788,-0.000861,-0.002144,0.007465,13.552874,-2.608655,-30.863434,,,,,,,
1504196532.313403,0.002204,0.369101,1.532965,0.020572,-0.020495,-0.065938,0.002055,-0.360777,-0.932650,0.001592,-0.004366,0.007952,13.552874,-2.608655,-30.863434,,,,,,,
1504196532.323413,0.002458,0.369523,1.532112,-0.003948,-0.023479,-0.073449,0.002292,-0.361171,-0.932497,0.005978,-0.009755,0.007891,13.553331,-2.609250,-30.563416,,,,,,,
1504196532.333422,0.002514,0.369370,1.531353,-0.017804,-0.019107,-0.069211,0.002345,-0.361028,-0.932552,0.005925,-0.009898,0.007946,13.553331,-2.609250,-30.563416,,,,,,,
1504196532.343432,0.002689,0.369399,1.530694,-0.014562,-0.006360,-0.056420,0.002508,-0.361055,-0.932541,0.001841,-0.010130,0.005951,13.628252,-2.758313,-30.862122,,,,,,,
1504196532.353442,0.002861,0.369536,1.530202,0.000376,0.002028,-0.042533,0.002668,-0.361183,-0.932491,-0.000852,-0.008065,0.007412,13.628252,-2.758313,-30.862122,,,,,,,
1504196532.363451,0.003008,0.369767,1.529785,0.013186,0.004051,-0.040379,0.002804,-0.361398,-0.932407,-0.002652,-0.004325,0.009510,13.927874,-2.606961,-30.862488,,,,,,,
1504196532.373461,0.003080,0.370008,1.529360,0.020553,-0.008798,-0.040344,0.002872,-0.361623,-0.932320,-0.002338,-0.000499,0.008263,13.927874,-2.606961,-30.862488,,,,,,,
1504196532.383471,0.003134,0.370264,1.528925,0.024756,-0.016292,-0.039256,0.002921,-0.361862,-0.932227,0.001962,0.001327,0.005103,13.477694,-2.309735,-30.490845,,,,,,,
1504196532.393481,0.003086,0.370473,1.528432,0.016160,-0.027936,-0.045655,0.002877,-0.362057,-0.932152,0.002097,0.000561,0.004417,13.477694,-2.309735,-30.490845,,,,,,,
1504196532.403460,0.002989,0.370609,1.527881,0.009734,-0.034270,-0.050992,0.002786,-0.362183,-0.932103,0.002280,0.001023,0.006138,13.553102,-2.608945,-30.713440,,,,,,,
1504196532.413470,0.002953,0.370698,1.527295,0.014041,-0.030041,-0.052060,0.002752,-0.362266,-0.932070,0.004008,0.002602,0.002719,13.553102,-2.608945,-30.713440,,,,,,,
1504196532.423480,0.003003,0.370877,1.526748,0.024804,-0.016280,-0.048864,0.002799,-0.362433,-0.932006,0.003243,0.003943,0.003920,13.479052,-2.760037,-30.337463,,,,,,,
1504196532.433490,0.003084,0.371148,1.526261,0.034415,-0.011037,-0.042452,0.002874,-0.362686,-0.931907,0.001825,0.006622,0.009010,13.479052,-2.760037,-30.337463,,,,,,,
1504196532.443499,0.003181,0.371443,1.525831,0.030146,-0.007810,-0.037128,0.002964,-0.362961,-0.931800,0.001736,0.007034,0.012061,13.777910,-2.532941,-30.713440,,,,,,,
1504196532.453509,0.003317,0.371665,1.525445,0.016296,-0.003437,-0.033958,0.003091,-0.363167,-0.931719,0.002128,0.003410,0.010836,13.777910,-2.532941,-30.713440,,,,,,,
1504196532.463519,0.003493,0.371769,1.525046,-0.004011,-0.008595,-0.035052,0.003254,-0.363264,-0.931681,0.005794,-0.000887,0.012277,13.403109,-2.609616,-30.713806,,,,,,,
1504196532.473529,0.003696,0.371718,1.524568,-0.023180,-0.008429,-0.041491,0.003444,-0.363217,-0.931698,0.007298,-0.003986,0.013257,13.403109,-2.609616,-30.713806,,,,,,,
1504196532.483538,0.004021,0.371544,1.524017,-0.033743,0.001256,-0.046864,0.003747,-0.363055,-0.931760,0.008735,-0.004621,0.011152,13.478106,-2.609281,-30.713623,,,,,,,
1504196532.493548,0.004480,0.371304,1.523458,-0.041103,0.015171,-0.045835,0.004175,-0.362831,-0.931846,0.008109,-0.005318,0.012427,13.478106,-2.609281,-30.713623,,,,,,,
1504196532.503558,0.005056,0.371058,1.522967,-0.036726,0.033244,-0.038388,0.004712,-0.362602,-0.931932,0.006503,-0.004357,0.012071,13.402727,-2.459622,-30.714935,,,,,,,
1504196532.513568,0.005644,0.370834,1.522646,-0.031379,0.043841,-0.023455,0.005261,-0.362393,-0.932010,0.003193,-0.002994,0.008655,13.402727,-2.459622,-30.714935,,,,,,,
1504196532.523576,0.006108,0.370621,1.522474,-0.033596,0.038523,-0.014910,0.005694,-0.362194,-0.932085,-0.000139,-0.003224,0.011355,13.627916,-2.533612,-30.713806,,,,,,,
1504196532.533587,0.006459,0.370416,1.522314,-0.031561,0.024655,-0.017017,0.006021,-0.362004,-0.932157,-0.000894,-0.003994,0.011045,13.627916,-2.533612,-30.713806,,,,,,,
1504196532.543597,0.006728,0.370188,1.522007,-0.027342,0.009717,-0.030860,0.006272,-0.361791,-0.932238,0.001540,-0.002162,0.006182,13.852755,-2.607160,-30.937683,,,,,,,
1504196532.553607,0.006928,0.370006,1.521581,-0.025284,-0.005209,-0.039370,0.006459,-0.361621,-0.932303,0.003947,-0.002758,0.008047,13.852755,-2.607160,-30.937683,,,,,,,
1504196532.563616,0.007061,0.369902,1.521087,-0.014638,-0.011683,-0.044677,0.006583,-0.361524,-0.932340,0.003930,-0.001696,0.008481,13.702532,-2.383267,-30.714752,,,,,,,
1504196532.573626,0.007238,0.369888,1.520612,-0.010345,-0.005330,-0.039345,0.006748,-0.361511,-0.932343,0.001934,-0.001053,0.006837,13.702532,-2.383267,-30.714752,,,,,,,
1504196532.583636,0.007348,0.369766,1.520277,-0.014614,0.001088,-0.028689,0.006852,-0.361397,-0.932387,0.001831,-0.001167,0.006880,13.702425,-2.383130,-30.789734,,,,,,,
1504196532.593646,0.007516,0.369613,1.520008,-0.026319,0.007574,-0.024451,0.007008,-0.361255,-0.932441,0.000148,-0.002545,0.006843,13.702425,-2.383130,-30.789734,,,,,,,
1504196532.603656,0.007704,0.369350,1.519725,-0.040179,0.006626,-0.027676,0.007184,-0.361010,-0.932534,0.000674,-0.005049,0.005471,13.401751,-2.159329,-30.867188,,,,,,,
1504196532.613665,0.007879,0.368976,1.519372,-0.051914,0.002467,-0.034094,0.007348,-0.360661,-0.932668,0.000235,-0.005993,0.006978,13.401751,-2.159329,-30.867188,,,,,,,
1504196532.623675,0.007972,0.368621,1.518962,-0.049898,-0.014595,-0.037263,0.007437,-0.360329,-0.932795,0.002909,-0.007056,0.009150,13.627153,-2.233609,-30.716064,,,,,,,
1504196532.633685,0.007907,0.368335,1.518536,-0.038266,-0.028542,-0.038286,0.007376,-0.360063,-0.932899,0.002847,-0.006179,0.007148,13.627153,-2.233609,-30.716064,,,,,,,
1504196532.643695,0.007652,0.368124,1.518184,-0.028819,-0.043546,-0.030771,0.007140,-0.359866,-0.932977,0.001253,-0.003827,0.007989,13.626635,-2.158154,-30.941620,,,,,,,
1504196532.653704,0.007344,0.367984,1.517925,-0.019239,-0.040438,-0.021154,0.006853,-0.359735,-0.933029,0.001112,-0.002402,0.005524,13.626635,-2.158154,-30.941620,,,,,,,
1504196532.663714,0.007114,0.367858,1.517756,-0.016983,-0.021282,-0.014779,0.006638,-0.359617,-0.933076,-0.000702,-0.002230,0.002061,13.551638,-2.158505,-30.941803,,,,,,,
1504196532.673724,0.007047,0.367680,1.517648,-0.026438,-0.000962,-0.011629,0.006576,-0.359452,-0.933140,-0.003005,-0.002655,0.002812,13.551638,-2.158505,-30.941803,,,,,,,
1504196532.683734,0.007136,0.367360,1.517571,-0.043386,0.016223,-0.008486,0.006660,-0.359153,-0.933255,-0.004447,-0.004113,0.002072,13.927202,-2.381818,-30.939209,,,,,,,
1504196532.693743,0.007337,0.366909,1.517528,-0.050793,0.025871,-0.005313,0.006849,-0.358732,-0.933416,-0.003461,-0.004641,-0.002253,13.927202,-2.381818,-30.939209,,,,,,,
1504196532.703753,0.007580,0.366461,1.517473,-0.047612,0.020473,-0.006333,0.007077,-0.358314,-0.933574,-0.000714,-0.005441,-0.004582,13.852541,-2.382596,-30.714386,,,,,,,
1504196532.713763,0.007737,0.366113,1.517391,-0.040256,0.005496,-0.007361,0.007224,-0.357989,-0.933698,0.001718,-0.005933,-0.000964,13.852541,-2.382596,-30.714386,,,,,,,
1504196532.723773,0.007794,0.365817,1.517246,-0.036080,-0.009450,-0.012665,0.007278,-0.357713,-0.933803,0.004563,-0.004333,0.000484,13.552721,-2.458951,-30.714569,,,,,,,
1504196532.733752,0.007752,0.365529,1.517057,-0.033998,-0.017988,-0.015849,0.007240,-0.357443,-0.933907,0.004235,-0.004022,-0.000908,13.552721,-2.458951,-30.714569,,,,,,,
1504196532.743762,0.007732,0.365261,1.516883,-0.033951,-0.011595,-0.014793,0.007222,-0.357193,-0.934003,0.003886,-0.005387,-0.002933,13.927080,-2.157407,-30.640869,,,,,,,
1504196532.753771,0.007714,0.364976,1.516733,-0.038188,-0.007299,-0.013741,0.007206,-0.356927,-0.934105,0.000850,-0.006706,-0.002999,13.927080,-2.157407,-30.640869,,,,,,,
1504196532.763781,0.007680,0.364678,1.516600,-0.036028,-0.004120,-0.013743,0.007175,-0.356648,-0.934211,-0.002551,-0.006206,-0.004784,13.628222,-2.608762,-30.638245,,,,,,,
1504196532.773791,0.007715,0.364416,1.516491,-0.025346,0.000050,-0.009462,0.007209,-0.356404,-0.934304,-0.000235,-0.005061,-0.007453,13.628222,-2.608762,-30.638245,,,,,,,
1504196532.783801,0.007661,0.364359,1.516443,0.000203,-0.004428,-0.005140,0.007158,-0.356350,-0.934325,-0.002718,-0.003086,-0.005387,13.702425,-2.383130,-30.789734,,,,,,,
1504196532.793811,0.007503,0.364589,1.516425,0.031046,-0.015341,-0.002932,0.007010,-0.356565,-0.934244,-0.002249,-0.001040,-0.002539,13.702425,-2.383130,-30.789734,,,,,,,
1504196532.803820,0.007182,0.365045,1.516439,0.050109,-0.030421,0.001398,0.006709,-0.356992,-0.934084,-0.002833,0.000256,-0.000243,13.926638,-2.156812,-30.940887,,,,,,,
1504196532.813830,0.006650,0.365600,1.516474,0.054184,-0.053900,0.002514,0.006210,-0.357510,-0.933889,-0.001328,0.001186,0.003515,13.926638,-2.156812,-30.940887,,,,,,,
1504196532.823840,0.006047,0.366378,1.516373,0.048846,-0.065559,-0.014553,0.005645,-0.358236,-0.933614,-0.000488,-0.006815,0.010915,13.701601,-2.008267,-30.717560,,,,,,,
1504196532.833850,0.005716,0.366808,1.515974,0.042803,-0.039903,-0.045564,0.005335,-0.358638,-0.933461,-0.000178,-0.006413,0.010763,13.701601,-2.008267,-30.717560,,,,,,,
1504196532.843858,0.005798,0.367535,1.515202,0.044356,-0.003646,-0.084051,0.005411,-0.359316,-0.933200,-0.003747,-0.010389,0.017597,13.402544,-2.384625,-30.715485,,,,,,,
1504196532.853868,0.006159,0.368326,1.514098,0.046808,0.015546,-0.116102,0.005745,-0.360055,-0.932914,-0.010094,-0.010734,0.023856,13.402544,-2.384625,-30.715485,,,,,,,
1504196532.863878,0.006558,0.369134,1.512767,0.052201,0.010190,-0.135295,0.006116,-0.360808,-0.932620,-0.014829,-0.008455,0.024554,13.477724,-2.459287,-30.714752,,,,,,,
1504196532.873888,0.006492,0.370160,1.511475,0.055231,-0.013282,-0.137380,0.006052,-0.361764,-0.932250,-0.015177,-0.004233,0.017379,13.477724,-2.459287,-30.714752,,,,,,,
1504196532.883898,0.006577,0.370616,1.510094,0.042058,-0.051549,-0.124527,0.006130,-0.362190,-0.932084,-0.015255,-0.003808,0.017213,13.477877,-2.608991,-30.863617,,,,,,,
