timestamp(unix),attitude_roll(radians),attitude_pitch(radians),attitude_yaw(radians),rotation_rate_x(radians/s),rotation_rate_y(radians/s),rotation_rate_z(radians/s),gravity_x(G),gravity_y(G),gravity_z(G),user_acc_x(G),user_acc_y(G),user_acc_z(G),magnetic_field_x(microteslas),magnetic_field_y(microteslas),magnetic_field_z(microteslas),latitude(degree),longitude(degree),altitude(meter),speed(m/s),course(degree),timestamp(unix),User Mark
1504197102.948063,0.056215,0.568980,0.284778,0.027115,-0.057677,-0.135041,0.047333,-0.538773,-0.841120,0.008544,0.104767,-0.054769,18.598375,-10.536847,-30.416321,,,,,,,
1504197102.958073,0.056472,0.569022,0.283213,0.007877,-0.058590,-0.129735,0.047548,-0.538808,-0.841085,-0.015718,0.101934,-0.055155,18.522951,-10.237622,-30.193756,,,,,,,
1504197102.968082,0.056361,0.566650,0.281928,-0.003840,-0.048913,-0.124439,0.047527,-0.536809,-0.842364,-0.007152,0.093358,-0.056973,18.522951,-10.237622,-30.193756,,,,,,,
1504197102.978092,0.056887,0.566527,0.280464,-0.002501,-0.014824,-0.124497,0.047973,-0.536705,-0.842405,0.001160,0.095497,-0.049670,18.523790,-10.388227,-29.892639,,,,,,,
1504197102.988102,0.057896,0.566609,0.278960,0.023490,0.031850,-0.126669,0.048821,-0.536774,-0.842312,0.004630,0.098541,-0.039829,18.523790,-10.388227,-29.892639,,,,,,,
1504197102.998112,0.059335,0.566991,0.277447,0.053653,0.069960,-0.123481,0.050021,-0.537096,-0.842036,0.003706,0.097124,-0.028447,18.447420,-9.938260,-30.046204,,,,,,,
1504197103.008121,0.061088,0.565755,0.275950,0.085735,0.089930,-0.111717,0.051538,-0.536054,-0.842609,0.001853,0.090772,-0.021298,18.447420,-9.938260,-30.046204,,,,,,,
1504197103.018131,0.062873,0.566823,0.274595,0.123223,0.111993,-0.105286,0.053005,-0.536955,-0.841944,-0.005444,0.085249,-0.028356,18.448214,-10.387815,-30.267822,,,,,,,
1504197103.028141,0.064972,0.568285,0.273188,0.166148,0.140415,-0.109531,0.054721,-0.538187,-0.841047,-0.008289,0.085734,-0.030703,18.448214,-10.387815,-30.267822,,,,,,,
1504197103.038151,0.067335,0.570196,0.271702,0.210059,0.159237,-0.112691,0.056640,-0.539797,-0.839887,-0.003616,0.086947,-0.022478,18.373034,-10.313153,-30.268585,,,,,,,
1504197103.048130,0.070084,0.570794,0.270088,0.251922,0.173837,-0.106208,0.058925,-0.540301,-0.839406,0.002797,0.086184,-0.012049,18.373034,-10.313153,-30.268585,,,,,,,
1504197103.058140,0.072523,0.573333,0.268764,0.261404,0.169479,-0.089106,0.060873,-0.542435,-0.837890,0.006723,0.086640,-0.008378,18.599581,-10.613187,-29.740784,,,,,,,
1504197103.068149,0.074648,0.575697,0.267644,0.232314,0.144127,-0.073100,0.062558,-0.544420,-0.836477,0.007526,0.082200,-0.015650,18.599581,-10.613187,-29.740784,,,,,,,
1504197103.078159,0.076234,0.577488,0.266684,0.164644,0.091398,-0.066720,0.063810,-0.545921,-0.835403,0.012286,0.075584,-0.036865,18.599459,-10.613034,-29.815765,,,,,,,
1504197103.088169,0.077780,0.576214,0.265346,0.059375,0.002766,-0.072074,0.065156,-0.544853,-0.835997,0.020523,0.072044,-0.058886,18.599459,-10.613034,-29.815765,,,,,,,
1504197103.098179,0.077424,0.575792,0.264382,-0.070610,-0.118690,-0.089163,0.064876,-0.544499,-0.836249,0.029042,0.069844,-0.082483,18.749041,-10.537061,-29.965942,,,,,,,
1504197103.108189,0.075826,0.573933,0.263339,-0.212382,-0.246442,-0.106262,0.063616,-0.542939,-0.837359,0.036329,0.065354,-0.107434,18.749041,-10.537061,-29.965942,,,,,,,
1504197103.118198,0.073256,0.570824,0.262187,-0.329343,-0.340299,-0.123378,0.061586,-0.540326,-0.839199,0.037672,0.065701,-0.129154,18.748888,-10.611615,-30.190399,,,,,,,
1504197103.128208,0.070795,0.564969,0.260600,-0.396925,-0.388745,-0.133008,0.059744,-0.535390,-0.842490,0.034998,0.067616,-0.128244,18.748888,-10.611615,-30.190399,,,,,,,
1504197103.138218,0.067505,0.560841,0.259385,-0.402309,-0.392966,-0.129808,0.057120,-0.531898,-0.844880,0.033365,0.066154,-0.105361,18.672762,-10.161954,-30.193939,,,,,,,
1504197103.148228,0.064231,0.557041,0.258329,-0.359639,-0.380553,-0.108408,0.054483,-0.528677,-0.847073,0.027289,0.063543,-0.066440,18.672762,-10.161954,-30.193939,,,,,,,
1504197103.158237,0.060850,0.553826,0.257671,-0.302158,-0.369351,-0.063497,0.051722,-0.525945,-0.848944,0.022573,0.062780,-0.029581,18.446642,-9.937207,-30.571228,,,,,,,
1504197103.168247,0.057524,0.550003,0.257487,-0.241442,-0.346462,-0.010060,0.049014,-0.522690,-0.851113,0.007367,0.061493,-0.010612,18.446642,-9.937207,-30.571228,,,,,,,
1504197103.178257,0.054304,0.548126,0.257843,-0.170741,-0.286347,0.029450,0.046325,-0.521088,-0.852245,-0.013229,0.063798,-0.012578,18.070955,-9.713742,-30.648865,,,,,,,
1504197103.188267,0.051742,0.547005,0.258396,-0.095473,-0.204930,0.043314,0.044173,-0.520132,-0.852943,-0.020720,0.066869,-0.003044,18.070955,-9.713742,-30.648865,,,,,,,
1504197103.198262,0.050037,0.546563,0.258812,-0.031844,-0.129780,0.027280,0.042729,-0.519754,-0.853247,-0.018697,0.069254,0.012594,17.695284,-9.490277,-30.726440,,,,,,,
1504197103.208272,0.048307,0.545196,0.259283,0.011579,-0.058709,-0.012272,0.041288,-0.518586,-0.854028,-0.021604,0.075074,0.020547,17.695284,-9.490277,-30.726440,,,,,,,
1504197103.218282,0.048598,0.545453,0.258780,0.031617,0.022151,-0.049739,0.041530,-0.518805,-0.853883,-0.027370,0.088217,0.017732,17.995882,-9.863492,-30.947906,,,,,,,
1504197103.228292,0.049823,0.545751,0.257947,0.032336,0.096762,-0.074420,0.042568,-0.519060,-0.853677,-0.033748,0.093111,0.013238,17.995882,-9.863492,-30.947906,,,,,,,
1504197103.238302,0.051771,0.545977,0.256954,0.025441,0.161832,-0.085220,0.044225,-0.519253,-0.853475,-0.037267,0.085415,0.001135,17.545519,-9.715512,-30.950134,,,,,,,
1504197103.248311,0.052416,0.544292,0.256937,0.023826,0.226836,-0.090692,0.044821,-0.517812,-0.854319,-0.047064,0.078542,-0.012807,17.545519,-9.715512,-30.950134,,,,,,,
1504197103.258321,0.055667,0.544457,0.255857,0.019998,0.281214,-0.091862,0.047593,-0.517954,-0.854084,-0.045457,0.077631,-0.009991,18.070284,-9.488599,-30.725525,,,,,,,
1504197103.268331,0.059263,0.544568,0.254760,0.014888,0.307899,-0.094053,0.050661,-0.518049,-0.853850,-0.039995,0.074964,-0.012026,18.070284,-9.488599,-30.725525,,,,,,,
1504197103.278341,0.062862,0.544567,0.253639,0.002011,0.297351,-0.096191,0.053734,-0.518048,-0.853662,-0.033989,0.076764,-0.019537,18.145510,-9.488553,-30.575348,,,,,,,
1504197103.288350,0.065121,0.542348,0.253023,-0.005823,0.254784,-0.097204,0.055737,-0.516148,-0.854684,-0.024639,0.075200,-0.034888,18.145510,-9.488553,-30.575348,,,,,,,
1504197103.298360,0.067815,0.542199,0.251866,-0.007354,0.194062,-0.101369,0.058044,-0.516020,-0.854607,-0.014145,0.073745,-0.053428,18.521532,-9.712476,-30.272705,,,,,,,
1504197103.308370,0.069923,0.542077,0.250665,-0.003540,0.135426,-0.104461,0.059850,-0.515916,-0.854546,-0.005010,0.070573,-0.063713,18.521532,-9.712476,-30.272705,,,,,,,
1504197103.318380,0.071545,0.541979,0.249425,-0.001787,0.086396,-0.106507,0.061240,-0.515833,-0.854498,0.003031,0.067911,-0.061091,18.746477,-9.786160,-30.421600,,,,,,,
1504197103.328389,0.073149,0.539564,0.248003,-0.008455,0.055553,-0.108594,0.062701,-0.513762,-0.855638,0.008862,0.066344,-0.056501,18.746477,-9.786160,-30.421600,,,,,,,
1504197103.338399,0.074164,0.539261,0.246697,-0.027889,0.021623,-0.117107,0.063581,-0.513502,-0.855730,0.009539,0.067015,-0.053816,18.821489,-9.785825,-30.421387,,,,,,,
1504197103.348409,0.074684,0.538592,0.245093,-0.065613,-0.047295,-0.151208,0.064051,-0.512928,-0.856039,0.010198,0.067997,-0.051768,18.821489,-9.785825,-30.421387,,,,,,,
1504197103.358419,0.074782,0.537772,0.243198,-0.066990,-0.099475,-0.172467,0.064167,-0.512224,-0.856452,0.027233,0.075090,-0.071298,18.820620,-9.485669,-30.498657,,,,,,,
1504197103.368428,0.076149,0.534188,0.240454,-0.048914,-0.107064,-0.179880,0.065477,-0.509143,-0.858188,0.037810,0.076907,-0.085644,18.820620,-9.485669,-30.498657,,,,,,,
1504197103.378438,0.076113,0.533676,0.238502,-0.037174,-0.098650,-0.167066,0.065466,-0.508702,-0.858450,0.012629,0.060643,-0.046442,18.745501,-9.261609,-30.200531,,,,,,,
1504197103.388448,0.076296,0.533268,0.236795,-0.027349,-0.056131,-0.143641,0.065639,-0.508350,-0.858645,0.002873,0.052417,-0.034802,18.745501,-9.261609,-30.200531,,,,,,,
1504197103.398458,0.077008,0.533012,0.235336,-0.010886,0.015106,-0.121323,0.066260,-0.508130,-0.858728,-0.014777,0.048108,-0.035300,18.895739,-9.485486,-30.423462,,,,,,,
1504197103.408468,0.077343,0.531606,0.234572,0.013005,0.082014,-0.102193,0.066603,-0.506918,-0.859417,-0.021482,0.045203,-0.025318,18.895739,-9.485486,-30.423462,,,,,,,
1504197103.418477,0.079176,0.531925,0.233433,0.049696,0.139245,-0.093691,0.068165,-0.507194,-0.859132,-0.021946,0.047904,-0.018309,18.970278,-9.260297,-30.349945,,,,,,,
1504197103.428487,0.081559,0.532585,0.232236,0.082143,0.190134,-0.100129,0.070185,-0.507762,-0.858633,-0.021082,0.053569,-0.014658,18.970278,-9.260297,-30.349945,,,,,,,
1504197103.438466,0.084447,0.533499,0.230893,0.108111,0.229357,-0.109760,0.072625,-0.508549,-0.857965,-0.013467,0.061223,-0.011939,18.970736,-9.485150,-30.423279,,,,,,,
1504197103.448476,0.087737,0.532840,0.229406,0.124407,0.262267,-0.120463,0.075477,-0.507982,-0.858055,-0.003501,0.066240,-0.012825,18.970736,-9.485150,-30.423279,,,,,,,
1504197103.458486,0.091144,0.534029,0.227784,0.130771,0.251569,-0.130039,0.078345,-0.509005,-0.857191,-0.001181,0.071353,-0.015277,19.195986,-9.409741,-30.123291,,,,,,,
1504197103.468496,0.094231,0.535145,0.226070,0.121929,0.207961,-0.138517,0.080937,-0.509966,-0.856378,-0.001561,0.071535,-0.019842,19.195986,-9.409741,-30.123291,,,,,,,
1504197103.478505,0.096615,0.536121,0.224268,0.109563,0.123889,-0.146929,0.082930,-0.510805,-0.855687,-0.003630,0.065859,-0.040370,19.421663,-9.633878,-30.046051,,,,,,,
1504197103.488515,0.097990,0.534624,0.222437,0.088640,0.037761,-0.160690,0.084181,-0.509517,-0.856333,-0.002272,0.064434,-0.054388,19.421663,-9.633878,-30.046051,,,,,,,
1504197103.498525,0.098975,0.535150,0.220318,0.061584,-0.022734,-0.180911,0.084999,-0.509970,-0.855982,0.003212,0.068533,-0.059392,19.571291,-9.483197,-30.046814,,,,,,,
1504197103.508535,0.099685,0.535371,0.218064,0.034767,-0.048075,-0.192654,0.085595,-0.510160,-0.855810,0.007376,0.072477,-0.059245,19.571291,-9.483197,-30.046814,,,,,,,
1504197103.518544,0.100398,0.535362,0.215768,0.014529,-0.045774,-0.195895,0.086206,-0.510152,-0.855753,0.003577,0.075139,-0.052755,19.496218,-9.408689,-29.972534,,,,,,,
1504197103.528554,0.100853,0.532919,0.213691,0.010188,-0.043621,-0.184165,0.086720,-0.508049,-0.856951,-0.003255,0.070687,-0.041517,19.496218,-9.408689,-29.972534,,,,,,,
1504197103.538564,0.101341,0.532868,0.211765,0.013206,-0.051130,-0.159597,0.087141,-0.508005,-0.856935,-0.005751,0.066462,-0.034286,19.346178,-9.484067,-30.122375,,,,,,,
1504197103.548574,0.101666,0.532874,0.210149,0.015241,-0.046912,-0.132915,0.087419,-0.508011,-0.856903,-0.014284,0.058365,-0.030930,19.346178,-9.484067,-30.122375,,,,,,,
1504197103.558583,0.102066,0.532839,0.208732,0.006807,-0.025545,-0.119091,0.087764,-0.507980,-0.856886,-0.022884,0.052109,-0.029955,19.570498,-9.257901,-30.198486,,,,,,,
1504197103.568593,0.101742,0.531125,0.207896,-0.000386,0.011802,-0.119176,0.087575,-0.506504,-0.857779,-0.022634,0.049366,-0.027917,19.570498,-9.257901,-30.198486,,,,,,,
1504197103.578603,0.101851,0.529337,0.206937,-0.003243,0.049127,-0.133128,0.087760,-0.504961,-0.858669,-0.024162,0.053530,-0.024052,19.419680,-8.883725,-30.126678,,,,,,,
1504197103.588613,0.102431,0.527562,0.205732,0.001242,0.069346,-0.149172,0.088350,-0.503428,-0.859508,-0.022523,0.057185,-0.019245,19.419680,-8.883725,-30.126678,,,,,,,
1504197103.598623,0.103312,0.525882,0.204226,0.019414,0.066012,-0.166217,0.089194,-0.501976,-0.860270,-0.019385,0.059776,-0.018484,19.495394,-9.258084,-30.273682,,,,,,,
1504197103.608632,0.104162,0.524360,0.202497,0.037350,0.037099,-0.176811,0.090004,-0.500659,-0.860953,-0.016396,0.059314,-0.022424,19.495394,-9.258084,-30.273682,,,,,,,
1504197103.618642,0.104874,0.522987,0.200643,0.046534,-0.007742,-0.169245,0.090689,-0.499470,-0.861571,-0.008505,0.055134,-0.029268,19.870607,-9.256711,-30.122772,,,,,,,
1504197103.628652,0.105212,0.521545,0.198827,0.042809,-0.061008,-0.154213,0.091056,-0.498220,-0.862256,-0.001014,0.053366,-0.039294,19.870607,-9.256711,-30.122772,,,,,,,
1504197103.638662,0.104941,0.519959,0.197177,0.031640,-0.113143,-0.142398,0.090905,-0.496845,-0.863065,0.000999,0.051090,-0.051806,19.420458,-9.333280,-30.348297,,,,,,,
1504197103.648671,0.104197,0.518250,0.195657,0.016464,-0.138596,-0.140244,0.090351,-0.495360,-0.863976,-0.001163,0.048614,-0.058311,19.420458,-9.333280,-30.348297,,,,,,,
1504197103.658681,0.103384,0.516499,0.194069,0.006934,-0.135308,-0.154143,0.089738,-0.493839,-0.864911,-0.003907,0.050083,-0.051197,19.420092,-8.959027,-29.976105,,,,,,,
1504197103.668691,0.102935,0.514843,0.192237,0.011524,-0.105488,-0.175536,0.089434,-0.492398,-0.865763,-0.004992,0.053067,-0.036581,19.420092,-8.959027,-29.976105,,,,,,,
1504197103.678701,0.103004,0.513420,0.190189,0.021487,-0.067195,-0.190530,0.089565,-0.491159,-0.866453,-0.005810,0.053873,-0.022402,19.495501,-9.258237,-30.198669,,,,,,,
1504197103.688710,0.103376,0.512353,0.188078,0.037711,-0.039621,-0.193753,0.089941,-0.490230,-0.866940,-0.008795,0.051708,-0.008914,19.495501,-9.258237,-30.198669,,,,,,,
1504197103.698720,0.103967,0.511766,0.185997,0.076270,-0.014374,-0.186260,0.090483,-0.489718,-0.867173,-0.010268,0.048311,-0.004806,19.420275,-9.258283,-30.348846,,,,,,,
1504197103.708730,0.104656,0.511555,0.184089,0.077324,-0.000555,-0.163868,0.091092,-0.489534,-0.867213,-0.010236,0.044099,0.005061,19.420275,-9.258283,-30.348846,,,,,,,
1504197103.718740,0.105402,0.511542,0.182391,0.055762,-0.011061,-0.137201,0.091739,-0.489522,-0.867151,-0.003971,0.035116,0.022089,19.270494,-9.259244,-30.199219,,,,,,,
1504197103.728750,0.105786,0.510904,0.180937,0.042703,-0.033345,-0.124375,0.092105,-0.488966,-0.867427,-0.002597,0.038725,-0.015630,19.270494,-9.259244,-30.199219,,,,,,,
1504197103.738759,0.105941,0.510075,0.179433,0.044593,-0.065323,-0.129652,0.092283,-0.488242,-0.867815,0.000521,0.042899,-0.024763,19.868792,-8.581555,-30.202820,,,,,,,
1504197103.748769,0.106885,0.508559,0.177313,0.044485,-0.084480,-0.143486,0.093180,-0.486919,-0.868462,0.017766,0.038311,-0.005683,19.868792,-8.581555,-30.202820,,,,,,,
1504197103.758779,0.106867,0.508732,0.175583,0.029567,-0.085417,-0.148847,0.093156,-0.487070,-0.868380,0.017791,0.038462,-0.005765,19.644777,-8.882855,-30.051117,,,,,,,
1504197103.768789,0.107343,0.507989,0.173644,0.011436,-0.082069,-0.146746,0.093608,-0.486421,-0.868696,0.014577,0.034928,-0.002032,19.644777,-8.882855,-30.051117,,,,,,,
1504197103.778798,0.107648,0.507121,0.171884,-0.015313,-0.083987,-0.136112,0.093918,-0.485663,-0.869086,0.011444,0.030447,-0.000558,19.493456,-8.358533,-30.055420,,,,,,,
1504197103.788808,0.107821,0.506098,0.170302,-0.042115,-0.091236,-0.123334,0.094122,-0.484768,-0.869564,0.012140,0.026669,0.001628,19.493456,-8.358533,-30.055420,,,,,,,
1504197103.798818,0.107842,0.504805,0.168935,-0.071091,-0.099538,-0.104153,0.094208,-0.483637,-0.870184,0.014481,0.024408,-0.001703,19.194262,-8.585187,-29.904480,,,,,,,
1504197103.808828,0.107633,0.503321,0.167814,-0.094744,-0.110014,-0.086027,0.094103,-0.482337,-0.870916,0.015272,0.020469,-0.006205,19.194262,-8.585187,-29.904480,,,,,,,
1504197103.818837,0.107132,0.501703,0.166920,-0.110977,-0.128009,-0.070009,0.093750,-0.480919,-0.871738,0.014908,0.017555,-0.007855,19.418550,-8.433728,-30.130066,,,,,,,
1504197103.828817,0.106275,0.499962,0.166240,-0.124008,-0.147093,-0.056120,0.093091,-0.479393,-0.872649,0.013094,0.017219,-0.010392,19.418550,-8.433728,-30.130066,,,,,,,
1504197103.838826,0.105137,0.498186,0.165719,-0.129520,-0.161975,-0.045427,0.092187,-0.477833,-0.873600,0.011756,0.015980,-0.011593,19.043428,-8.435254,-30.205963,,,,,,,
1504197103.848836,0.103801,0.496334,0.165328,-0.139250,-0.172557,-0.037952,0.091112,-0.476205,-0.874601,0.010679,0.014047,-0.013949,19.043428,-8.435254,-30.205963,,,,,,,
1504197103.858846,0.102301,0.494364,0.165032,-0.147869,-0.178883,-0.032618,0.089895,-0.474472,-0.875668,0.009348,0.015900,-0.015414,18.967836,-8.285291,-30.357269,,,,,,,
1504197103.868856,0.100678,0.491698,0.164807,-0.156369,-0.174546,-0.035842,0.088601,-0.472123,-0.877069,0.001044,0.021516,-0.017707,18.967836,-8.285291,-30.357269,,,,,,,
1504197103.878865,0.099177,0.490100,0.164568,-0.156208,-0.156429,-0.039076,0.087360,-0.470714,-0.877950,0.002286,0.020107,-0.016825,19.117373,-8.059766,-30.283630,,,,,,,
1504197103.888875,0.097828,0.487888,0.164300,-0.152923,-0.144734,-0.039091,0.086276,-0.468761,-0.879101,0.001584,0.025737,-0.013477,19.117373,-8.059766,-30.283630,,,,,,,
1504197103.898885,0.096525,0.485738,0.164047,-0.144356,-0.138413,-0.036952,0.085228,-0.466861,-0.880214,0.000832,0.027102,-0.013646,18.742647,-8.211301,-30.358398,,,,,,,
1504197103.908895,0.095191,0.483761,0.163842,-0.126258,-0.139633,-0.032650,0.084141,-0.465112,-0.881244,0.000301,0.024530,-0.017621,18.742647,-8.211301,-30.358398,,,,,,,
1504197103.918905,0.093762,0.481927,0.163633,-0.109305,-0.152561,-0.031530,0.082961,-0.463488,-0.882211,0.000657,0.025774,-0.020407,18.816927,-8.060529,-30.584381,,,,,,,
1504197103.928914,0.092262,0.480258,0.163381,-0.093472,-0.170809,-0.028268,0.081709,-0.462008,-0.883104,0.004885,0.026339,-0.020949,18.816927,-8.060529,-30.584381,,,,,,,
1504197103.938924,0.090686,0.478664,0.163115,-0.087230,-0.186847,-0.023958,0.080383,-0.460594,-0.883964,0.009354,0.027961,-0.018975,18.816362,-8.059781,-30.959381,,,,,,,
1504197103.948934,0.088985,0.477048,0.162869,-0.093794,-0.202780,-0.018603,0.078945,-0.459159,-0.884839,0.012973,0.026405,-0.022189,18.816362,-8.059781,-30.959381,,,,,,,
1504197103.958944,0.087155,0.475387,0.162682,-0.100258,-0.208055,-0.016469,0.077393,-0.457682,-0.885741,0.012146,0.026011,-0.023744,18.590944,-7.761228,-30.737183,,,,,,,
1504197103.968953,0.085367,0.473638,0.162529,-0.102276,-0.193117,-0.017566,0.075877,-0.456127,-0.886674,0.009618,0.026318,-0.024657,18.590944,-7.761228,-30.737183,,,,,,,
1504197103.978963,0.083861,0.472024,0.162333,-0.092398,-0.160159,-0.021876,0.074604,-0.454690,-0.887520,0.008023,0.026894,-0.018089,18.741396,-7.985410,-30.810120,,,,,,,
1504197103.988973,0.082686,0.470699,0.162080,-0.078102,-0.113379,-0.033675,0.073610,-0.453509,-0.888207,-0.000597,0.025256,-0.003822,18.741396,-7.985410,-30.810120,,,,,,,
1504197103.998983,0.081922,0.469625,0.161758,-0.065949,-0.066584,-0.043344,0.072971,-0.452552,-0.888747,-0.006977,0.023490,0.007583,18.515841,-7.761426,-30.812378,,,,,,,
1504197104.008992,0.081534,0.468667,0.161338,-0.060324,-0.035719,-0.052997,0.072662,-0.451697,-0.889207,-0.008682,0.022666,0.011888,18.515841,-7.761426,-30.812378,,,,,,,
1504197104.019002,0.081346,0.467727,0.160861,-0.058032,-0.018685,-0.058361,0.072529,-0.450859,-0.889644,-0.010411,0.022239,0.008861,18.665941,-7.760892,-30.737000,,,,,,,
1504197104.029012,0.081367,0.466706,0.160345,-0.062105,0.003729,-0.062678,0.072585,-0.449947,-0.890101,-0.010955,0.022869,0.003809,18.665941,-7.760892,-30.737000,,,,,,,
1504197104.039022,0.081534,0.465653,0.159801,-0.054525,0.016455,-0.065891,0.072772,-0.449007,-0.890560,-0.011386,0.024095,-0.003346,18.290728,-7.762280,-30.887939,,,,,,,
1504197104.049031,0.081884,0.464633,0.159122,-0.043523,0.027058,-0.077610,0.073122,-0.448094,-0.890991,-0.011003,0.024953,-0.008194,18.290728,-7.762280,-30.887939,,,,,,,
1504197104.059041,0.082407,0.463698,0.158194,-0.031602,0.034445,-0.104289,0.073622,-0.447258,-0.891370,-0.012556,0.026970,-0.006412,18.590837,-7.761090,-30.812195,,,,,,,
1504197104.069051,0.083203,0.462821,0.156862,-0.023918,0.039745,-0.140577,0.074364,-0.446474,-0.891701,-0.010720,0.027132,-0.005546,18.590837,-7.761090,-30.812195,,,,,,,
1504197104.079061,0.084326,0.461939,0.155091,-0.021561,0.047219,-0.174744,0.075399,-0.445684,-0.892009,-0.007878,0.027731,-0.005986,18.366518,-7.987241,-30.736053,,,,,,,
1504197104.089071,0.085613,0.460999,0.152961,-0.020421,0.038716,-0.204615,0.076582,-0.444843,-0.892328,-0.005278,0.029132,-0.007406,18.366518,-7.987241,-30.736053,,,,,,,
1504197104.099080,0.086771,0.460083,0.150548,-0.008815,0.008807,-0.228025,0.077650,-0.444023,-0.892645,-0.004851,0.027732,-0.016810,18.740831,-7.760404,-30.811829,,,,,,,
1504197104.109090,0.087676,0.459225,0.147825,0.007068,-0.024327,-0.258895,0.078492,-0.443253,-0.892953,-0.006761,0.027772,-0.026755,18.740831,-7.760404,-30.811829,,,,,,,
1504197104.119100,0.088418,0.458470,0.144724,0.030455,-0.054323,-0.291891,0.079184,-0.442576,-0.893228,-0.007513,0.032313,-0.029486,18.515459,-7.611417,-30.813507,,,,,,,
1504197104.129110,0.089110,0.457830,0.141249,0.045325,-0.079990,-0.321708,0.079827,-0.442003,-0.893455,-0.004113,0.033799,-0.028710,18.515459,-7.611417,-30.813507,,,,,,,
1504197104.139119,0.089648,0.457285,0.137485,0.054817,-0.107749,-0.346193,0.080329,-0.441514,-0.893651,-0.005195,0.034791,-0.026805,18.890123,-7.609281,-31.037567,,,,,,,
1504197104.149129,0.089979,0.456710,0.133389,0.046237,-0.135347,-0.383519,0.080648,-0.440997,-0.893878,-0.009268,0.034228,-0.023389,18.890123,-7.609281,-31.037567,,,,,,,
1504197104.159139,0.090266,0.456015,0.128784,0.038880,-0.153348,-0.436872,0.080932,-0.440374,-0.894159,-0.012802,0.033972,-0.024542,18.739519,-7.459653,-31.189056,,,,,,,
1504197104.169149,0.090777,0.455173,0.123428,0.043351,-0.170363,-0.507283,0.081423,-0.439618,-0.894487,-0.009798,0.039074,-0.026549,18.739519,-7.459653,-31.189056,,,,,,,
1504197104.179158,0.091526,0.454325,0.117146,0.059579,-0.192789,-0.590473,0.082127,-0.438856,-0.894796,-0.007924,0.044172,-0.024866,18.814928,-7.534619,-31.038330,,,,,,,
1504197104.189168,0.092498,0.453638,0.109825,0.093962,-0.217488,-0.681100,0.083024,-0.438239,-0.895016,-0.006821,0.047720,-0.023517,18.814928,-7.534619,-31.038330,,,,,,,
1504197104.199152,0.093635,0.453439,0.101440,0.134665,-0.252894,-0.771696,0.084050,-0.438060,-0.895008,-0.007756,0.052867,-0.021023,18.739443,-7.384809,-31.114624,,,,,,,
1504197104.209162,0.094702,0.453893,0.092164,0.155865,-0.311607,-0.838802,0.084986,-0.438467,-0.894720,-0.005488,0.051749,-0.016916,18.739443,-7.384809,-31.114624,,,,,,,
1504197104.219141,0.095433,0.454176,0.082373,0.141703,-0.370060,-0.875015,0.085628,-0.438722,-0.894534,-0.000530,0.036714,-0.030530,18.813463,-7.084180,-31.266724,,,,,,,
1504197104.229151,0.095681,0.454411,0.072391,0.095467,-0.426137,-0.893142,0.085841,-0.438933,-0.894410,-0.000742,0.036925,-0.030654,18.813463,-7.084180,-31.266724,,,,,,,
1504197104.239161,0.095354,0.454071,0.062297,0.041672,-0.492809,-0.910196,0.085562,-0.438628,-0.894586,-0.005789,0.028380,-0.045401,18.511889,-6.410672,-31.197510,,,,,,,
1504197104.249170,0.094444,0.453340,0.051897,0.010342,-0.563909,-0.946417,0.084778,-0.437970,-0.894983,-0.009263,0.024945,-0.058584,18.511889,-6.410672,-31.197510,,,,,,,
1504197104.259180,0.093071,0.452487,0.041032,0.010058,-0.626731,-0.990070,0.083584,-0.437203,-0.895470,-0.010022,0.027383,-0.066078,18.586321,-6.185330,-31.199005,,,,,,,
1504197104.269190,0.091367,0.451716,0.029727,0.021582,-0.675806,-1.026255,0.082089,-0.436510,-0.895947,-0.001492,0.030596,-0.061985,18.586321,-6.185330,-31.199005,,,,,,,
1504197104.279200,0.089315,0.451046,0.018298,0.028779,-0.711028,-1.028316,0.080276,-0.435907,-0.896404,0.001343,0.028910,-0.052967,17.909517,-5.737470,-31.654053,,,,,,,
1504197104.289209,0.086800,0.450392,0.007166,0.021930,-0.745108,-0.993043,0.078046,-0.435318,-0.896887,-0.005795,0.017243,-0.049982,17.909517,-5.737470,-31.654053,,,,,,,
1504197104.299219,0.083566,0.449705,-0.003362,0.010576,-0.794093,-0.934269,0.075170,-0.434700,-0.897433,-0.012136,-0.001289,-0.056944,17.759172,-5.737683,-31.879395,,,,,,,
1504197104.309229,0.079471,0.448949,-0.013321,-0.006157,-0.857936,-0.890422,0.071520,-0.434019,-0.898060,-0.020800,-0.017732,-0.062923,17.759172,-5.737683,-31.879395,,,,,,,
1504197104.319239,0.074676,0.448075,-0.023022,-0.025842,-0.910002,-0.877556,0.067242,-0.433231,-0.898771,-0.026547,-0.026120,-0.064455,17.457293,-5.213284,-32.259125,,,,,,,
1504197104.329248,0.069683,0.446982,-0.033005,-0.050382,-0.935332,-0.918115,0.062786,-0.432246,-0.899567,-0.029613,-0.022816,-0.061920,17.457293,-5.213284,-32.259125,,,,,,,
1504197104.339258,0.064870,0.445611,-0.043802,-0.076747,-0.949944,-1.003527,0.058494,-0.431009,-0.900450,-0.028694,-0.009146,-0.056704,17.081285,-4.989377,-32.561768,,,,,,,
1504197104.349268,0.060350,0.444110,-0.055747,-0.083864,-0.973217,-1.111306,0.054462,-0.429654,-0.901350,-0.017688,0.009625,-0.052492,17.081285,-4.989377,-32.561768,,,,,,,
1504197104.359278,0.055907,0.442668,-0.068940,-0.070901,-1.024354,-1.225405,0.050492,-0.428352,-0.902200,-0.011948,0.021613,-0.052954,16.405382,-4.766965,-32.790100,,,,,,,
1504197104.369287,0.051214,0.441403,-0.083332,-0.051823,-1.105388,-1.329835,0.046285,-0.427209,-0.902968,-0.015722,0.024545,-0.050951,16.405382,-4.766965,-32.790100,,,,,,,
1504197104.379297,0.045977,0.440207,-0.098653,-0.052204,-1.200145,-1.405454,0.041579,-0.426127,-0.903707,-0.014052,0.021067,-0.047052,16.104143,-4.318158,-32.869202,,,,,,,
1504197104.389307,0.039939,0.438856,-0.114441,-0.082722,-1.300027,-1.436285,0.036145,-0.424904,-0.904516,-0.005551,0.015694,-0.044474,16.104143,-4.318158,-32.869202,,,,,,,
1504197104.399317,0.032949,0.437121,-0.130224,-0.134666,-1.388050,-1.430883,0.029846,-0.423333,-0.905482,-0.003250,0.003747,-0.045201,15.202913,-4.096311,-33.323120,,,,,,,
1504197104.409327,0.025343,0.434961,-0.145843,-0.187306,-1.423862,-1.415967,0.022981,-0.421375,-0.906595,-0.011796,-0.011700,-0.048224,15.202913,-4.096311,-33.323120,,,,,,,
1504197104.419336,0.017763,0.432480,-0.161353,-0.225527,-1.396913,-1.410744,0.016127,-0.419123,-0.907786,-0.025999,-0.019368,-0.039403,14.600649,-3.423245,-33.704681,,,,,,,
1504197104.429346,0.010800,0.429872,-0.176827,-0.243092,-1.323245,-1.407702,0.009818,-0.416754,-0.908966,-0.031973,-0.014688,-0.011276,14.600649,-3.423245,-33.704681,,,,,,,
1504197104.439356,0.004599,0.427304,-0.192243,-0.244593,-1.240123,-1.401447,0.004185,-0.414419,-0.910077,-0.037266,-0.009287,0.016751,13.923540,-2.900235,-34.235321,,,,,,,
1504197104.449366,-0.001069,0.424990,-0.207554,-0.222896,-1.188099,-1.389760,-0.000974,-0.412311,-0.911043,-0.045626,-0.006619,0.036989,13.923540,-2.900235,-34.235321,,,,,,,
1504197104.459375,-0.006631,0.423078,-0.222659,-0.188733,-1.173482,-1.370513,-0.006047,-0.410569,-0.911809,-0.046932,-0.005172,0.040166,13.096407,-2.228345,-34.542389,,,,,,,
1504197104.469385,-0.012381,0.421572,-0.237512,-0.155889,-1.187630,-1.346949,-0.011296,-0.409196,-0.912377,-0.042659,-0.004623,0.028481,13.096407,-2.228345,-34.542389,,,,,,,
1504197104.479395,-0.018603,0.420434,-0.252185,-0.127528,-1.234764,-1.332940,-0.016982,-0.408157,-0.912754,-0.042497,0.000870,0.017887,12.345583,-1.856870,-34.472076,,,,,,,
1504197104.489405,-0.025512,0.419442,-0.266803,-0.131288,-1.303998,-1.331757,-0.023298,-0.407251,-0.913019,-0.040590,0.001398,0.008188,12.345583,-1.856870,-34.472076,,,,,,,
1504197104.499414,-0.033430,0.418217,-0.281455,-0.172334,-1.379300,-1.351976,-0.030543,-0.406132,-0.913304,-0.040166,0.004719,-0.002132,11.594011,-1.409635,-34.777283,,,,,,,
1504197104.509424,-0.041640,0.416529,-0.296664,-0.239944,-1.454357,-1.393590,-0.038069,-0.404589,-0.913706,-0.044374,0.005221,-0.014227,11.594011,-1.409635,-34.777283,,,,,,,
1504197104.519434,-0.050239,0.414104,-0.312572,-0.331855,-1.514271,-1.458755,-0.045974,-0.402370,-0.914322,-0.039750,0.009029,-0.019867,10.993151,-1.112180,-34.856049,,,,,,,
1504197104.529444,-0.059044,0.410927,-0.329312,-0.422565,-1.561402,-1.530345,-0.054097,-0.399459,-0.915153,-0.027156,0.017044,-0.020073,10.993151,-1.112180,-34.856049,,,,,,,
1504197104.539453,-0.068140,0.407108,-0.346719,-0.495254,-1.609769,-1.580554,-0.062523,-0.395956,-0.916139,-0.011818,0.015859,-0.015716,9.791613,-0.592282,-35.012939,,,,,,,
1504197104.549463,-0.077659,0.402793,-0.364493,-0.567081,-1.664568,-1.599795,-0.071372,-0.391990,-0.917197,-0.002892,0.007773,-0.004495,9.791613,-0.592282,-35.012939,,,,,,,
1504197104.559473,-0.087693,0.397830,-0.382409,-0.652791,-1.709682,-1.600931,-0.080741,-0.387419,-0.918361,-0.000070,-0.004472,0.006664,9.189348,0.080783,-35.394470,,,,,,,
1504197104.569483,-0.098373,0.392025,-0.400158,-0.753703,-1.763236,-1.562585,-0.090764,-0.382061,-0.919669,0.004002,-0.027440,0.007682,9.189348,0.080783,-35.394470,,,,,,,
1504197104.579493,-0.109963,0.385403,-0.417228,-0.848447,-1.816890,-1.477262,-0.101692,-0.375933,-0.921050,0.007377,-0.059355,0.004073,7.386995,0.972842,-35.480682,,,,,,,
1504197104.589502,-0.122380,0.378118,-0.433425,-0.909985,-1.849513,-1.384447,-0.113452,-0.369172,-0.922410,0.010119,-0.064620,0.000306,7.386995,0.972842,-35.480682,,,,,,,
1504197104.599482,-0.135233,0.370746,-0.448878,-0.912400,-1.842105,-1.316151,-0.125661,-0.362311,-0.923548,0.005254,-0.066095,0.016580,6.185198,1.642581,-35.563721,,,,,,,
1504197104.609491,-0.148036,0.363886,-0.463921,-0.858920,-1.807411,-1.287300,-0.137838,-0.355909,-0.924300,0.002508,-0.069216,0.043928,6.185198,1.642581,-35.563721,,,,,,,
1504197104.619501,-0.160398,0.358044,-0.478795,-0.769846,-1.739951,-1.282995,-0.149583,-0.350443,-0.924562,0.010224,-0.062598,0.079546,5.133547,2.387561,-35.421936,,,,,,,
1504197104.629511,-0.171809,0.353195,-0.493539,-0.685661,-1.618102,-1.280929,-0.160412,-0.345898,-0.924458,0.018673,-0.053715,0.122456,5.133547,2.387561,-35.421936,,,,,,,
1504197104.639521,-0.181694,0.349043,-0.508078,-0.640573,-1.439470,-1.264087,-0.169800,-0.341999,-0.924232,0.018555,-0.046749,0.156837,3.857882,2.606982,-35.501770,,,,,,,
1504197104.649530,-0.189659,0.345029,-0.522237,-0.644379,-1.221036,-1.220715,-0.177413,-0.338224,-0.924191,0.015731,-0.049227,0.178219,3.857882,2.606982,-35.501770,,,,,,,
1504197104.659540,-0.195590,0.340700,-0.535910,-0.677024,-1.001308,-1.168857,-0.183174,-0.334147,-0.924550,0.012917,-0.060003,0.181737,3.106386,3.203616,-35.508118,,,,,,,
1504197104.669550,-0.200497,0.336623,-0.549497,-0.637978,-0.932348,-1.185989,-0.187979,-0.330301,-0.924968,0.003317,-0.065023,0.167475,3.106386,3.203616,-35.508118,,,,,,,
1504197104.679560,-0.205424,0.333323,-0.563282,-0.566590,-0.961678,-1.213566,-0.192755,-0.327185,-0.925092,0.023108,-0.023844,0.125837,2.279726,3.949618,-35.365753,,,,,,,
1504197104.689569,-0.211794,0.330984,-0.577418,-0.476955,-1.136038,-1.281417,-0.198804,-0.324974,-0.924591,0.045179,0.009163,0.050018,2.279726,3.949618,-35.365753,,,,,,,
1504197104.699579,-0.219262,0.329780,-0.592236,-0.397443,-1.247436,-1.357936,-0.205789,-0.323835,-0.923462,0.029336,0.059797,-0.027313,1.303835,4.394931,-35.221558,,,,,,,
1504197104.709589,-0.227027,0.329390,-0.606900,-0.331402,-1.243746,-1.330075,-0.212981,-0.323466,-0.921959,0.042632,0.085597,-0.110542,1.303835,4.394931,-35.221558,,,,,,,
1504197104.719599,-0.234133,0.328671,-0.620599,-0.393944,-1.119743,-1.212988,-0.219581,-0.322785,-0.920649,0.062919,0.051331,-0.097967,0.253908,4.539615,-34.925262,,,,,,,
1504197104.729609,-0.239569,0.324360,-0.634026,-0.834381,-0.896708,-1.111674,-0.224910,-0.318702,-0.920784,0.053814,-0.013878,-0.036796,0.253908,4.539615,-34.925262,,,,,,,
1504197104.739618,-0.243679,0.317041,-0.647164,-0.993409,-0.846475,-1.020242,-0.229250,-0.311756,-0.922091,0.027056,-0.098919,0.043155,-0.497404,4.836993,-35.304382,,,,,,,
1504197104.749628,-0.253056,0.314308,-0.657070,-0.295973,-1.408709,-0.782146,-0.238099,-0.309158,-0.920723,0.007813,-0.178375,0.150062,-0.497404,4.836993,-35.304382,,,,,,,
1504197104.759638,-0.266415,0.315848,-0.665251,-0.070492,-1.526669,-0.828513,-0.250251,-0.310623,-0.916999,0.086661,-0.106903,0.087059,-1.322096,4.982394,-34.857513,,,,,,,
1504197104.769648,-0.274607,0.314707,-0.675737,-0.476820,-1.042617,-0.944282,-0.257850,-0.309538,-0.915259,0.197044,0.034178,-0.186013,-1.322096,4.982394,-34.857513,,,,,,,
1504197104.779657,-0.281067,0.311385,-0.686582,-0.626003,-0.978585,-0.879542,-0.264042,-0.306377,-0.914557,0.066883,-0.021046,-0.122033,-2.447081,4.977328,-34.860291,,,,,,,
1504197104.789667,-0.288002,0.307075,-0.697510,-0.735335,-1.046939,-0.888150,-0.270751,-0.302272,-0.913962,-0.004457,-0.025624,0.005286,-2.447081,4.977328,-34.860291,,,,,,,
1504197104.799677,-0.296239,0.302096,-0.709673,-0.831336,-1.245303,-0.996842,-0.278705,-0.297522,-0.913129,0.043720,-0.011590,0.031415,-2.897764,5.424716,-34.564789,,,,,,,
1504197104.809687,-0.306431,0.296878,-0.723364,-0.905126,-1.480059,-1.124644,-0.288462,-0.292536,-0.911709,0.053415,-0.012868,0.028469,-2.897764,5.424716,-34.564789,,,,,,,
1504197104.819696,-0.318099,0.291558,-0.738588,-0.963491,-1.651012,-1.248263,-0.299562,-0.287444,-0.909746,0.056749,0.026473,-0.035215,-4.323500,5.942554,-34.197266,,,,,,,
1504197104.829706,-0.331329,0.286333,-0.754535,-0.982768,-1.815983,-1.284297,-0.312056,-0.282437,-0.907111,0.021575,0.028759,-0.044686,-4.323500,5.942554,-34.197266,,,,,,,
1504197104.839716,-0.346082,0.281358,-0.770506,-0.976447,-1.953508,-1.274437,-0.325877,-0.277661,-0.903719,-0.007009,0.028332,-0.029767,-5.449629,6.611758,-33.830078,,,,,,,
1504197104.849726,-0.362411,0.276643,-0.785987,-0.942640,-2.093438,-1.217559,-0.341050,-0.273128,-0.899492,0.013734,0.028392,0.002764,-5.449629,6.611758,-33.830078,,,,,,,
1504197104.859735,-0.380614,0.272547,-0.800684,-0.879184,-2.257065,-1.153116,-0.357778,-0.269185,-0.894167,0.044393,-0.005580,0.058519,-6.949507,7.053378,-33.012146,,,,,,,
1504197104.869745,-0.400834,0.268665,-0.814776,-0.878878,-2.448936,-1.094070,-0.376189,-0.265445,-0.887706,0.062742,-0.016385,0.096400,-6.949507,7.053378,-33.012146,,,,,,,
1504197104.879755,-0.423820,0.264863,-0.829022,-0.903625,-2.757730,-1.119186,-0.396905,-0.261777,-0.879738,0.086724,-0.022586,0.101677,-8.598845,7.194613,-32.342316,,,,,,,
1504197104.889765,-0.451266,0.261389,-0.844057,-0.942676,-3.272037,-1.172784,-0.421291,-0.258422,-0.869328,0.100582,-0.008683,0.057652,-8.598845,7.194613,-32.342316,,,,,,,
1504197104.899775,-0.484616,0.257371,-0.859832,-1.086411,-3.908071,-1.182586,-0.450524,-0.254539,-0.855709,0.062020,-0.008492,-0.013447,-10.622633,7.109164,-31.671722,,,,,,,
1504197104.909784,-0.524828,0.252558,-0.876814,-1.253233,-4.636610,-1.204006,-0.485169,-0.249882,-0.837956,0.045899,-0.067379,-0.072704,-10.622633,7.109164,-31.671722,,,,,,,
1504197104.919794,-0.572663,0.246891,-0.894778,-1.448463,-5.418246,-1.176281,-0.525441,-0.244391,-0.814975,0.158070,-0.162332,-0.100735,-13.546186,7.243625,-30.480042,,,,,,,
1504197104.929804,-0.627073,0.240009,-0.914169,-1.707893,-6.081086,-1.135001,-0.569957,-0.237712,-0.786538,0.288173,-0.199086,-0.095771,-13.546186,7.243625,-30.480042,,,,,,,
1504197104.939814,-0.686431,0.231768,-0.935125,-1.981048,-6.575475,-1.066290,-0.616835,-0.229698,-0.752830,0.407789,-0.207252,-0.102806,-16.619322,7.750613,-28.391541,,,,,,,
1504197104.949823,-0.749411,0.222555,-0.957995,-2.214827,-6.868702,-1.084324,-0.664407,-0.220722,-0.714034,0.480539,-0.198360,-0.096207,-16.619322,7.750613,-28.391541,,,,,,,
1504197104.959833,-0.812596,0.214325,-0.983703,-2.389747,-6.831923,-1.251206,-0.709463,-0.212688,-0.671883,0.506109,-0.201207,-0.060630,-20.516371,8.551517,-25.107300,,,,,,,
1504197104.969843,-0.871227,0.208808,-1.012579,-2.497111,-6.302189,-1.552267,-0.748500,-0.207294,-0.629902,0.506358,-0.185483,0.010945,-20.516371,8.551517,-25.107300,,,,,,,
1504197104.979853,-0.920824,0.207588,-1.044622,-2.526977,-5.360584,-1.971333,-0.779009,-0.206100,-0.592172,0.492922,-0.165238,0.107202,-23.511320,8.456592,-21.889069,,,,,,,
1504197104.989832,-0.958378,0.211539,-1.079131,-2.477859,-4.164923,-2.417396,-0.800020,-0.209965,-0.562034,0.459963,-0.166332,0.200950,-23.511320,8.456592,-21.889069,,,,,,,
1504197104.999842,-0.983231,0.220255,-1.115230,-2.395956,-2.962145,-2.794033,-0.812186,-0.218479,-0.540944,0.407264,-0.192975,0.282720,-25.456068,8.067157,-19.040985,,,,,,,
1504197105.009851,-0.997379,0.232511,-1.152057,-2.312544,-2.028038,-3.047443,-0.817447,-0.230422,-0.527908,0.357852,-0.224748,0.326400,-25.456068,8.067157,-19.040985,,,,,,,
1504197105.019861,-1.004802,0.246478,-1.189472,-2.313547,-1.546278,-3.144360,-0.818546,-0.243990,-0.520049,0.328983,-0.237470,0.307906,-26.501020,7.308246,-16.937927,,,,,,,
1504197105.029871,-1.011282,0.260387,-1.227020,-2.337987,-1.639895,-3.100474,-0.818944,-0.257455,-0.512882,0.322774,-0.214744,0.234669,-26.501020,7.308246,-16.937927,,,,,,,
1504197105.039881,-1.020653,0.273800,-1.264969,-2.424798,-2.062268,-3.057184,-0.820696,-0.270392,-0.503335,0.333422,-0.148507,0.117593,-27.922209,6.325046,-16.034088,,,,,,,
1504197105.049891,-1.035470,0.287117,-1.303644,-2.526933,-2.717808,-3.059385,-0.824894,-0.283188,-0.489239,0.342441,-0.117035,0.023404,-27.922209,6.325046,-16.034088,,,,,,,
1504197105.059900,-1.055454,0.300234,-1.344197,-2.752452,-3.322241,-3.092867,-0.831201,-0.295744,-0.470787,0.344751,-0.108736,0.000527,-28.591093,4.968417,-14.225586,,,,,,,
1504197105.069910,-1.080241,0.314118,-1.386823,-2.929395,-3.904616,-3.204224,-0.838911,-0.308977,-0.448064,0.335585,-0.092069,0.019170,-28.591093,4.968417,-14.225586,,,,,,,
1504197105.079920,-1.108472,0.329809,-1.431547,-3.088690,-4.329348,-3.392681,-0.846780,-0.323863,-0.421990,0.314783,-0.120519,0.082025,-29.184843,3.910922,-11.819153,,,,,,,
1504197105.089930,-1.137611,0.348072,-1.478666,-3.256505,-4.520585,-3.638137,-0.853204,-0.341086,-0.394591,0.306482,-0.106881,0.118865,-29.184843,3.910922,-11.819153,,,,,,,
1504197105.099939,-1.166795,0.369935,-1.527549,-3.279863,-4.683134,-3.921820,-0.857292,-0.361555,-0.366507,0.314339,-0.045290,0.173316,-30.075804,2.100894,-8.807800,,,,,,,
1504197105.109949,-1.195955,0.395835,-1.576497,-3.182021,-4.750803,-4.180910,-0.858610,-0.385578,-0.337814,0.349897,-0.016109,0.248917,-30.075804,2.100894,-8.807800,,,,,,,
1504197105.119959,-1.223709,0.425602,-1.624118,-2.970020,-4.641531,-4.369665,-0.856477,-0.412869,-0.309815,0.378496,-0.066897,0.281937,-30.590330,-0.456845,-6.089905,,,,,,,
1504197105.129969,-1.250316,0.458641,-1.669038,-2.695592,-4.540328,-4.466502,-0.851001,-0.442730,-0.282466,0.398059,-0.055286,0.335719,-30.590330,-0.456845,-6.089905,,,,,,,
1504197105.139978,-1.274795,0.493915,-1.711610,-2.479300,-4.341723,-4.516645,-0.842192,-0.474076,-0.256835,0.402434,0.002122,0.369933,-30.279722,-2.936337,-3.145538,,,,,,,
1504197105.149988,-1.297145,0.531085,-1.751544,-2.240583,-4.132662,-4.553959,-0.830174,-0.506469,-0.233024,0.389118,0.063629,0.385826,-30.279722,-2.936337,-3.145538,,,,,,,
1504197105.159998,-1.316129,0.570326,-1.789761,-2.083765,-3.805632,-4.667409,-0.814577,-0.539906,-0.212050,0.351687,0.065526,0.422102,-29.819181,-5.788800,-0.872986,,,,,,,
1504197105.170008,-1.330350,0.611647,-1.825963,-1.817725,-3.277067,-4.751137,-0.795151,-0.574217,-0.194963,0.290176,0.022642,0.437013,-29.819181,-5.788800,-0.872986,,,,,,,
1504197105.180017,-1.337601,0.653818,-1.856479,-1.257354,-2.238586,-4.630313,-0.772282,-0.608222,-0.183430,0.230092,0.007331,0.467853,-28.609129,-8.712018,0.951965,,,,,,,
1504197105.190027,-1.335773,0.696153,-1.881510,-0.829527,-1.126504,-4.556815,-0.746221,-0.641271,-0.178681,0.127797,0.030934,0.558106,-28.609129,-8.712018,0.951965,,,,,,,
1504197105.200040,-1.328846,0.738349,-1.902979,-0.497559,-0.632793,-4.437562,-0.718039,-0.673068,-0.177201,-0.009073,0.042330,0.705140,-27.325743,-11.557935,1.801514,,,,,,,
1504197105.210050,-1.322008,0.778848,-1.921733,-0.295002,-0.632586,-4.190641,-0.689810,-0.702460,-0.175248,-0.107416,0.112479,0.632004,-27.325743,-11.557935,1.801514,,,,,,,
1504197105.220060,-1.319532,0.816642,-1.938111,-0.127124,-1.041383,-3.849128,-0.663173,-0.728851,-0.170229,-0.154896,0.168212,0.446520,-25.820097,-13.801206,1.822113,,,,,,,
1504197105.230069,-1.324751,0.851269,-1.950980,0.061520,-1.635797,-3.476297,-0.639181,-0.752117,-0.160520,-0.194238,0.119183,0.330243,-25.820097,-13.801206,1.822113,,,,,,,
1504197105.240079,-1.338866,0.882586,-1.960109,0.202923,-2.251160,-3.077893,-0.618149,-0.772384,-0.145995,-0.230636,0.105438,0.243148,-24.539381,-15.671826,2.514343,,,,,,,
1504197105.250089,-1.360741,0.910463,-1.965496,0.310478,-2.708516,-2.699039,-0.599897,-0.789788,-0.127898,-0.269426,0.087319,0.189284,-24.539381,-15.671826,2.514343,,,,,,,
1504197105.260099,-1.388644,0.935291,-1.966976,0.426323,-2.960228,-2.369635,-0.583764,-0.804772,-0.107526,-0.276740,0.118447,0.185376,-23.183943,-17.167995,3.653931,,,,,,,
1504197105.270108,-1.420530,0.957617,-1.964978,0.507807,-3.030408,-2.133474,-0.568985,-0.817823,-0.086149,-0.273575,0.151426,0.220365,-23.183943,-17.167995,3.653931,,,,,,,
1504197105.280118,-1.455955,0.978308,-1.958745,0.667205,-3.001002,-1.957128,-0.554748,-0.829554,-0.063990,-0.266770,0.161249,0.266764,-21.978971,-18.290447,5.090363,,,,,,,
1504197105.290128,-1.493888,0.997440,-1.947057,0.880861,-2.740779,-1.807781,-0.540851,-0.840085,-0.041678,-0.286160,0.121823,0.315039,-21.978971,-18.290447,5.090363,,,,,,,
1504197105.300138,-1.533790,1.015202,-1.929051,1.124305,-2.375279,-1.686319,-0.527087,-0.849587,-0.019514,-0.321714,0.073983,0.372832,-20.550489,-18.737194,6.672272,,,,,,,
1504197105.310147,-1.576119,1.031119,-1.904876,1.327236,-2.116044,-1.527382,-0.513852,-0.857875,0.002735,-0.332721,0.028193,0.423168,-20.550489,-18.737194,6.672272,,,,,,,
1504197105.320157,-1.621688,1.044423,-1.876434,1.427424,-2.128813,-1.312638,-0.501751,-0.864635,0.025557,-0.285099,0.058116,0.339052,-19.196913,-19.483364,7.806274,,,,,,,
1504197105.330167,-1.671835,1.054647,-1.845387,1.469940,-2.402203,-1.076186,-0.491018,-0.869726,0.049781,-0.295832,0.063208,0.314828,-19.196913,-19.483364,7.806274,,,,,,,
1504197105.340177,-1.725832,1.062122,-1.814185,1.395708,-2.769406,-0.899546,-0.481178,-0.873391,0.075204,-0.262444,0.121835,0.202049,-17.919294,-19.630627,9.310577,,,,,,,
1504197105.350186,-1.782186,1.068111,-1.783969,1.310030,-3.044744,-0.847974,-0.471056,-0.876292,0.101087,-0.216398,0.146708,0.126513,-17.919294,-19.630627,9.310577,,,,,,,
1504197105.360196,-1.839642,1.073431,-1.753734,1.276766,-3.081744,-0.869314,-0.459973,-0.878843,0.126730,-0.181186,0.106733,0.121622,-17.316587,-19.855770,10.738800,,,,,,,
1504197105.370206,-1.896976,1.078399,-1.721876,1.311972,-2.857122,-0.936895,-0.447813,-0.881202,0.151478,-0.192461,0.008339,0.175273,-17.316587,-19.855770,10.738800,,,,,,,
1504197105.380185,-1.953436,1.082914,-1.687132,1.398576,-2.477344,-1.006796,-0.434857,-0.883327,0.175020,-0.212222,-0.081745,0.245207,-15.739546,-19.776684,12.242126,,,,,,,
1504197105.390195,-2.008724,1.086453,-1.649359,1.500940,-2.098810,-1.029702,-0.421688,-0.884981,0.197456,-0.219136,-0.107100,0.291421,-15.739546,-19.776684,12.242126,,,,,,,
1504197105.400205,-2.063278,1.088419,-1.609562,1.581341,-1.893851,-0.991498,-0.408759,-0.885894,0.219332,-0.217492,-0.112854,0.292585,-14.463133,-19.623333,13.444153,,,,,,,
1504197105.410215,-2.118181,1.088302,-1.569087,1.651036,-1.924362,-0.895257,-0.396196,-0.885840,0.241487,-0.206328,-0.104730,0.240264,-14.463133,-19.623333,13.444153,,,,,,,
1504197105.420224,-2.174243,1.085952,-1.529251,1.685037,-2.138944,-0.782742,-0.383755,-0.884748,0.264487,-0.186130,-0.091464,0.153024,-13.411070,-19.770855,14.572876,,,,,,,
1504197105.430234,-2.230868,1.082030,-1.491545,1.635747,-2.386899,-0.709807,-0.370910,-0.882913,0.287908,-0.157273,-0.091910,0.067805,-13.411070,-19.770855,14.572876,,,,,,,
1504197105.440244,-2.287104,1.077508,-1.455966,1.565592,-2.496063,-0.723612,-0.357149,-0.880781,0.310918,-0.143843,-0.111712,0.016566,-12.284803,-19.468502,15.923462,,,,,,,
1504197105.450254,-2.341229,1.072489,-1.421582,1.541370,-2.329619,-0.734622,-0.342974,-0.878393,0.332859,-0.167479,-0.162775,0.022107,-12.284803,-19.468502,15.923462,,,,,,,
1504197105.460263,-2.390864,1.066362,-1.388452,1.550607,-1.952510,-0.698979,-0.329702,-0.875448,0.353394,-0.225199,-0.214838,0.077621,-11.085035,-18.790035,16.896362,,,,,,,
1504197105.470273,-2.434532,1.059314,-1.357141,1.531417,-1.521897,-0.653873,-0.317961,-0.872020,0.372132,-0.288759,-0.258351,0.144928,-11.085035,-18.790035,16.896362,,,,,,,
1504197105.480283,-2.471041,1.051622,-1.328934,1.452231,-1.087650,-0.553373,-0.308325,-0.868229,0.388733,-0.336786,-0.248088,0.164276,-9.884550,-18.486294,17.722076,,,,,,,
1504197105.490293,-2.499600,1.043617,-1.305735,1.296945,-0.787115,-0.383388,-0.301251,-0.864229,0.402933,-0.356250,-0.215498,0.130300,-9.884550,-18.486294,17.722076,,,,,,,
1504197105.500302,-2.522199,1.035665,-1.288670,1.101487,-0.817688,-0.176596,-0.296049,-0.860202,0.415220,-0.342211,-0.189023,0.088625,-9.284330,-18.035381,18.620209,,,,,,,
1504197105.510312,-2.541890,1.028015,-1.277636,0.900851,-1.100756,0.022092,-0.291522,-0.856275,0.426388,-0.307248,-0.152163,0.012332,-9.284330,-18.035381,18.620209,,,,,,,
1504197105.520322,-2.560331,1.020874,-1.271582,0.723899,-1.391423,0.166397,-0.286960,-0.852565,0.436791,-0.217144,-0.134587,-0.055108,-8.759565,-17.584225,19.218109,,,,,,,
1504197105.530332,-2.578285,1.014441,-1.268419,0.604972,-1.555664,0.216649,-0.281995,-0.849186,0.446501,-0.222110,-0.137967,-0.064817,-8.759565,-17.584225,19.218109,,,,,,,
1504197105.540342,-2.595350,1.008353,-1.266079,0.586466,-1.472388,0.210065,-0.277016,-0.845955,0.455657,-0.204140,-0.153114,-0.001738,-7.784010,-17.580578,19.595520,,,,,,,
1504197105.550351,-2.610671,1.001886,-1.263078,0.658131,-1.196964,0.187288,-0.272766,-0.842488,0.464555,-0.215195,-0.188487,0.086623,-7.784010,-17.580578,19.595520,,,,,,,
1504197105.560361,-2.623399,0.994954,-1.259552,0.702032,-0.913870,0.181528,-0.269718,-0.838734,0.473052,-0.223690,-0.212902,0.176729,-7.558867,-17.280773,20.193848,,,,,,,
1504197105.570371,-2.634950,0.987417,-1.255472,0.795904,-0.786765,0.175062,-0.267295,-0.834606,0.481649,-0.226006,-0.233586,0.220758,-7.558867,-17.280773,20.193848,,,,,,,
1504197105.580381,-2.645753,0.978631,-1.251220,0.912453,-0.718522,0.233851,-0.265556,-0.829734,0.490939,-0.216897,-0.238625,0.170499,-7.259459,-16.680614,20.790100,,,,,,,
1504197105.590390,-2.656578,0.968644,-1.247825,0.985670,-0.848152,0.320666,-0.264076,-0.824118,0.501092,-0.182594,-0.241433,0.123359,-7.259459,-16.680614,20.790100,,,,,,,
1504197105.600400,-2.669045,0.958327,-1.245487,0.962983,-1.122936,0.364875,-0.261665,-0.818231,0.511889,-0.131600,-0.244468,0.094984,-6.810118,-16.154491,21.237274,,,,,,,
1504197105.610410,-2.683692,0.948467,-1.243761,0.915206,-1.372937,0.344952,-0.257693,-0.812523,0.522877,-0.092267,-0.204597,0.025524,-6.810118,-16.154491,21.237274,,,,,,,
1504197105.620420,-2.698758,0.939016,-1.242043,0.887923,-1.336448,0.311751,-0.253066,-0.806977,0.533615,-0.078416,-0.174681,-0.012146,-6.060530,-15.851560,21.461853,,,,,,,
1504197105.630429,-2.711586,0.929664,-1.240038,0.901253,-1.024302,0.278134,-0.249335,-0.801419,0.543654,-0.092416,-0.173663,0.014910,-6.060530,-15.851560,21.461853,,,,,,,
1504197105.640439,-2.719439,0.920967,-1.238127,0.807410,-0.503485,0.247166,-0.247905,-0.796187,0.551932,-0.116200,-0.176088,0.092858,-5.536436,-15.175244,21.983154,,,,,,,
1504197105.650449,-2.720965,0.914510,-1.237105,0.533810,0.072118,0.192307,-0.249157,-0.792263,0.556992,-0.139775,-0.160495,0.144943,-5.536436,-15.175244,21.983154,,,,,,,
1504197105.660459,-2.714954,0.912854,-1.238100,-0.043481,0.670511,0.096320,-0.253043,-0.791252,0.556677,-0.153390,-0.201607,0.022913,-5.236555,-14.949491,22.282166,,,,,,,
1504197105.670468,-2.702277,0.918815,-1.242801,-0.878282,0.942840,-0.018752,-0.258069,-0.794883,0.549146,-0.126911,-0.251534,-0.228483,-5.236555,-14.949491,22.282166,,,,,,,
1504197105.680478,-2.686587,0.931250,-1.251710,-1.461775,0.801697,-0.055805,-0.262288,-0.802367,0.536109,-0.063792,-0.422105,-0.616569,-5.762190,-14.876264,21.980347,,,,,,,
1504197105.690488,-2.671480,0.945701,-1.263636,-1.634550,0.443956,-0.001036,-0.265076,-0.810907,0.521694,-0.046417,-0.638418,-0.977535,-5.762190,-14.876264,21.980347,,,,,,,
1504197105.700498,-2.659539,0.959550,-1.276839,-1.535808,0.023229,0.063921,-0.266055,-0.818933,0.508491,-0.058790,-0.608145,-0.716209,-6.060072,-15.852170,21.761902,,,,,,,
1504197105.710508,-2.651184,0.970209,-1.289723,-1.182605,-0.298416,0.181447,-0.266167,-0.825004,0.498521,-0.051063,-0.386895,-0.262041,-6.060072,-15.852170,21.761902,,,,,,,
1504197105.720517,-2.646276,0.976473,-1.300582,-0.725165,-0.421605,0.253973,-0.266149,-0.828528,0.492652,-0.050669,-0.196695,0.049248,-6.210081,-16.301342,21.014893,,,,,,,
1504197105.730527,-2.644018,0.978746,-1.307848,-0.292364,-0.344169,0.239642,-0.266361,-0.829798,0.490394,-0.055630,-0.139013,0.270195,-6.210081,-16.301342,21.014893,,,,,,,
1504197105.740537,-2.642417,0.978729,-1.311787,-0.060762,-0.106253,0.177715,-0.267153,-0.829789,0.489980,-0.056135,-0.117233,0.367564,-6.134809,-16.450848,20.941193,,,,,,,
1504197105.750547,-2.639785,0.978339,-1.314180,-0.035263,0.115235,0.126133,-0.268597,-0.829571,0.489559,-0.022388,-0.110172,0.345662,-6.134809,-16.450848,20.941193,,,,,,,
1504197105.760526,-2.635251,0.978414,-1.317203,-0.106057,0.220217,0.155713,-0.270784,-0.829613,0.488281,0.018983,-0.084419,0.177658,-5.984968,-16.300472,21.090424,,,,,,,
1504197105.770536,-2.630063,0.978832,-1.321169,-0.158862,0.163095,0.169598,-0.273144,-0.829846,0.486567,-0.017780,-0.028781,-0.070140,-5.984968,-16.300472,21.090424,,,,,,,
1504197105.780545,-2.626082,0.979911,-1.324900,-0.205220,0.066568,0.110981,-0.274637,-0.830448,0.484697,-0.016287,-0.028179,-0.068269,-6.284513,-16.526684,21.016388,,,,,,,
1504197105.790555,-2.623067,0.981494,-1.327764,-0.217624,0.075264,0.044765,-0.275445,-0.831329,0.482724,-0.001685,-0.001496,-0.029660,-6.284513,-16.526684,21.016388,,,,,,,
1504197105.800565,-2.619997,0.983542,-1.329572,-0.232307,0.190553,-0.035519,-0.276077,-0.832465,0.480399,0.043091,0.017478,0.003960,-6.358686,-16.901867,20.944000,,,,,,,
1504197105.810575,-2.616733,0.986283,-1.330046,-0.257452,0.314482,-0.143588,-0.276499,-0.833981,0.477519,0.048578,0.039623,0.039311,-6.358686,-16.901867,20.944000,,,,,,,
1504197105.820584,-2.614238,0.989752,-1.328676,-0.259516,0.377501,-0.270724,-0.276232,-0.835890,0.474324,0.064364,0.057966,0.054240,-6.583906,-16.678326,21.166779,,,,,,,
1504197105.830594,-2.612947,0.993494,-1.325305,-0.211718,0.423030,-0.368923,-0.275265,-0.837938,0.471264,0.089351,0.050707,0.047520,-6.583906,-16.678326,21.166779,,,,,,,
1504197105.840604,-2.612388,0.996585,-1.320189,-0.092473,0.506262,-0.398750,-0.274219,-0.839621,0.468871,0.079685,0.004080,0.046555,-6.434126,-16.901608,20.643829,,,,,,,
1504197105.850614,-2.611469,0.998521,-1.314334,0.018043,0.608674,-0.359245,-0.273827,-0.840671,0.467216,0.026177,-0.032452,0.060555,-6.434126,-16.901608,20.643829,,,,,,,
1504197105.860623,-2.609836,0.999418,-1.308266,0.111300,0.688848,-0.317596,-0.274208,-0.841156,0.466118,-0.047829,-0.037063,0.072853,-6.809324,-16.828289,20.642334,,,,,,,
1504197105.870633,-2.607896,0.999298,-1.301979,0.202059,0.722158,-0.278004,-0.275163,-0.841092,0.465672,-0.110320,-0.019275,0.059398,-6.809324,-16.828289,20.642334,,,,,,,
1504197105.880643,-2.606586,0.998915,-1.295862,0.192527,0.608200,-0.260741,-0.275937,-0.840884,0.465589,-0.110965,-0.021710,0.041202,-6.958830,-16.979122,20.718079,,,,,,,
1504197105.890653,-2.606005,0.998992,-1.290849,0.110944,0.434078,-0.226418,-0.276174,-0.840926,0.465372,-0.080012,-0.034883,-0.020990,-6.958830,-16.979122,20.718079,,,,,,,
1504197105.900663,-2.605832,0.999485,-1.287267,0.041243,0.285420,-0.180379,-0.276043,-0.841193,0.464968,-0.032108,-0.021738,-0.122881,-7.109434,-16.829494,20.566589,,,,,,,
1504197105.910672,-2.605630,1.000131,-1.284806,0.005238,0.213211,-0.136550,-0.275859,-0.841542,0.464445,-0.002522,0.000905,-0.151029,-7.109434,-16.829494,20.566589,,,,,,,
1504197105.920682,-2.605272,1.000704,-1.282919,0.004928,0.189745,-0.111959,-0.275779,-0.841851,0.463932,0.011604,0.018090,-0.094440,-7.409422,-16.830837,20.565857,,,,,,,
1504197105.930692,-2.604928,1.001065,-1.281074,0.024110,0.192773,-0.102325,-0.275784,-0.842046,0.463576,0.012829,0.015874,-0.004820,-7.409422,-16.830837,20.565857,,,,,,,
1504197105.940702,-2.604273,1.001288,-1.279225,0.035079,0.234235,-0.095974,-0.275991,-0.842166,0.463234,0.012731,0.003726,0.048882,-7.334394,-16.755795,20.715454,,,,,,,
1504197105.950711,-2.602888,1.001253,-1.277411,0.060123,0.310730,-0.074718,-0.276647,-0.842147,0.462876,0.010091,-0.004761,0.058044,-7.334394,-16.755795,20.715454,,,,,,,
1504197105.960721,-2.600619,1.000653,-1.276016,0.099586,0.345509,-0.016004,-0.277957,-0.841824,0.462680,-0.001783,-0.014912,0.049969,-7.409575,-16.681133,20.714722,,,,,,,
1504197105.970731,-2.598064,0.999557,-1.275743,0.097304,0.244211,0.065294,-0.279615,-0.841231,0.462758,-0.008593,-0.021027,0.034373,-7.409575,-16.681133,20.714722,,,,,,,
1504197105.980741,-2.595802,0.998226,-1.277181,0.065469,0.056831,0.158433,-0.281242,-0.840511,0.463081,-0.001366,-0.032673,-0.003807,-7.484571,-16.681469,20.714539,,,,,,,
1504197105.990750,-2.594096,0.996567,-1.279944,0.067080,-0.096704,0.231290,-0.282757,-0.839611,0.463790,0.006894,-0.030353,-0.048080,-7.484571,-16.681469,20.714539,,,,,,,
1504197106.000760,-2.592815,0.994543,-1.283236,0.083513,-0.156546,0.263446,-0.284237,-0.838510,0.464876,0.028347,-0.021643,-0.051424,-7.408674,-17.130840,20.568115,,,,,,,
1504197106.010770,-2.591741,0.992353,-1.286236,0.108313,-0.133292,0.248504,-0.285695,-0.837314,0.466136,0.044927,-0.030193,-0.012828,-7.408674,-17.130840,20.568115,,,,,,,
1504197106.020780,-2.590720,0.990003,-1.288244,0.156243,-0.036673,0.205721,-0.287200,-0.836028,0.467519,0.053832,-0.048173,0.016200,-7.484007,-16.906475,20.716217,,,,,,,
1504197106.030789,-2.589311,0.987263,-1.289277,0.217039,0.084322,0.189602,-0.289059,-0.834521,0.469062,0.045315,-0.069394,0.030328,-7.484007,-16.906475,20.716217,,,,,,,
1504197106.040799,-2.587329,0.984248,-1.290011,0.235652,0.147033,0.194861,-0.291311,-0.832856,0.470625,0.020605,-0.094726,0.040468,-7.710218,-16.382641,20.786743,,,,,,,
1504197106.050809,-2.584945,0.981387,-1.291207,0.195072,0.131390,0.210848,-0.293690,-0.831269,0.471951,0.004323,-0.094527,0.025516,-7.710218,-16.382641,20.786743,,,,,,,
1504197106.060819,-2.582795,0.979356,-1.293128,0.093095,0.042739,0.192682,-0.295598,-0.830139,0.472749,0.005269,-0.062439,-0.000291,-8.084944,-16.309917,21.085236,,,,,,,
1504197106.070829,-2.581045,0.977926,-1.295329,0.052201,-0.012317,0.174563,-0.297056,-0.829340,0.473236,0.027861,-0.029165,-0.028274,-8.084944,-16.309917,21.085236,,,,,,,
1504197106.080838,-2.579664,0.976337,-1.296883,0.106989,0.019225,0.150052,-0.298411,-0.828451,0.473940,0.070857,-0.016412,-0.044725,-7.785185,-16.308270,20.935974,,,,,,,
1504197106.090848,-2.579021,0.974105,-1.297035,0.209917,0.062100,0.118132,-0.299701,-0.827199,0.475311,0.063190,-0.027827,0.009323,-7.785185,-16.308270,20.935974,,,,,,,
1504197106.100858,-2.579188,0.970856,-1.295659,0.357615,0.113109,0.107624,-0.301053,-0.825369,0.477632,0.033521,-0.050226,0.071288,-7.935743,-16.083950,20.933929,,,,,,,
1504197106.110868,-2.580050,0.966010,-1.292891,0.538111,0.152089,0.133486,-0.302768,-0.822624,0.481271,-0.005505,-0.070138,0.114783,-7.935743,-16.083950,20.933929,,,,,,,
1504197106.120877,-2.581301,0.959354,-1.289220,0.715164,0.181472,0.192448,-0.305069,-0.818821,0.486277,-0.046265,-0.073300,0.179799,-8.160658,-16.159801,20.858948,,,,,,,
1504197106.130887,-2.582898,0.951595,-1.285758,0.773902,0.095672,0.257813,-0.307650,-0.814342,0.492136,-0.068311,0.005077,0.236334,-8.160658,-16.159801,20.858948,,,,,,,
1504197106.140897,-2.585722,0.942664,-1.282581,0.887357,-0.076906,0.337301,-0.310085,-0.809127,0.499161,-0.065876,-0.000138,0.229309,-8.161039,-15.785550,21.231140,,,,,,,
1504197106.150876,-2.591275,0.932583,-1.279684,0.939621,-0.447153,0.389280,-0.311558,-0.803161,0.507802,-0.063762,0.000412,0.149836,-8.161039,-15.785550,21.231140,,,,,,,
1504197106.160886,-2.600823,0.925380,-1.279031,0.521560,-0.999884,0.323352,-0.309666,-0.798850,0.515700,-0.067410,-0.035547,0.140535,-8.462095,-15.187497,21.525879,,,,,,,
1504197106.170896,-2.610274,0.921708,-1.281111,0.179649,-1.083345,0.287682,-0.306262,-0.796635,0.521129,-0.029706,-0.038326,-0.081020,-8.462095,-15.187497,21.525879,,,,,,,
1504197106.180905,-2.614545,0.920400,-1.284009,-0.025237,-0.485878,0.181668,-0.304557,-0.795844,0.523333,0.073234,-0.010675,-0.429247,-7.712324,-14.959577,21.751068,,,,,,,
1504197106.190915,-2.612131,0.921440,-1.285921,-0.179350,0.277482,0.001799,-0.305402,-0.796473,0.521881,0.116788,0.014186,-0.333298,-7.712324,-14.959577,21.751068,,,,,,,
1504197106.200897,-2.605233,0.923850,-1.286210,-0.220692,0.757488,-0.138949,-0.308013,-0.797928,0.518111,0.122664,0.079651,-0.154066,-7.711912,-15.034879,21.901642,,,,,,,
1504197106.210907,-2.598291,0.926813,-1.284995,-0.211599,0.766040,-0.237150,-0.310378,-0.799710,0.513934,0.113464,0.133542,-0.030277,-7.711912,-15.034879,21.901642,,,,,,,
1504197106.220917,-2.594347,0.929969,-1.282512,-0.183313,0.522925,-0.308188,-0.311088,-0.801601,0.510548,0.111534,0.144466,0.030010,-7.787321,-15.184171,21.377563,,,,,,,
1504197106.230926,-2.594263,0.932889,-1.278527,-0.102890,0.268712,-0.368442,-0.309912,-0.803344,0.508521,0.115484,0.147826,0.016396,-7.787321,-15.184171,21.377563,,,,,,,
1504197106.240936,-2.597083,0.935394,-1.273437,-0.047660,0.089261,-0.391513,-0.307433,-0.804833,0.507670,0.109420,0.151254,0.025488,-8.086912,-15.260816,21.527374,,,,,,,
1504197106.250946,-2.600876,0.937704,-1.268268,-0.039676,0.031634,-0.373251,-0.304547,-0.806202,0.507237,0.080579,0.148334,0.028651,-8.086912,-15.260816,21.527374,,,,,,,
1504197106.260956,-2.603959,0.939681,-1.263449,-0.012603,0.104899,-0.335975,-0.302165,-0.807370,0.506804,0.015895,0.135342,-0.019026,-8.012251,-15.260022,21.302551,,,,,,,
1504197106.270965,-2.606343,0.941107,-1.258693,0.027096,0.149299,-0.309299,-0.300369,-0.808210,0.506532,-0.046479,0.125135,-0.037675,-8.012251,-15.260022,21.302551,,,,,,,
1504197106.280975,-2.608934,0.942476,-1.254148,0.013722,0.088652,-0.292137,-0.298493,-0.809016,0.506355,-0.048309,0.103114,0.005029,-8.086866,-15.410367,21.303497,,,,,,,
1504197106.290985,-2.611779,0.943681,-1.250235,0.012910,0.015086,-0.247178,-0.296558,-0.809723,0.506361,-0.016384,0.086442,-0.004514,-8.086866,-15.410367,21.303497,,,,,,,
1504197106.300995,-2.614545,0.944732,-1.247199,-0.004917,-0.045563,-0.192664,-0.294728,-0.810340,0.506443,-0.006282,0.073325,-0.034901,-7.936872,-15.409696,21.303864,,,,,,,
1504197106.311004,-2.617001,0.945734,-1.245198,-0.037569,-0.092237,-0.138201,-0.293077,-0.810927,0.506462,-0.014281,0.066618,-0.021355,-7.936872,-15.409696,21.303864,,,,,,,
1504197106.321014,-2.618776,0.946921,-1.244197,-0.084709,-0.094017,-0.101988,-0.291696,-0.811621,0.506147,-0.012976,0.068792,-0.019560,-7.711866,-15.408673,21.304413,,,,,,,
1504197106.331024,-2.619761,0.948112,-1.243912,-0.096446,-0.069453,-0.062557,-0.290716,-0.812316,0.505596,-0.009592,0.069594,-0.016079,-7.711866,-15.408673,21.304413,,,,,,,
1504197106.341034,-2.620011,0.949179,-1.244348,-0.110458,-0.061920,-0.022034,-0.290158,-0.812938,0.504917,-0.015277,0.062281,0.002102,-7.711729,-15.334119,21.528870,,,,,,,
1504197106.351043,-2.619881,0.950302,-1.245550,-0.137561,-0.093702,0.013200,-0.289768,-0.813591,0.504087,-0.022167,0.057594,0.019610,-7.711729,-15.334119,21.528870,,,,,,,
1504197106.361053,-2.619646,0.951407,-1.247586,-0.162870,-0.160675,0.060240,-0.289438,-0.814233,0.503239,-0.006384,0.071069,0.022945,-7.560743,-15.633756,21.681519,,,,,,,
1504197106.371063,-2.619212,0.952960,-1.250688,-0.247768,-0.224997,0.079419,-0.289025,-0.815134,0.502017,0.004036,0.082483,0.020551,-7.560743,-15.633756,21.681519,,,,,,,
1504197106.381073,-2.618498,0.955081,-1.254203,-0.291306,-0.206511,0.067570,-0.288519,-0.816360,0.500312,0.009467,0.088028,0.001946,-7.711378,-15.558835,21.380554,,,,,,,
1504197106.391083,-2.617271,0.957404,-1.257711,-0.307846,-0.148818,0.053563,-0.288183,-0.817700,0.498314,0.023015,0.063992,-0.032265,-7.711378,-15.558835,21.380554,,,,,,,
1504197106.401092,-2.615460,0.960176,-1.261023,-0.343299,-0.068568,0.017068,-0.287945,-0.819293,0.495830,0.029721,0.040576,-0.004955,-7.560637,-15.858151,21.383179,,,,,,,
1504197106.411102,-2.612702,0.963247,-1.264233,-0.358344,0.041330,0.000838,-0.288041,-0.821050,0.492859,0.031098,0.033544,0.005874,-7.560637,-15.858151,21.383179,,,,,,,
1504197106.421112,-2.609474,0.966221,-1.267094,-0.334400,0.092295,-0.012020,-0.288390,-0.822744,0.489820,0.021651,0.027379,0.023363,-7.560926,-15.783002,21.307587,,,,,,,
